~Version Information Block
 VERS.                2.00:     CWLS LOG ASCII STANDARD - VERSION 2.000000
 WRAP.                  NO:     One Line Per Depth Step
#
~Well Information Block
#MNEM.UNIT                     Data                         Information
#----------   ------------------------------------------   ----------------
 STRT.FT                                        0.0000:
 STOP.FT                                     3200.0000:
 STEP.FT                                        0.5000:
 NULL.                                       -999.2500:
 COMP.                                                :     COMPANY
 WELL.                                                :     WELL
 FLD .                                                :     FIELD
 CNTY.                                                :     COUNTY
 STAT.                                                :     STATE
 CTRY.                                                :     COUNTRY
 SRVC.                                                :     SERVICE COMPANY
 DATE.                                                :     DATE
 API .                                                :     API NUMBER
 UWI .                                                :     UWI NUMBER
#
~Curve Information Block
#MNEM.UNIT       API CODE      Curve Description
#----------    -------------   -------------------
 DEPT.FT                   :   Depth in Feet
 GR  .GAPI                 :   Gamma Ray
 NEUT.GAPI                 :   Neutrons
#
~A  DEPTH         GR       NEUT  
# ...
  1416.000      9.558    998.818 
  1416.500      9.533    983.201 
  1417.000      9.458    967.029 
  1417.500      9.388    957.772 
  1418.000      9.354    952.063 
  1418.500      9.329    941.639 
  1419.000      9.267    924.576 
  1419.500      9.169    906.350 
  1420.000      9.074    892.813 
  1420.500      8.994    885.623 
  1421.000      8.895    883.367 
  1421.500      8.765    884.764 
  1422.000      8.633    889.377 
  1422.500      8.483    895.172 
  1423.000      8.272    898.457 
  1423.500      8.044    898.184 
  1424.000      7.936    897.372 
  1424.500      7.996    897.652 
  1425.000      8.094    896.031 
  1425.500      8.096    889.543 
  1426.000      8.034    881.849 
  1426.500      8.028    877.172 
  1427.000      8.115    873.953 
  1427.500      8.235    871.479 
  1428.000      8.318    871.607 
  1428.500      8.340    873.725 
  1429.000      8.331    874.460 
  1429.500      8.344    873.544 
  1430.000      8.400    874.040 
  1430.500      8.454    876.892 
  1431.000      8.452    880.179 
  1431.500      8.414    882.191 
  1432.000      8.401    881.739 
  1432.500      8.428    878.322 
  1433.000      8.440    873.888 
  1433.500      8.381    871.672 
  1434.000      8.256    872.317 
  1434.500      8.122    874.778 
  1435.000      8.030    877.475 
  1435.500      7.994    879.423 
  1436.000      8.011    880.023 
  1436.500      8.079    879.312 
  1437.000      8.179    878.852 
  1437.500      8.244    880.765 
  1438.000      8.214    884.904 
  1438.500      8.110    888.300 
  1439.000      8.015    888.736 
  1439.500      7.976    887.542 
  1440.000      7.982    887.271 
  1440.500      8.029    887.631 
  1441.000      8.138    885.850 
  1441.500      8.280    880.847 
  1442.000      8.338    874.947 
  1442.500      8.214    870.955 
  1443.000      7.952    869.177 
  1443.500      7.717    868.461 
  1444.000      7.642    868.868 
  1444.500      7.733    871.355 
  1445.000      7.879    874.874 
  1445.500      7.959    876.104 
  1446.000      7.928    873.304 
  1446.500      7.848    868.819 
  1447.000      7.818    866.435 
  1447.500      7.878    867.257 
  1448.000      7.968    869.376 
  1448.500      8.006    870.323 
  1449.000      7.984    868.657 
  1449.500      7.982    864.255 
  1450.000      8.071    858.740 
  1450.500      8.239    854.947 
  1451.000      8.408    854.925 
  1451.500      8.507    858.322 
  1452.000      8.500    862.527 
  1452.500      8.390    864.351 
  1453.000      8.210    862.479 
  1453.500      8.011    858.957 
  1454.000      7.846    857.438 
  1454.500      7.761    859.475 
  1455.000      7.790    863.869 
  1455.500      7.939    869.710 
  1456.000      8.177    878.023 
  1456.500      8.457    889.275 
  1457.000      8.749    900.749 
  1457.500      9.022    907.802 
  1458.000      9.216    907.614 
  1458.500      9.275    901.419 
  1459.000      9.204    893.373 
  1459.500      9.075    887.548 
  1460.000      8.971    885.676 
  1460.500      8.942    886.923 
  1461.000      8.985    889.005 
  1461.500      9.056    889.971 
  1462.000      9.113    889.987 
  1462.500      9.158    891.313 
  1463.000      9.211    895.711 
  1463.500      9.269    901.940 
  1464.000      9.287    906.378 
  1464.500      9.221    906.001 
  1465.000      9.068    900.883 
  1465.500      8.876    894.192 
  1466.000      8.708    889.778 
  1466.500      8.600    888.937 
  1467.000      8.551    889.634 
  1467.500      8.535    889.457 
  1468.000      8.536    888.509 
  1468.500      8.554    888.598 
  1469.000      8.586    890.329 
  1469.500      8.605    892.194 
  1470.000      8.565    892.223 
  1470.500      8.458    889.712 
  1471.000      8.337    885.356 
  1471.500      8.277    880.369 
  1472.000      8.313    876.043 
  1472.500      8.433    874.077 
  1473.000      8.593    875.865 
  1473.500      8.721    880.323 
  1474.000      8.740    883.594 
  1474.500      8.647    882.652 
  1475.000      8.529    878.672 
  1475.500      8.474    875.133 
  1476.000      8.479    873.285 
  1476.500      8.486    871.691 
  1477.000      8.482    869.633 
  1477.500      8.520    868.559 
  1478.000      8.631    869.660 
  1478.500      8.768    872.168 
  1479.000      8.841    874.551 
  1479.500      8.798    875.786 
  1480.000      8.666    875.549 
  1480.500      8.527    874.878 
  1481.000      8.485    876.729 
  1481.500      8.604    883.817 
  1482.000      8.840    895.263 
  1482.500      9.045    907.342 
  1483.000      9.070    917.464 
  1483.500      8.918    925.890 
  1484.000      8.739    934.059 
  1484.500      8.692    943.284 
  1485.000      8.805    954.555 
  1485.500      8.980    968.062 
  1486.000      9.122    983.342 
  1486.500      9.215    999.686 
  1487.000      9.286   1014.859 
  1487.500      9.319   1027.578 
  1488.000      9.281   1029.479 
  1488.500      9.218   1025.099 
  1489.000      9.263   1031.818 
  1489.500      9.486   1039.185 
  1490.000      9.803   1039.353 
  1490.500     10.074   1042.677 
  1491.000     10.259   1047.163 
  1491.500     10.403   1043.087 
  1492.000     10.531   1035.633 
  1492.500     10.620   1031.206 
  1493.000     10.652   1025.876 
  1493.500     10.630   1018.639 
  1494.000     10.576   1014.095 
  1494.500     10.533   1013.100 
  1495.000     10.519   1012.599 
  1495.500     10.472   1012.106 
  1496.000     10.317   1011.557 
  1496.500     10.082   1010.164 
  1497.000      9.894   1008.238 
  1497.500      9.820   1007.000 
  1498.000      9.809   1007.501 
  1498.500      9.790   1009.149 
  1499.000      9.761   1010.533 
  1499.500      9.758   1011.527 
  1500.000      9.785   1013.021 
  1500.500      9.808   1014.914 
  1501.000      9.804   1016.288 
  1501.500      9.799   1017.315 
  1502.000      9.854   1019.148 
  1502.500      9.998   1021.890 
  1503.000     10.185   1024.023 
  1503.500     10.328   1024.019 
  1504.000     10.379   1021.588 
  1504.500     10.364   1017.638 
  1505.000     10.327   1013.860 
  1505.500     10.267   1011.888 
  1506.000     10.164   1011.947 
  1506.500     10.036   1012.619 
  1507.000      9.945   1012.626 
  1507.500      9.940   1012.433 
  1508.000     10.016   1013.492 
  1508.500     10.132   1016.300 
  1509.000     10.257   1019.740 
  1509.500     10.371   1022.137 
  1510.000     10.445   1022.701 
  1510.500     10.443   1022.114 
  1511.000     10.366   1021.624 
  1511.500     10.256   1021.447 
  1512.000     10.160   1020.386 
  1512.500     10.091   1017.328 
  1513.000     10.032   1012.772 
  1513.500      9.967   1008.279 
  1514.000      9.905   1004.686 
  1514.500      9.865   1001.562 
  1515.000      9.864    998.441 
  1515.500      9.906    995.833 
  1516.000      9.985    994.558 
  1516.500     10.098    994.398 
  1517.000     10.231    994.015 
  1517.500     10.338    992.327 
  1518.000     10.365    989.614 
  1518.500     10.299    987.024 
  1519.000     10.184    985.359 
  1519.500     10.071    984.688 
  1520.000      9.987    984.851 
  1520.500      9.948    985.663 
  1521.000      9.973    986.707 
  1521.500     10.067    987.375 
  1522.000     10.219    987.123 
  1522.500     10.417    985.685 
  1523.000     10.618    983.449 
  1523.500     10.731    981.643 
  1524.000     10.692    981.256 
  1524.500     10.563    981.617 
  1525.000     10.489    981.114 
  1525.500     10.537    979.535 
  1526.000     10.636    978.208 
  1526.500     10.692    977.363 
  1527.000     10.679    975.250 
  1527.500     10.625    970.765 
  1528.000     10.549    965.182 
  1528.500     10.461    960.089 
  1529.000     10.371    955.387 
  1529.500     10.301    950.688 
  1530.000     10.278    947.131 
  1530.500     10.301    946.211 
  1531.000     10.328    947.616 
  1531.500     10.300    949.460 
  1532.000     10.205    950.139 
  1532.500     10.074    949.537 
  1533.000      9.941    948.999 
  1533.500      9.820    950.436 
