~Version Information Block
 VERS.                2.00:     CWLS LOG ASCII STANDARD - VERSION 2.000000
 WRAP.                  NO:     One Line Per Depth Step
#
~Well Information Block
#MNEM.UNIT                     Data                         Information
#----------   ------------------------------------------   ----------------
 STRT.FT                                        0.0000:
 STOP.FT                                     3200.0000:
 STEP.FT                                        0.5000:
 NULL.                                       -999.2500:
 COMP.                                                :     COMPANY
 WELL.                                                :     WELL
 FLD .                                                :     FIELD
 CNTY.                                                :     COUNTY
 STAT.                                                :     STATE
 CTRY.                                                :     COUNTRY
 SRVC.                                                :     SERVICE COMPANY
 DATE.                                                :     DATE
 API .                                                :     API NUMBER
 UWI .                                                :     UWI NUMBER
#
~Curve Information Block
#MNEM.UNIT       API CODE      Curve Description
#----------    -------------   -------------------
 DEPT.FT                   :   Depth in Feet
 GR  .GAPI                 :   Gamma Ray
 NEUT.GAPI                 :   Neutrons
#
~A  DEPTH         GR       NEUT  
# ...
  1534.000      9.725    954.469 
  1534.500      9.682    959.216 
  1535.000      9.716    962.016 
  1535.500      9.812    962.449 
  1536.000      9.916    962.150 
  1536.500      9.988    961.215 
  1537.000     10.055    957.109 
  1537.500     10.178    948.614 
  1538.000     10.352    938.771 
  1538.500     10.496    931.570 
  1539.000     10.561    927.102 
  1539.500     10.579    922.474 
  1540.000     10.556    916.498 
  1540.500     10.432    910.929 
  1541.000     10.193    907.513 
  1541.500      9.955    906.042 
  1542.000      9.838    905.272 
  1542.500      9.812    904.138 
  1543.000      9.751    902.154 
  1543.500      9.616    899.729 
  1544.000      9.503    898.111 
  1544.500      9.506    898.367 
  1545.000      9.604    900.425 
  1545.500      9.694    903.233 
  1546.000      9.701    905.328 
  1546.500      9.643    905.418 
  1547.000      9.595    903.379 
  1547.500      9.612    900.989 
  1548.000      9.677    900.635 
  1548.500      9.739    902.797 
  1549.000      9.772    905.493 
  1549.500      9.785    906.741 
  1550.000      9.796    906.577 
  1550.500      9.819    906.063 
  1551.000      9.856    905.404 
  1551.500      9.885    904.174 
  1552.000      9.865    902.741 
  1552.500      9.784    902.205 
  1553.000      9.690    903.084 
  1553.500      9.654    904.763 
  1554.000      9.703    905.994 
  1554.500      9.806    905.491 
  1555.000      9.914    902.551 
  1555.500     10.000    897.804 
  1556.000     10.073    892.968 
  1556.500     10.169    889.390 
  1557.000     10.309    887.246 
  1557.500     10.451    886.463 
  1558.000     10.522    887.547 
  1558.500     10.490    890.705 
  1559.000     10.396    895.000 
  1559.500     10.310    899.235 
  1560.000     10.288    903.098 
  1560.500     10.356    906.692 
  1561.000     10.481    909.569 
  1561.500     10.566    911.012 
  1562.000     10.551    910.778 
  1562.500     10.502    909.170 
  1563.000     10.521    906.997 
  1563.500     10.607    905.560 
  1564.000     10.666    905.740 
  1564.500     10.653    906.862 
  1565.000     10.616    907.222 
  1565.500     10.609    905.991 
  1566.000     10.633    903.940 
  1566.500     10.677    902.318 
  1567.000     10.753    901.739 
  1567.500     10.872    902.059 
  1568.000     11.027    902.453 
  1568.500     11.199    901.536 
  1569.000     11.352    898.388 
  1569.500     11.418    893.886 
  1570.000     11.344    890.279 
  1570.500     11.144    889.013 
  1571.000     10.901    889.381 
  1571.500     10.680    889.456 
  1572.000     10.486    887.802 
  1572.500     10.315    884.173 
  1573.000     10.222    879.502 
  1573.500     10.277    875.681 
  1574.000     10.459    874.446 
  1574.500     10.655    875.687 
  1575.000     10.777    877.336 
  1575.500     10.840    877.541 
  1576.000     10.898    876.634 
  1576.500     10.944    876.628 
  1577.000     10.929    879.117 
  1577.500     10.849    883.906 
  1578.000     10.760    889.298 
  1578.500     10.698    893.401 
  1579.000     10.644    895.337 
  1579.500     10.580    895.712 
  1580.000     10.517    896.151 
  1580.500     10.472    898.177 
  1581.000     10.459    902.080 
  1581.500     10.528    906.700 
  1582.000     10.729    910.444 
  1582.500     11.025    912.523 
  1583.000     11.288    913.086 
  1583.500     11.431    912.484 
  1584.000     11.486    911.061 
  1584.500     11.525    909.471 
  1585.000     11.546    908.319 
  1585.500     11.497    907.400 
  1586.000     11.381    906.194 
  1586.500     11.279    905.201 
  1587.000     11.278    905.746 
  1587.500     11.403    908.022 
  1588.000     11.622    910.364 
  1588.500     11.856    911.129 
  1589.000     12.012    910.566 
  1589.500     12.030    910.223 
  1590.000     11.938    911.135 
  1590.500     11.819    913.314 
  1591.000     11.741    916.295 
  1591.500     11.719    919.276 
  1592.000     11.713    921.108 
  1592.500     11.633    921.176 
  1593.000     11.404    920.328 
  1593.500     11.104    920.162 
  1594.000     10.945    921.319 
  1594.500     11.022    923.028 
  1595.000     11.183    924.334 
  1595.500     11.238    925.066 
  1596.000     11.206    925.491 
  1596.500     11.218    925.798 
  1597.000     11.267    926.255 
  1597.500     11.244    927.282 
  1598.000     11.137    928.992 
  1598.500     11.039    930.920 
  1599.000     10.983    932.315 
  1599.500     10.916    932.536 
  1600.000     10.808    931.407 
  1600.500     10.700    929.458 
  1601.000     10.620    927.526 
  1601.500     10.552    925.854 
  1602.000     10.499    924.095 
  1602.500     10.507    922.466 
  1603.000     10.617    922.030 
  1603.500     10.804    923.283 
  1604.000     10.984    925.131 
  1604.500     11.070    926.129 
  1605.000     11.034    926.195 
  1605.500     10.923    926.324 
  1606.000     10.825    926.934 
  1606.500     10.799    927.351 
  1607.000     10.849    926.997 
  1607.500     10.956    926.323 
  1608.000     11.095    926.215 
  1608.500     11.233    926.990 
  1609.000     11.318    928.266 
  1609.500     11.322    929.360 
  1610.000     11.271    929.573 
  1610.500     11.222    928.650 
  1611.000     11.220    927.287 
  1611.500     11.251    926.476 
  1612.000     11.253    925.968 
  1612.500     11.186    924.304 
  1613.000     11.089    920.960 
  1613.500     11.041    917.471 
  1614.000     11.075    915.501 
  1614.500     11.162    914.684 
  1615.000     11.259    913.496 
  1615.500     11.319    911.544 
  1616.000     11.299    909.922 
  1616.500     11.214    909.534 
  1617.000     11.150    909.933 
  1617.500     11.166    909.784 
  1618.000     11.215    908.080 
  1618.500     11.230    905.009 
  1619.000     11.225    901.745 
  1619.500     11.225    899.340 
  1620.000     11.176    898.270 
  1620.500     11.005    899.238 
  1621.000     10.766    903.310 
  1621.500     10.617    910.013 
  1622.000     10.625    916.107 
  1622.500     10.687    918.221 
  1623.000     10.666    916.984 
  1623.500     10.571    916.471 
  1624.000     10.513    918.681 
  1624.500     10.545    920.702 
  1625.000     10.618    919.045 
  1625.500     10.687    914.838 
  1626.000     10.770    912.167 
  1626.500     10.889    912.355 
  1627.000     10.998    912.713 
  1627.500     11.024    910.728 
  1628.000     10.953    906.943 
  1628.500     10.862    903.413 
  1629.000     10.845    901.297 
  1629.500     10.915    900.514 
  1630.000     11.013    900.273 
  1630.500     11.105    899.431 
  1631.000     11.206    897.417 
  1631.500     11.308    895.078 
  1632.000     11.350    893.884 
  1632.500     11.288    894.109 
  1633.000     11.152    894.524 
  1633.500     11.006    894.178 
  1634.000     10.889    893.702 
  1634.500     10.805    894.333 
  1635.000     10.750    896.363 
  1635.500     10.727    899.109 
  1636.000     10.751    901.842 
  1636.500     10.816    904.063 
  1637.000     10.866    905.288 
  1637.500     10.845    905.450 
  1638.000     10.766    905.387 
  1638.500     10.676    906.134 
  1639.000     10.588    907.555 
  1639.500     10.492    908.257 
  1640.000     10.430    907.250 
  1640.500     10.464    905.358 
  1641.000     10.609    904.438 
  1641.500     10.833    905.473 
  1642.000     11.091    907.899 
  1642.500     11.323    910.562 
  1643.000     11.455    912.649 
  1643.500     11.467    913.709 
  1644.000     11.408    913.423 
  1644.500     11.332    911.719 
  1645.000     11.247    908.860 
  1645.500     11.138    905.466 
  1646.000     11.019    902.532 
  1646.500     10.929    901.126 
  1647.000     10.903    901.595 
  1647.500     10.954    903.016 
  1648.000     11.062    903.795 
  1648.500     11.186    903.178 
  1649.000     11.283    901.911 
  1649.500     11.331    900.994 
  1650.000     11.356    900.104 
  1650.500     11.405    898.060 
  1651.000     11.475    894.814 
  1651.500     11.478    891.978 
