~Version Information Block
 VERS.                2.00:     CWLS LOG ASCII STANDARD - VERSION 2.000000
 WRAP.                  NO:     One Line Per Depth Step
#
~Well Information Block
#MNEM.UNIT                     Data                         Information
#----------   ------------------------------------------   ----------------
 STRT.FT                                        0.0000:
 STOP.FT                                     3200.0000:
 STEP.FT                                        0.5000:
 NULL.                                       -999.2500:
 COMP.                                                :     COMPANY
 WELL.                                                :     WELL
 FLD .                                                :     FIELD
 CNTY.                                                :     COUNTY
 STAT.                                                :     STATE
 CTRY.                                                :     COUNTRY
 SRVC.                                                :     SERVICE COMPANY
 DATE.                                                :     DATE
 API .                                                :     API NUMBER
 UWI .                                                :     UWI NUMBER
#
~Curve Information Block
#MNEM.UNIT       API CODE      Curve Description
#----------    -------------   -------------------
 DEPT.FT                   :   Depth in Feet
 GR  .GAPI                 :   Gamma Ray
 NEUT.GAPI                 :   Neutrons
#
~A  DEPTH         GR       NEUT  
# ...
   826.000      6.302    883.941 
   826.500      6.172    892.908 
   827.000      5.949    906.461 
   827.500      5.675    923.122 
   828.000      5.433    936.391 
   828.500      5.270    941.301 
   829.000      5.176    939.929 
   829.500      5.123    936.163 
   830.000      5.101    931.555 
   830.500      5.105    926.779 
   831.000      5.116    921.285 
   831.500      5.114    913.296 
   832.000      5.096    903.652 
   832.500      5.058    895.554 
   833.000      4.994    890.939 
   833.500      4.927    890.607 
   834.000      4.933    894.205 
   834.500      5.080    901.486 
   835.000      5.364    917.808 
   835.500      5.773    947.717 
   836.000      6.344    979.649 
   836.500      7.068    995.807 
   837.000      7.747    996.948 
   837.500      8.113   1006.411 
   838.000      8.099   1014.989 
   838.500      7.912   1026.246 
   839.000      7.795   1034.030 
   839.500      7.815   1036.677 
   840.000      7.895   1036.816 
   840.500      7.963   1038.496 
   841.000      7.997   1044.249 
   841.500      7.939   1051.477 
   842.000      7.670   1064.702 
   842.500      7.146   1070.117 
   843.000      6.510   1080.706 
   843.500      5.988   1112.807 
   844.000      5.673   1142.273 
   844.500      5.501   1169.127 
   845.000      5.410   1181.900 
   845.500      5.402   1184.011 
   846.000      5.465   1181.813 
   846.500      5.538   1178.950 
   847.000      5.558   1176.609 
   847.500      5.491   1175.503 
   848.000      5.319   1175.541 
   848.500      5.068   1175.498 
   849.000      4.823   1174.545 
   849.500      4.665   1173.371 
   850.000      4.612   1173.137 
   850.500      4.653   1174.209 
   851.000      4.779   1176.249 
   851.500      4.916   1178.856 
   852.000      4.889   1180.994 
   852.500      4.565   1181.199 
   853.000      4.025   1178.694 
   853.500      3.516   1174.573 
   854.000      3.195   1170.872 
   854.500      3.025   1168.703 
   855.000      2.914   1167.577 
   855.500      2.850   1166.418 
   856.000      2.852   1164.795 
   856.500      2.879   1163.095 
   857.000      2.865   1161.951 
   857.500      2.795   1161.783 
   858.000      2.710   1162.624 
   858.500      2.648   1164.030 
   859.000      2.629   1165.151 
   859.500      2.652   1165.190 
   860.000      2.707   1163.991 
   860.500      2.796   1162.121 
   861.000      2.922   1160.334 
   861.500      3.063   1158.865 
   862.000      3.170   1157.319 
   862.500      3.206   1155.348 
   863.000      3.167   1153.244 
   863.500      3.076   1151.462 
   864.000      2.972   1149.607 
   864.500      2.910   1146.574 
   865.000      2.916   1141.919 
   865.500      2.954   1136.368 
   866.000      2.974   1130.841 
   866.500      2.971   1125.992 
   867.000      2.977   1123.002 
   867.500      3.007   1123.397 
   868.000      3.056   1127.100 
   868.500      3.135   1131.575 
   869.000      3.267   1133.811 
   869.500      3.436   1132.860 
   870.000      3.600   1130.316 
   870.500      3.745   1128.685 
   871.000      3.888   1128.820 
   871.500      4.021   1128.523 
   872.000      4.116   1124.684 
   872.500      4.188   1117.334 
   873.000      4.277   1109.938 
   873.500      4.388   1104.802 
   874.000      4.489   1100.091 
   874.500      4.582   1092.818 
   875.000      4.707   1083.134 
   875.500      4.860   1073.978 
   876.000      4.999   1067.590 
   876.500      5.112   1063.909 
   877.000      5.221   1061.797 
   877.500      5.323   1060.565 
   878.000      5.392   1060.127 
   878.500      5.459   1060.220 
   879.000      5.596   1059.948 
   879.500      5.824   1058.465 
   880.000      6.101   1055.846 
   880.500      6.404   1052.668 
   881.000      6.755   1048.958 
   881.500      7.160   1044.300 
   882.000      7.576   1038.940 
   882.500      7.966   1034.046 
   883.000      8.315   1030.486 
   883.500      8.609   1027.970 
   884.000      8.829   1025.618 
   884.500      8.983   1023.049 
   885.000      9.111   1020.658 
   885.500      9.249   1018.931 
   886.000      9.399   1017.846 
   886.500      9.513   1017.133 
   887.000      9.525   1016.756 
   887.500      9.395   1016.349 
   888.000      9.131   1014.333 
   888.500      8.789   1008.817 
   889.000      8.460    999.935 
   889.500      8.235    990.263 
   890.000      8.151    982.196 
   890.500      8.186    975.753 
   891.000      8.306    969.800 
   891.500      8.507    964.509 
   892.000      8.766    961.195 
   892.500      9.007    960.044 
   893.000      9.146    959.290 
   893.500      9.165    956.842 
   894.000      9.104    952.170 
   894.500      9.007    946.291 
   895.000      8.910    940.529 
   895.500      8.864    935.640 
   896.000      8.887    931.891 
   896.500      8.940    929.230 
   897.000      8.978    927.152 
   897.500      9.015    925.065 
   898.000      9.079    922.987 
   898.500      9.138    921.263 
   899.000      9.132    919.596 
   899.500      9.067    917.512 
   900.000      9.015    915.810 
   900.500      9.018    916.137 
   901.000      9.042    918.824 
   901.500      9.038    922.630 
   902.000      9.015    926.842 
   902.500      9.044    931.918 
   903.000      9.193    937.536 
   903.500      9.440    941.699 
   904.000      9.668    942.742 
   904.500      9.769    941.192 
   905.000      9.734    938.944 
   905.500      9.626    937.253 
   906.000      9.502    935.825 
   906.500      9.375    933.266 
   907.000      9.260    928.530 
   907.500      9.193    922.211 
   908.000      9.186    916.100 
   908.500      9.197    911.318 
   909.000      9.152    907.598 
   909.500      9.025    904.563 
   910.000      8.878    903.014 
   910.500      8.793    904.518 
   911.000      8.761    910.201 
   911.500      8.670    919.730 
   912.000      8.452    930.960 
   912.500      8.227    941.000 
   913.000      8.200    948.192 
   913.500      8.415    952.526 
   914.000      8.706    954.084 
   914.500      8.940    952.298 
   915.000      9.183    947.396 
   915.500      9.534    941.289 
   916.000      9.900    936.188 
   916.500     10.088    933.148 
   917.000     10.049    932.350 
   917.500      9.915    933.833 
   918.000      9.830    937.451 
   918.500      9.829    942.750 
   919.000      9.856    949.200 
   919.500      9.841    956.176 
   920.000      9.751    962.355 
   920.500      9.622    965.544 
   921.000      9.520    963.853 
   921.500      9.475    957.390 
   922.000      9.441    948.329 
   922.500      9.355    938.864 
   923.000      9.209    929.837 
   923.500      9.087    921.856 
   924.000      9.075    916.492 
   924.500      9.123    915.124 
   925.000      9.047    916.993 
   925.500      8.757    919.265 
   926.000      8.438    918.921 
   926.500      8.326    914.603 
   927.000      8.374    907.448 
   927.500      8.354    900.805 
   928.000      8.283    897.989 
   928.500      8.417    899.115 
   929.000      8.755    900.195 
   929.500      8.934    897.082 
   930.000      8.794    891.041 
   930.500      8.689    884.852 
   931.000      8.955    883.561 
   931.500      9.395    883.751 
   932.000      9.610    875.829 
   932.500      9.591    861.374 
   933.000      9.591    851.456 
   933.500      9.614    847.111 
   934.000      9.438    840.998 
   934.500      9.069    833.621 
   935.000      8.800    831.005 
   935.500      8.812    834.964 
   936.000      8.981    844.069 
   936.500      9.105    855.115 
   937.000      9.147    863.551 
   937.500      9.184    868.389 
   938.000      9.243    872.180 
   938.500      9.282    876.283 
   939.000      9.258    881.751 
   939.500      9.205    891.679 
   940.000      9.197    907.348 
   940.500      9.273    924.023 
   941.000      9.401    934.718 
   941.500      9.532    937.334 
   942.000      9.650    933.966 
   942.500      9.746    925.660 
   943.000      9.778    913.843 
   943.500      9.697    902.885 
