~Version Information Block
 VERS.                2.00:     CWLS LOG ASCII STANDARD - VERSION 2.000000
 WRAP.                  NO:     One Line Per Depth Step
#
~Well Information Block
#MNEM.UNIT                     Data                         Information
#----------   ------------------------------------------   ----------------
 STRT.FT                                        0.0000:
 STOP.FT                                     3200.0000:
 STEP.FT                                        0.5000:
 NULL.                                       -999.2500:
 COMP.                                                :     COMPANY
 WELL.                                                :     WELL
 FLD .                                                :     FIELD
 CNTY.                                                :     COUNTY
 STAT.                                                :     STATE
 CTRY.                                                :     COUNTRY
 SRVC.                                                :     SERVICE COMPANY
 DATE.                                                :     DATE
 API .                                                :     API NUMBER
 UWI .                                                :     UWI NUMBER
#
~Curve Information Block
#MNEM.UNIT       API CODE      Curve Description
#----------    -------------   -------------------
 DEPT.FT                   :   Depth in Feet
 GR  .GAPI                 :   Gamma Ray
 NEUT.GAPI                 :   Neutrons
#
~A  DEPTH         GR       NEUT  
# ...
  2124.000      1.701   1261.532 
  2124.500      1.805   1256.404 
  2125.000      1.907   1252.747 
  2125.500      1.962   1252.432 
  2126.000      1.961   1254.754 
  2126.500      1.941   1256.028 
  2127.000      1.934   1252.945 
  2127.500      1.919   1247.060 
  2128.000      1.870   1243.544 
  2128.500      1.802   1243.878 
  2129.000      1.756   1242.954 
  2129.500      1.741   1236.362 
  2130.000      1.729   1227.211 
  2130.500      1.703   1221.628 
  2131.000      1.687   1220.660 
  2131.500      1.721   1221.326 
  2132.000      1.827   1222.914 
  2132.500      1.981   1226.924 
  2133.000      2.117   1232.433 
  2133.500      2.166   1236.573 
  2134.000      2.120   1238.459 
  2134.500      2.042   1239.527 
  2135.000      2.006   1240.890 
  2135.500      2.028   1242.837 
  2136.000      2.071   1245.758 
  2136.500      2.101   1249.528 
  2137.000      2.115   1253.061 
  2137.500      2.109   1255.357 
  2138.000      2.064   1256.153 
  2138.500      1.972   1255.670 
  2139.000      1.871   1254.379 
  2139.500      1.823   1252.872 
  2140.000      1.843   1250.982 
  2140.500      1.885   1247.776 
  2141.000      1.917   1242.964 
  2141.500      1.951   1237.392 
  2142.000      2.003   1231.807 
  2142.500      2.043   1226.308 
  2143.000      2.037   1221.181 
  2143.500      2.015   1216.791 
  2144.000      2.037   1212.462 
  2144.500      2.112   1207.097 
  2145.000      2.183   1201.016 
  2145.500      2.218   1195.673 
  2146.000      2.257   1191.862 
  2146.500      2.340   1189.890 
  2147.000      2.434   1190.923 
  2147.500      2.468   1195.838 
  2148.000      2.416   1202.945 
  2148.500      2.318   1209.100 
  2149.000      2.215   1213.077 
  2149.500      2.113   1215.847 
  2150.000      2.007   1217.759 
  2150.500      1.895   1217.754 
  2151.000      1.775   1215.726 
  2151.500      1.655   1213.457 
  2152.000      1.573   1212.394 
  2152.500      1.565   1211.822 
  2153.000      1.607   1210.200 
  2153.500      1.633   1207.481 
  2154.000      1.618   1205.232 
  2154.500      1.618   1204.810 
  2155.000      1.689   1206.071 
  2155.500      1.810   1207.934 
  2156.000      1.909   1209.570 
  2156.500      1.945   1210.456 
  2157.000      1.933   1209.893 
  2157.500      1.907   1207.431 
  2158.000      1.884   1204.235 
  2158.500      1.865   1202.271 
  2159.000      1.860   1201.780 
  2159.500      1.878   1200.943 
  2160.000      1.922   1199.010 
  2160.500      1.988   1197.584 
  2161.000      2.058   1197.069 
  2161.500      2.107   1195.232 
  2162.000      2.117   1191.962 
  2162.500      2.105   1190.870 
  2163.000      2.119   1191.909 
  2163.500      2.175   1187.764 
  2164.000      2.231   1174.128 
  2164.500      2.232   1158.932 
  2165.000      2.176   1153.331 
  2165.500      2.116   1156.710 
  2166.000      2.107   1158.784 
  2166.500      2.163   1154.358 
  2167.000      2.256   1147.934 
  2167.500      2.339   1144.563 
  2168.000      2.369   1143.671 
  2168.500      2.345   1142.602 
  2169.000      2.308   1141.068 
  2169.500      2.292   1140.014 
  2170.000      2.294   1139.324 
  2170.500      2.299   1138.146 
  2171.000      2.331   1136.794 
  2171.500      2.429   1136.827 
  2172.000      2.587   1139.170 
  2172.500      2.741   1143.369 
  2173.000      2.832   1148.570 
  2173.500      2.865   1153.326 
  2174.000      2.889   1155.827 
  2174.500      2.929   1157.013 
  2175.000      2.963   1161.843 
  2175.500      2.953   1173.570 
  2176.000      2.883   1187.891 
  2176.500      2.762   1197.521 
  2177.000      2.602   1201.121 
  2177.500      2.432   1202.993 
  2178.000      2.293   1205.802 
  2178.500      2.227   1208.644 
  2179.000      2.240   1211.077 
  2179.500      2.302   1214.629 
  2180.000      2.345   1220.882 
  2180.500      2.315   1230.237 
  2181.000      2.209   1241.383 
  2181.500      2.070   1251.178 
  2182.000      1.939   1257.001 
  2182.500      1.824   1259.374 
  2183.000      1.727   1260.541 
  2183.500      1.669   1261.425 
  2184.000      1.667   1261.812 
  2184.500      1.704   1261.766 
  2185.000      1.738   1261.508 
  2185.500      1.736   1261.029 
  2186.000      1.693   1261.083 
  2186.500      1.632   1262.663 
  2187.000      1.589   1265.297 
  2187.500      1.591   1267.548 
  2188.000      1.624   1269.048 
  2188.500      1.659   1270.334 
  2189.000      1.695   1271.289 
  2189.500      1.752   1271.629 
  2190.000      1.806   1271.928 
  2190.500      1.793   1272.646 
  2191.000      1.691   1272.924 
  2191.500      1.567   1272.236 
  2192.000      1.499   1271.975 
  2192.500      1.491   1273.606 
  2193.000      1.500   1276.211 
  2193.500      1.513   1277.683 
  2194.000      1.543   1277.632 
  2194.500      1.581   1277.309 
  2195.000      1.606   1277.335 
  2195.500      1.622   1277.302 
  2196.000      1.645   1277.143 
  2196.500      1.661   1276.804 
  2197.000      1.630   1275.095 
  2197.500      1.560   1271.138 
  2198.000      1.504   1266.598 
  2198.500      1.495   1264.108 
  2199.000      1.511   1263.665 
  2199.500      1.535   1263.003 
  2200.000      1.584   1261.417 
  2200.500      1.663   1260.667 
  2201.000      1.715   1261.790 
  2201.500      1.696   1263.352 
  2202.000      1.637   1263.748 
  2202.500      1.608   1263.364 
  2203.000      1.621   1263.397 
  2203.500      1.633   1263.586 
  2204.000      1.612   1262.366 
  2204.500      1.567   1259.100 
  2205.000      1.514   1255.271 
  2205.500      1.461   1252.916 
  2206.000      1.415   1252.371 
  2206.500      1.369   1252.333 
  2207.000      1.308   1251.678 
  2207.500      1.245   1250.359 
  2208.000      1.219   1248.771 
  2208.500      1.247   1247.371 
  2209.000      1.296   1246.881 
  2209.500      1.336   1247.760 
  2210.000      1.377   1249.728 
  2210.500      1.427   1252.513 
  2211.000      1.452   1256.325 
  2211.500      1.426   1260.685 
  2212.000      1.383   1264.020 
  2212.500      1.383   1265.712 
  2213.000      1.433   1267.276 
  2213.500      1.489   1270.026 
  2214.000      1.522   1272.868 
  2214.500      1.551   1273.966 
  2215.000      1.611   1273.507 
  2215.500      1.706   1273.119 
  2216.000      1.792   1273.421 
  2216.500      1.819   1273.662 
  2217.000      1.790   1273.200 
  2217.500      1.758   1272.012 
  2218.000      1.751   1270.205 
  2218.500      1.736   1267.949 
  2219.000      1.675   1265.722 
  2219.500      1.582   1264.082 
  2220.000      1.497   1263.598 
  2220.500      1.421   1264.528 
  2221.000      1.334   1265.858 
  2221.500      1.248   1265.485 
  2222.000      1.198   1262.688 
  2222.500      1.189   1259.322 
  2223.000      1.193   1257.033 
  2223.500      1.201   1254.678 
  2224.000      1.234   1250.517 
  2224.500      1.292   1245.429 
  2225.000      1.338   1241.380 
  2225.500      1.339   1237.910 
  2226.000      1.306   1232.895 
  2226.500      1.269   1226.121 
  2227.000      1.235   1219.542 
  2227.500      1.204   1214.344 
  2228.000      1.190   1209.922 
  2228.500      1.206   1205.735 
  2229.000      1.237   1202.563 
  2229.500      1.258   1201.566 
  2230.000      1.267   1202.940 
  2230.500      1.276   1205.660 
  2231.000      1.297   1208.238 
  2231.500      1.343   1209.766 
  2232.000      1.421   1210.557 
  2232.500      1.509   1211.725 
  2233.000      1.558   1214.012 
  2233.500      1.552   1217.265 
  2234.000      1.518   1221.087 
  2234.500      1.492   1225.144 
  2235.000      1.490   1228.695 
  2235.500      1.513   1230.510 
  2236.000      1.556   1229.845 
  2236.500      1.606   1227.144 
  2237.000      1.634   1223.492 
  2237.500      1.625   1219.677 
  2238.000      1.589   1215.899 
  2238.500      1.561   1212.075 
  2239.000      1.569   1208.294 
  2239.500      1.616   1205.201 
  2240.000      1.682   1203.909 
  2240.500      1.746   1205.184 
  2241.000      1.803   1208.587 
  2241.500      1.858   1212.496 
