~Version Information Block
 VERS.                2.00:     CWLS LOG ASCII STANDARD - VERSION 2.000000
 WRAP.                  NO:     One Line Per Depth Step
#
~Well Information Block
#MNEM.UNIT                     Data                         Information
#----------   ------------------------------------------   ----------------
 STRT.FT                                        0.0000:
 STOP.FT                                     3200.0000:
 STEP.FT                                        0.5000:
 NULL.                                       -999.2500:
 COMP.                                                :     COMPANY
 WELL.                                                :     WELL
 FLD .                                                :     FIELD
 CNTY.                                                :     COUNTY
 STAT.                                                :     STATE
 CTRY.                                                :     COUNTRY
 SRVC.                                                :     SERVICE COMPANY
 DATE.                                                :     DATE
 API .                                                :     API NUMBER
 UWI .                                                :     UWI NUMBER
#
~Curve Information Block
#MNEM.UNIT       API CODE      Curve Description
#----------    -------------   -------------------
 DEPT.FT                   :   Depth in Feet
 GR  .GAPI                 :   Gamma Ray
 NEUT.GAPI                 :   Neutrons
#
~A  DEPTH         GR       NEUT  
# ...
  2950.000      3.679   1068.619 
  2950.500      3.768   1068.445 
  2951.000      3.844   1068.605 
  2951.500      3.827   1069.555 
  2952.000      3.704   1072.059 
  2952.500      3.595   1076.793 
  2953.000      3.681   1082.456 
  2953.500      4.017   1084.746 
  2954.000      4.455   1079.763 
  2954.500      4.762   1069.277 
  2955.000      4.797   1060.367 
  2955.500      4.584   1058.228 
  2956.000      4.268   1060.688 
  2956.500      4.003   1060.958 
  2957.000      3.881   1054.338 
  2957.500      3.935   1040.896 
  2958.000      4.206   1023.060 
  2958.500      4.732   1003.556 
  2959.000      5.448    985.925 
  2959.500      6.165    974.337 
  2960.000      6.702    970.583 
  2960.500      6.996    971.897 
  2961.000      7.060    972.259 
  2961.500      6.919    970.925 
  2962.000      6.654    969.923 
  2962.500      6.429    970.126 
  2963.000      6.368    970.316 
  2963.500      6.461    968.313 
  2964.000      6.651    963.058 
  2964.500      6.934    955.317 
  2965.000      7.283    947.074 
  2965.500      7.569    941.394 
  2966.000      7.677    941.314 
  2966.500      7.647    947.390 
  2967.000      7.611    956.562 
  2967.500      7.629    963.785 
  2968.000      7.678    964.252 
  2968.500      7.770    958.755 
  2969.000      7.962    951.314 
  2969.500      8.258    944.898 
  2970.000      8.564    941.270 
  2970.500      8.803    943.408 
  2971.000      8.980    953.234 
  2971.500      9.063    966.738 
  2972.000      8.860    976.582 
  2972.500      8.211    980.822 
  2973.000      7.295    983.946 
  2973.500      6.580    988.323 
  2974.000      6.357    990.754 
  2974.500      6.456    989.175 
  2975.000      6.537    985.570 
  2975.500      6.547    980.148 
  2976.000      6.714    967.971 
  2976.500      7.145    947.423 
  2977.000      7.634    931.039 
  2977.500      7.917    926.576 
  2978.000      7.958    929.089 
  2978.500      7.898    931.761 
  2979.000      7.828    934.978 
  2979.500      7.721    945.198 
  2980.000      7.579    965.264 
  2980.500      7.477    985.890 
  2981.000      7.427    995.476 
  2981.500      7.332    995.926 
  2982.000      7.123    995.962 
  2982.500      6.872    995.881 
  2983.000      6.699    991.592 
  2983.500      6.654    984.807 
  2984.000      6.739    976.631 
  2984.500      6.970    970.365 
  2985.000      7.325    967.467 
  2985.500      7.669    967.917 
  2986.000      7.834    970.433 
  2986.500      7.768    973.146 
  2987.000      7.553    975.880 
  2987.500      7.315    980.820 
  2988.000      7.143    989.151 
  2988.500      7.076    997.974 
  2989.000      7.106   1002.657 
  2989.500      7.177   1002.008 
  2990.000      7.243    999.369 
  2990.500      7.318    998.630 
  2991.000      7.435   1000.391 
  2991.500      7.552   1002.122 
  2992.000      7.563   1001.101 
  2992.500      7.425    996.908 
  2993.000      7.222    991.449 
  2993.500      7.064    986.999 
  2994.000      6.979    984.372 
  2994.500      6.925    982.923 
  2995.000      6.881    981.538 
  2995.500      6.872    979.203 
  2996.000      6.950    975.241 
  2996.500      7.164    969.453 
  2997.000      7.495    961.910 
  2997.500      7.824    953.729 
  2998.000      8.060    948.623 
  2998.500      8.243    951.395 
  2999.000      8.370    962.331 
  2999.500      8.210    974.930 
  3000.000      7.601    982.292 
  3000.500      6.855    984.441 
  3001.000      6.512    986.408 
  3001.500      6.662    990.748 
  3002.000      6.883    995.707 
  3002.500      6.881    999.499 
  3003.000      6.796   1002.114 
  3003.500      6.825   1003.019 
  3004.000      6.924   1001.121 
  3004.500      7.018    997.661 
  3005.000      7.182    995.832 
  3005.500      7.450    996.366 
  3006.000      7.685    996.183 
  3006.500      7.747    992.598 
  3007.000      7.649    986.430 
  3007.500      7.479    979.603 
  3008.000      7.304    972.194 
  3008.500      7.196    963.951 
  3009.000      7.229    956.633 
  3009.500      7.393    952.750 
  3010.000      7.585    952.969 
  3010.500      7.743    955.821 
  3011.000      7.907    958.862 
  3011.500      8.093    959.937 
  3012.000      8.207    959.232 
  3012.500      8.159    960.290 
  3013.000      8.006    966.200 
  3013.500      7.892    974.591 
  3014.000      7.897    979.347 
  3014.500      8.006    978.217 
  3015.000      8.159    975.078 
  3015.500      8.279    973.116 
  3016.000      8.302    969.745 
  3016.500      8.244    961.899 
  3017.000      8.194    952.769 
  3017.500      8.216    948.136 
  3018.000      8.324    947.495 
  3018.500      8.545    944.568 
  3019.000      8.918    937.143 
  3019.500      9.393    930.785 
  3020.000      9.806    930.568 
  3020.500      9.994    934.507 
  3021.000      9.916    939.068 
  3021.500      9.679    946.262 
  3022.000      9.443    959.341 
  3022.500      9.294    974.575 
  3023.000      9.197    983.948 
  3023.500      9.092    984.681 
  3024.000      8.990    980.464 
  3024.500      8.956    974.769 
  3025.000      9.009    968.465 
  3025.500      9.096    962.866 
  3026.000      9.142    960.129 
  3026.500      9.100    961.116 
  3027.000      8.967    965.416 
  3027.500      8.774    971.572 
  3028.000      8.567    975.409 
  3028.500      8.391    971.966 
  3029.000      8.303    961.530 
  3029.500      8.358    950.818 
  3030.000      8.540    946.342 
  3030.500      8.737    949.232 
  3031.000      8.826    956.852 
  3031.500      8.799    966.297 
  3032.000      8.726    975.248 
  3032.500      8.621    982.360 
  3033.000      8.445    987.411 
  3033.500      8.246    989.775 
  3034.000      8.179    987.829 
  3034.500      8.328    981.533 
  3035.000      8.586    974.036 
  3035.500      8.802    968.900 
  3036.000      8.907    967.085 
  3036.500      8.842    968.493 
  3037.000      8.484    974.363 
  3037.500      7.828    985.210 
  3038.000      7.133    997.433 
  3038.500      6.716   1005.155 
  3039.000      6.623   1005.889 
  3039.500      6.657   1002.682 
  3040.000      6.701   1000.200 
  3040.500      6.818    999.833 
  3041.000      7.049    999.006 
  3041.500      7.310    994.925 
  3042.000      7.516    988.228 
  3042.500      7.659    982.607 
  3043.000      7.725    980.749 
  3043.500      7.670    981.601 
  3044.000      7.530    982.020 
  3044.500      7.416    980.568 
  3045.000      7.407    978.657 
  3045.500      7.489    977.962 
  3046.000      7.628    977.719 
  3046.500      7.798    975.614 
  3047.000      7.955    970.796 
  3047.500      8.065    964.709 
  3048.000      8.157    958.693 
  3048.500      8.297    952.904 
  3049.000      8.506    948.366 
  3049.500      8.751    947.477 
  3050.000      8.985    950.662 
  3050.500      9.177    955.074 
  3051.000      9.304    958.754 
  3051.500      9.349    963.536 
  3052.000      9.287    971.253 
  3052.500      9.101    979.635 
  3053.000      8.806    984.780 
  3053.500      8.457    985.436 
  3054.000      8.120    982.434 
  3054.500      7.833    976.355 
  3055.000      7.625    968.418 
  3055.500      7.538    961.585 
  3056.000      7.603    958.298 
  3056.500      7.818    958.315 
  3057.000      8.139    959.505 
  3057.500      8.483    959.267 
  3058.000      8.740    955.321 
  3058.500      8.840    947.892 
  3059.000      8.813    940.730 
  3059.500      8.755    937.607 
  3060.000      8.743    938.644 
  3060.500      8.784    942.627 
  3061.000      8.835    950.803 
  3061.500      8.813    964.610 
  3062.000      8.647    981.224 
  3062.500      8.355    995.231 
  3063.000      8.046   1003.853 
  3063.500      7.785   1008.287 
  3064.000      7.527   1011.103 
  3064.500      7.236   1013.952 
  3065.000      6.989   1016.003 
  3065.500      6.880   1013.749 
  3066.000      6.874   1004.538 
  3066.500      6.862    990.825 
  3067.000      6.818    978.646 
  3067.500      6.809    971.770 
