~Version Information Block
 VERS.                2.00:     CWLS LOG ASCII STANDARD - VERSION 2.000000
 WRAP.                  NO:     One Line Per Depth Step
#
~Well Information Block
#MNEM.UNIT                     Data                         Information
#----------   ------------------------------------------   ----------------
 STRT.FT                                        0.0000:
 STOP.FT                                     3200.0000:
 STEP.FT                                        0.5000:
 NULL.                                       -999.2500:
 COMP.                                                :     COMPANY
 WELL.                                                :     WELL
 FLD .                                                :     FIELD
 CNTY.                                                :     COUNTY
 STAT.                                                :     STATE
 CTRY.                                                :     COUNTRY
 SRVC.                                                :     SERVICE COMPANY
 DATE.                                                :     DATE
 API .                                                :     API NUMBER
 UWI .                                                :     UWI NUMBER
#
~Curve Information Block
#MNEM.UNIT       API CODE      Curve Description
#----------    -------------   -------------------
 DEPT.FT                   :   Depth in Feet
 GR  .GAPI                 :   Gamma Ray
 NEUT.GAPI                 :   Neutrons
#
~A  DEPTH         GR       NEUT  
# ...
  1770.000      9.342    883.042 
  1770.500      9.212    881.404 
  1771.000      9.164    880.833 
  1771.500      9.233    880.419 
  1772.000      9.353    879.341 
  1772.500      9.417    878.773 
  1773.000      9.356    880.989 
  1773.500      9.164    886.080 
  1774.000      8.919    891.045 
  1774.500      8.752    893.035 
  1775.000      8.766    892.100 
  1775.500      8.951    889.755 
  1776.000      9.186    886.643 
  1776.500      9.328    883.153 
  1777.000      9.321    880.560 
  1777.500      9.226    879.506 
  1778.000      9.154    878.616 
  1778.500      9.158    876.390 
  1779.000      9.198    873.305 
  1779.500      9.215    870.587 
  1780.000      9.184    868.349 
  1780.500      9.110    866.404 
  1781.000      9.000    865.435 
  1781.500      8.892    865.818 
  1782.000      8.854    866.557 
  1782.500      8.904    866.771 
  1783.000      8.981    867.126 
  1783.500      9.007    868.645 
  1784.000      8.985    871.004 
  1784.500      8.983    873.037 
  1785.000      9.052    874.202 
  1785.500      9.168    874.654 
  1786.000      9.260    874.379 
  1786.500      9.276    873.156 
  1787.000      9.219    871.311 
  1787.500      9.143    869.877 
  1788.000      9.108    869.646 
  1788.500      9.130    870.327 
  1789.000      9.183    871.057 
  1789.500      9.241    871.712 
  1790.000      9.296    873.098 
  1790.500      9.346    875.571 
  1791.000      9.396    878.058 
  1791.500      9.470    879.015 
  1792.000      9.605    877.955 
  1792.500      9.788    875.477 
  1793.000      9.945    872.213 
  1793.500      9.999    868.533 
  1794.000      9.944    865.164 
  1794.500      9.841    863.269 
  1795.000      9.752    863.617 
  1795.500      9.706    865.985 
  1796.000      9.710    869.354 
  1796.500      9.768    872.635 
  1797.000      9.871    875.267 
  1797.500      9.964    877.403 
  1798.000      9.950    879.464 
  1798.500      9.776    881.288 
  1799.000      9.531    881.968 
  1799.500      9.409    881.072 
  1800.000      9.507    879.468 
  1800.500      9.714    877.942 
  1801.000      9.864    875.667 
  1801.500      9.957    871.579 
  1802.000     10.119    866.842 
  1802.500     10.362    864.073 
  1803.000     10.518    864.064 
  1803.500     10.458    864.974 
  1804.000     10.261    865.141 
  1804.500     10.087    865.042 
  1805.000      9.973    865.903 
  1805.500      9.850    867.589 
  1806.000      9.702    868.861 
  1806.500      9.593    869.246 
  1807.000      9.541    869.680 
  1807.500      9.461    871.123 
  1808.000      9.264    873.147 
  1808.500      8.977    874.262 
  1809.000      8.730    873.256 
  1809.500      8.636    869.931 
  1810.000      8.697    865.229 
  1810.500      8.832    860.970 
  1811.000      8.984    858.522 
  1811.500      9.148    857.489 
  1812.000      9.311    856.490 
  1812.500      9.433    855.237 
  1813.000      9.494    854.589 
  1813.500      9.514    854.676 
  1814.000      9.509    854.563 
  1814.500      9.465    853.968 
  1815.000      9.393    853.793 
  1815.500      9.353    854.585 
  1816.000      9.384    855.630 
  1816.500      9.454    855.860 
  1817.000      9.485    854.812 
  1817.500      9.437    852.589 
  1818.000      9.337    849.690 
  1818.500      9.248    847.044 
  1819.000      9.230    845.632 
  1819.500      9.299    845.745 
  1820.000      9.413    846.947 
  1820.500      9.499    848.813 
  1821.000      9.516    851.336 
  1821.500      9.479    854.404 
  1822.000      9.391    857.233 
  1822.500      9.208    858.787 
  1823.000      8.911    858.892 
  1823.500      8.591    858.783 
  1824.000      8.383    859.989 
  1824.500      8.329    862.370 
  1825.000      8.355    863.813 
  1825.500      8.372    862.604 
  1826.000      8.365    859.695 
  1826.500      8.386    857.748 
  1827.000      8.493    858.162 
  1827.500      8.685    859.961 
  1828.000      8.882    861.312 
  1828.500      9.011    861.061 
  1829.000      9.087    859.102 
  1829.500      9.179    856.428 
  1830.000      9.313    854.779 
  1830.500      9.450    855.083 
  1831.000      9.557    856.316 
  1831.500      9.602    856.729 
  1832.000      9.518    856.031 
  1832.500      9.267    855.578 
  1833.000      8.949    856.593 
  1833.500      8.738    858.753 
  1834.000      8.698    860.671 
  1834.500      8.714    861.564 
  1835.000      8.642    862.283 
  1835.500      8.452    864.413 
  1836.000      8.222    868.166 
  1836.500      8.026    871.657 
  1837.000      7.906    872.661 
  1837.500      7.902    870.784 
  1838.000      8.039    867.516 
  1838.500      8.276    864.608 
  1839.000      8.515    862.805 
  1839.500      8.685    861.792 
  1840.000      8.789    860.913 
  1840.500      8.850    859.864 
  1841.000      8.893    858.804 
  1841.500      8.965    857.941 
  1842.000      9.086    857.163 
  1842.500      9.167    856.315 
  1843.000      9.104    855.496 
  1843.500      8.945    854.889 
  1844.000      8.848    854.464 
  1844.500      8.855    853.952 
  1845.000      8.864    853.128 
  1845.500      8.812    851.903 
  1846.000      8.765    850.161 
  1846.500      8.792    847.906 
  1847.000      8.870    845.991 
  1847.500      8.957    846.090 
  1848.000      9.052    848.926 
  1848.500      9.143    852.817 
  1849.000      9.176    855.157 
  1849.500      9.130    855.209 
  1850.000      9.065    854.493 
  1850.500      9.048    854.417 
  1851.000      9.065    854.831 
  1851.500      9.036    855.025 
  1852.000      8.927    855.142 
  1852.500      8.787    855.702 
  1853.000      8.690    856.114 
  1853.500      8.652    855.577 
  1854.000      8.634    854.870 
  1854.500      8.601    855.684 
  1855.000      8.578    856.890 
  1855.500      8.616    855.366 
  1856.000      8.702    853.034 
  1856.500      8.736    859.017 
  1857.000      8.639    879.679 
  1857.500      8.465    907.837 
  1858.000      8.323    927.249 
  1858.500      8.237    930.383 
  1859.000      8.134    928.997 
  1859.500      7.895    941.121 
  1860.000      7.618    972.410 
  1860.500      7.238   1017.916 
  1861.000      6.728   1035.609 
  1861.500      6.260   1034.357 
  1862.000      5.764   1038.682 
  1862.500      4.922   1039.296 
  1863.000      3.813   1036.958 
  1863.500      2.900   1038.672 
  1864.000      2.423   1038.138 
  1864.500      2.304   1038.123 
  1865.000      2.374   1042.021 
  1865.500      2.443   1045.296 
  1866.000      2.441   1049.076 
  1866.500      2.454   1053.928 
  1867.000      2.498   1056.168 
  1867.500      2.475   1057.721 
  1868.000      2.421   1058.964 
  1868.500      2.350   1059.966 
  1869.000      2.297   1060.265 
  1869.500      2.281   1060.156 
  1870.000      2.317   1060.155 
  1870.500      2.387   1060.194 
  1871.000      2.435   1060.069 
  1871.500      2.427   1060.335 
  1872.000      2.381   1061.334 
  1872.500      2.340   1061.687 
  1873.000      2.337   1059.602 
  1873.500      2.376   1055.619 
  1874.000      2.440   1052.562 
  1874.500      2.503   1051.725 
  1875.000      2.580   1050.396 
  1875.500      2.710   1044.647 
  1876.000      2.882   1034.378 
  1876.500      3.031   1024.134 
  1877.000      3.158   1017.696 
  1877.500      3.388   1013.379 
  1878.000      3.804   1007.858 
  1878.500      4.294   1003.910 
  1879.000      4.629   1009.001 
  1879.500      4.659   1024.771 
  1880.000      4.400   1043.393 
  1880.500      3.974   1057.073 
  1881.000      3.559   1065.808 
  1881.500      3.321   1072.673 
  1882.000      3.336   1076.954 
  1882.500      3.524   1076.613 
  1883.000      3.703   1073.457 
  1883.500      3.718   1071.375 
  1884.000      3.567   1071.714 
  1884.500      3.390   1073.478 
  1885.000      3.312   1076.142 
  1885.500      3.310   1079.524 
  1886.000      3.270   1081.972 
  1886.500      3.165   1081.706 
  1887.000      3.102   1080.576 
  1887.500      3.182   1083.972 
