~Version Information Block
 VERS.                2.00:     CWLS LOG ASCII STANDARD - VERSION 2.000000
 WRAP.                  NO:     One Line Per Depth Step
#
~Well Information Block
#MNEM.UNIT                     Data                         Information
#----------   ------------------------------------------   ----------------
 STRT.FT                                        0.0000:
 STOP.FT                                     3200.0000:
 STEP.FT                                        0.5000:
 NULL.                                       -999.2500:
 COMP.                                                :     COMPANY
 WELL.                                                :     WELL
 FLD .                                                :     FIELD
 CNTY.                                                :     COUNTY
 STAT.                                                :     STATE
 CTRY.                                                :     COUNTRY
 SRVC.                                                :     SERVICE COMPANY
 DATE.                                                :     DATE
 API .                                                :     API NUMBER
 UWI .                                                :     UWI NUMBER
#
~Curve Information Block
#MNEM.UNIT       API CODE      Curve Description
#----------    -------------   -------------------
 DEPT.FT                   :   Depth in Feet
 GR  .GAPI                 :   Gamma Ray
 NEUT.GAPI                 :   Neutrons
#
~A  DEPTH         GR       NEUT  
# ...
  2006.000      1.866   1242.053 
  2006.500      1.885   1237.871 
  2007.000      1.922   1233.765 
  2007.500      1.912   1231.086 
  2008.000      1.817   1230.334 
  2008.500      1.699   1230.970 
  2009.000      1.656   1231.733 
  2009.500      1.699   1231.512 
  2010.000      1.747   1229.889 
  2010.500      1.737   1226.379 
  2011.000      1.689   1220.033 
  2011.500      1.680   1210.751 
  2012.000      1.750   1200.917 
  2012.500      1.867   1194.361 
  2013.000      1.978   1193.345 
  2013.500      2.062   1196.660 
  2014.000      2.123   1201.230 
  2014.500      2.150   1205.276 
  2015.000      2.125   1209.507 
  2015.500      2.058   1215.483 
  2016.000      1.975   1223.436 
  2016.500      1.884   1231.126 
  2017.000      1.794   1234.544 
  2017.500      1.740   1231.148 
  2018.000      1.764   1223.021 
  2018.500      1.858   1214.932 
  2019.000      1.972   1208.598 
  2019.500      2.084   1202.140 
  2020.000      2.205   1196.002 
  2020.500      2.310   1194.943 
  2021.000      2.309   1201.463 
  2021.500      2.142   1211.492 
  2022.000      1.887   1219.761 
  2022.500      1.696   1225.838 
  2023.000      1.661   1231.560 
  2023.500      1.748   1235.696 
  2024.000      1.876   1234.993 
  2024.500      1.989   1228.959 
  2025.000      2.066   1220.545 
  2025.500      2.119   1212.855 
  2026.000      2.187   1207.444 
  2026.500      2.288   1205.477 
  2027.000      2.361   1207.989 
  2027.500      2.303   1213.865 
  2028.000      2.091   1220.054 
  2028.500      1.825   1225.022 
  2029.000      1.628   1229.779 
  2029.500      1.536   1233.718 
  2030.000      1.509   1232.576 
  2030.500      1.514   1223.442 
  2031.000      1.547   1209.599 
  2031.500      1.614   1197.041 
  2032.000      1.704   1187.997 
  2032.500      1.794   1180.808 
  2033.000      1.860   1174.362 
  2033.500      1.881   1169.250 
  2034.000      1.865   1165.369 
  2034.500      1.850   1161.634 
  2035.000      1.886   1158.053 
  2035.500      1.984   1156.024 
  2036.000      2.103   1156.336 
  2036.500      2.186   1158.058 
  2037.000      2.222   1159.497 
  2037.500      2.246   1159.477 
  2038.000      2.296   1157.730 
  2038.500      2.365   1154.606 
  2039.000      2.418   1150.589 
  2039.500      2.426   1146.033 
  2040.000      2.408   1141.299 
  2040.500      2.417   1136.914 
  2041.000      2.498   1133.234 
  2041.500      2.642   1130.473 
  2042.000      2.797   1129.215 
  2042.500      2.922   1130.167 
  2043.000      3.021   1133.027 
  2043.500      3.103   1136.432 
  2044.000      3.154   1139.365 
  2044.500      3.147   1141.735 
  2045.000      3.094   1143.371 
  2045.500      3.040   1143.737 
  2046.000      3.021   1143.015 
  2046.500      3.040   1142.416 
  2047.000      3.088   1143.069 
  2047.500      3.151   1145.261 
  2048.000      3.181   1148.793 
  2048.500      3.115   1153.355 
  2049.000      2.933   1158.555 
  2049.500      2.695   1163.963 
  2050.000      2.469   1169.166 
  2050.500      2.268   1173.967 
  2051.000      2.061   1178.980 
  2051.500      1.851   1185.528 
  2052.000      1.692   1194.030 
  2052.500      1.622   1202.714 
  2053.000      1.617   1208.898 
  2053.500      1.623   1211.451 
  2054.000      1.620   1211.478 
  2054.500      1.622   1211.045 
  2055.000      1.628   1211.812 
  2055.500      1.617   1214.277 
  2056.000      1.605   1217.407 
  2056.500      1.653   1219.129 
  2057.000      1.785   1217.868 
  2057.500      1.930   1213.842 
  2058.000      1.996   1208.768 
  2058.500      1.985   1204.393 
  2059.000      1.989   1201.510 
  2059.500      2.064   1200.115 
  2060.000      2.165   1200.006 
  2060.500      2.220   1201.098 
  2061.000      2.202   1203.606 
  2061.500      2.113   1207.979 
  2062.000      1.958   1214.146 
  2062.500      1.771   1220.574 
  2063.000      1.623   1224.854 
  2063.500      1.558   1225.687 
  2064.000      1.546   1224.000 
  2064.500      1.526   1221.806 
  2065.000      1.482   1220.584 
  2065.500      1.444   1221.070 
  2066.000      1.437   1223.644 
  2066.500      1.444   1227.838 
  2067.000      1.430   1231.708 
  2067.500      1.381   1233.094 
  2068.000      1.323   1231.974 
  2068.500      1.301   1230.313 
  2069.000      1.329   1228.894 
  2069.500      1.372   1225.849 
  2070.000      1.384   1219.808 
  2070.500      1.360   1212.983 
  2071.000      1.334   1208.920 
  2071.500      1.320   1208.252 
  2072.000      1.302   1209.116 
  2072.500      1.282   1210.861 
  2073.000      1.294   1214.418 
  2073.500      1.353   1219.085 
  2074.000      1.424   1222.053 
  2074.500      1.462   1222.092 
  2075.000      1.450   1221.363 
  2075.500      1.401   1221.960 
  2076.000      1.344   1222.415 
  2076.500      1.312   1219.677 
  2077.000      1.314   1213.645 
  2077.500      1.310   1207.584 
  2078.000      1.264   1204.256 
  2078.500      1.188   1203.622 
  2079.000      1.134   1204.385 
  2079.500      1.136   1205.715 
  2080.000      1.185   1206.952 
  2080.500      1.258   1207.368 
  2081.000      1.325   1206.970 
  2081.500      1.365   1206.777 
  2082.000      1.378   1207.706 
  2082.500      1.389   1209.891 
  2083.000      1.427   1213.029 
  2083.500      1.498   1216.949 
  2084.000      1.573   1221.754 
  2084.500      1.615   1227.234 
  2085.000      1.621   1232.024 
  2085.500      1.621   1234.772 
  2086.000      1.632   1237.138 
  2086.500      1.628   1243.340 
  2087.000      1.605   1254.293 
  2087.500      1.628   1264.629 
  2088.000      1.751   1268.977 
  2088.500      1.926   1269.041 
  2089.000      2.051   1270.427 
  2089.500      2.094   1274.354 
  2090.000      2.091   1277.178 
  2090.500      2.045   1276.984 
  2091.000      1.927   1275.892 
  2091.500      1.761   1275.898 
  2092.000      1.624   1276.386 
  2092.500      1.559   1276.323 
  2093.000      1.531   1275.991 
  2093.500      1.490   1275.943 
  2094.000      1.430   1276.044 
  2094.500      1.384   1276.018 
  2095.000      1.384   1275.873 
  2095.500      1.429   1275.791 
  2096.000      1.497   1275.822 
  2096.500      1.569   1275.879 
  2097.000      1.622   1275.696 
  2097.500      1.621   1275.437 
  2098.000      1.558   1275.622 
  2098.500      1.487   1276.021 
  2099.000      1.476   1275.570 
  2099.500      1.523   1274.670 
  2100.000      1.571   1275.376 
  2100.500      1.598   1276.789 
  2101.000      1.627   1273.528 
  2101.500      1.669   1263.298 
  2102.000      1.693   1252.585 
  2102.500      1.677   1248.569 
  2103.000      1.636   1248.307 
  2103.500      1.599   1243.563 
  2104.000      1.585   1233.981 
  2104.500      1.607   1227.086 
  2105.000      1.684   1226.049 
  2105.500      1.819   1225.722 
  2106.000      1.978   1221.213 
  2106.500      2.111   1214.259 
  2107.000      2.188   1210.209 
  2107.500      2.220   1211.641 
  2108.000      2.245   1215.287 
  2108.500      2.291   1215.904 
  2109.000      2.368   1214.823 
  2109.500      2.465   1221.064 
  2110.000      2.556   1239.069 
  2110.500      2.605   1259.675 
  2111.000      2.585   1270.185 
  2111.500      2.497   1269.910 
  2112.000      2.354   1268.067 
  2112.500      2.175   1269.820 
  2113.000      1.989   1272.424 
  2113.500      1.858   1273.223 
  2114.000      1.834   1273.512 
  2114.500      1.896   1274.711 
  2115.000      1.951   1276.225 
  2115.500      1.919   1277.385 
  2116.000      1.808   1278.339 
  2116.500      1.688   1278.979 
  2117.000      1.610   1278.864 
  2117.500      1.581   1278.154 
  2118.000      1.593   1277.244 
  2118.500      1.640   1276.080 
  2119.000      1.695   1274.597 
  2119.500      1.715   1273.598 
  2120.000      1.690   1273.801 
  2120.500      1.647   1274.362 
  2121.000      1.602   1273.621 
  2121.500      1.553   1271.364 
  2122.000      1.512   1269.173 
  2122.500      1.507   1268.253 
  2123.000      1.548   1267.717 
  2123.500      1.616   1265.719 
