~Version Information Block
 VERS.                2.00:     CWLS LOG ASCII STANDARD - VERSION 2.000000
 WRAP.                  NO:     One Line Per Depth Step
#
~Well Information Block
#MNEM.UNIT                     Data                         Information
#----------   ------------------------------------------   ----------------
 STRT.FT                                        0.0000:
 STOP.FT                                     3200.0000:
 STEP.FT                                        0.5000:
 NULL.                                       -999.2500:
 COMP.                                                :     COMPANY
 WELL.                                                :     WELL
 FLD .                                                :     FIELD
 CNTY.                                                :     COUNTY
 STAT.                                                :     STATE
 CTRY.                                                :     COUNTRY
 SRVC.                                                :     SERVICE COMPANY
 DATE.                                                :     DATE
 API .                                                :     API NUMBER
 UWI .                                                :     UWI NUMBER
#
~Curve Information Block
#MNEM.UNIT       API CODE      Curve Description
#----------    -------------   -------------------
 DEPT.FT                   :   Depth in Feet
 GR  .GAPI                 :   Gamma Ray
 NEUT.GAPI                 :   Neutrons
#
~A  DEPTH         GR       NEUT  
# ...
   236.000      3.456   1024.431 
   236.500      3.363   1027.325 
   237.000      3.277   1031.225 
   237.500      3.157   1036.887 
   238.000      3.001   1043.855 
   238.500      2.818   1050.811 
   239.000      2.625   1056.064 
   239.500      2.454   1057.858 
   240.000      2.332   1055.290 
   240.500      2.258   1050.106 
   241.000      2.205   1045.561 
   241.500      2.172   1043.862 
   242.000      2.180   1044.485 
   242.500      2.223   1045.160 
   243.000      2.240   1044.243 
   243.500      2.174   1042.252 
   244.000      2.039   1041.381 
   244.500      1.913   1043.687 
   245.000      1.856   1049.007 
   245.500      1.866   1054.706 
   246.000      1.901   1058.022 
   246.500      1.925   1058.260 
   247.000      1.932   1056.112 
   247.500      1.922   1051.826 
   248.000      1.899   1045.868 
   248.500      1.872   1040.627 
   249.000      1.862   1039.293 
   249.500      1.892   1042.871 
   250.000      1.966   1049.401 
   250.500      2.052   1055.839 
   251.000      2.101   1059.735 
   251.500      2.091   1059.995 
   252.000      2.053   1057.569 
   252.500      2.042   1054.982 
   253.000      2.088   1053.791 
   253.500      2.177   1052.799 
   254.000      2.288   1049.674 
   254.500      2.421   1044.162 
   255.000      2.581   1038.812 
   255.500      2.747   1036.614 
   256.000      2.875   1038.544 
   256.500      2.921   1043.430 
   257.000      2.874   1049.561 
   257.500      2.750   1055.868 
   258.000      2.582   1061.761 
   258.500      2.412   1066.664 
   259.000      2.266   1069.802 
   259.500      2.147   1070.550 
   260.000      2.049   1068.998 
   260.500      1.986   1066.149 
   261.000      1.991   1063.241 
   261.500      2.059   1060.992 
   262.000      2.136   1059.848 
   262.500      2.167   1060.348 
   263.000      2.154   1062.401 
   263.500      2.142   1064.577 
   264.000      2.163   1065.224 
   264.500      2.205   1064.278 
   265.000      2.243   1063.120 
   265.500      2.260   1062.932 
   266.000      2.257   1064.035 
   266.500      2.245   1066.291 
   267.000      2.230   1069.041 
   267.500      2.202   1070.957 
   268.000      2.147   1070.952 
   268.500      2.079   1069.167 
   269.000      2.051   1066.214 
   269.500      2.111   1061.955 
   270.000      2.241   1056.048 
   270.500      2.380   1049.292 
   271.000      2.488   1043.229 
   271.500      2.589   1038.487 
   272.000      2.718   1034.503 
   272.500      2.854   1030.839 
   273.000      2.927   1027.538 
   273.500      2.897   1024.417 
   274.000      2.803   1021.234 
   274.500      2.707   1018.780 
   275.000      2.632   1018.510 
   275.500      2.560   1020.395 
   276.000      2.470   1022.256 
   276.500      2.369   1022.186 
   277.000      2.286   1021.467 
   277.500      2.242   1024.585 
   278.000      2.232   1035.621 
   278.500      2.209   1053.724 
   279.000      2.113   1072.631 
   279.500      1.919   1086.363 
   280.000      1.663   1094.981 
   280.500      1.408   1102.614 
   281.000      1.187   1110.564 
   281.500      1.010   1115.824 
   282.000      0.889   1116.638 
   282.500      0.831   1115.641 
   283.000      0.818   1116.050 
   283.500      0.822   1117.824 
   284.000      0.835   1119.140 
   284.500      0.857   1119.183 
   285.000      0.878   1117.999 
   285.500      0.888   1115.430 
   286.000      0.899   1111.803 
   286.500      0.934   1108.813 
   287.000      0.984   1108.694 
   287.500      1.010   1112.496 
   288.000      0.981   1118.866 
   288.500      0.908   1124.803 
   289.000      0.831   1128.054 
   289.500      0.776   1128.938 
   290.000      0.749   1129.756 
   290.500      0.756   1132.525 
   291.000      0.800   1137.780 
   291.500      0.857   1144.740 
   292.000      0.890   1151.661 
   292.500      0.893   1156.300 
   293.000      0.894   1157.010 
   293.500      0.910   1153.543 
   294.000      0.940   1146.693 
   294.500      0.999   1137.164 
   295.000      1.116   1125.155 
   295.500      1.282   1110.983 
   296.000      1.446   1095.868 
   296.500      1.557   1081.704 
   297.000      1.609   1070.112 
   297.500      1.669   1062.174 
   298.000      1.858   1058.575 
   298.500      2.202   1059.017 
   299.000      2.509   1061.818 
   299.500      2.512   1065.357 
   300.000      2.183   1069.901 
   300.500      1.792   1076.332 
   301.000      1.591   1083.556 
   301.500      1.566   1088.616 
   302.000      1.568   1089.676 
   302.500      1.554   1090.683 
   303.000      1.579   1092.195 
   303.500      1.652   1095.668 
   304.000      1.702   1098.301 
   304.500      1.682   1094.341 
   305.000      1.628   1084.572 
   305.500      1.604   1074.611 
   306.000      1.649   1064.227 
   306.500      1.761   1047.888 
   307.000      1.919   1024.622 
   307.500      2.137   1001.310 
   308.000      2.473    984.885 
   308.500      2.949    973.760 
   309.000      3.452    963.155 
   309.500      3.777    955.977 
   310.000      3.796    965.387 
   310.500      3.579    991.398 
   311.000      3.281   1025.947 
   311.500      2.969   1061.451 
   312.000      2.596   1083.798 
   312.500      2.134   1093.363 
   313.000      1.658   1103.598 
   313.500      1.267   1111.136 
   314.000      0.987   1111.164 
   314.500      0.792   1108.225 
   315.000      0.672   1105.353 
   315.500      0.631   1114.169 
   316.000      0.639   1133.617 
   316.500      0.636   1141.014 
   317.000      0.592   1137.965 
   317.500      0.518   1138.984 
   318.000      0.443   1139.503 
   318.500      0.400   1136.860 
   319.000      0.407   1133.586 
   319.500      0.452   1131.181 
   320.000      0.503   1126.607 
   320.500      0.542   1120.028 
   321.000      0.570   1112.805 
   321.500      0.576   1103.246 
   322.000      0.540   1092.853 
   322.500      0.495   1087.217 
   323.000      0.526   1087.354 
   323.500      0.661   1088.607 
   324.000      0.821   1087.908 
   324.500      0.920   1087.314 
   325.000      0.974   1091.616 
   325.500      1.037   1099.073 
   326.000      1.081   1104.215 
   326.500      1.032   1104.647 
   327.000      0.903   1103.361 
   327.500      0.803   1103.216 
   328.000      0.787   1102.910 
   328.500      0.809   1099.723 
   329.000      0.823   1093.709 
   329.500      0.844   1087.436 
   330.000      0.888   1082.731 
   330.500      0.921   1079.274 
   331.000      0.913   1076.225 
   331.500      0.887   1074.374 
   332.000      0.877   1075.363 
   332.500      0.895   1078.516 
   333.000      0.939   1080.359 
   333.500      1.020   1078.840 
   334.000      1.134   1076.352 
   334.500      1.244   1076.402 
   335.000      1.323   1078.952 
   335.500      1.381   1081.300 
   336.000      1.432   1082.008 
   336.500      1.453   1081.452 
   337.000      1.416   1079.842 
   337.500      1.336   1077.491 
   338.000      1.254   1076.012 
   338.500      1.187   1076.866 
   339.000      1.130   1079.117 
   339.500      1.083   1080.478 
   340.000      1.064   1079.883 
   340.500      1.070   1077.292 
   341.000      1.075   1072.240 
   341.500      1.069   1064.660 
   342.000      1.067   1057.023 
   342.500      1.085   1053.748 
   343.000      1.115   1057.917 
   343.500      1.138   1068.732 
   344.000      1.142   1082.396 
   344.500      1.129   1094.839 
   345.000      1.112   1103.521 
   345.500      1.106   1107.184 
   346.000      1.113   1105.508 
   346.500      1.127   1099.881 
   347.000      1.145   1093.108 
   347.500      1.166   1086.688 
   348.000      1.185   1079.768 
   348.500      1.195   1072.254 
   349.000      1.198   1066.766 
   349.500      1.197   1065.313 
   350.000      1.191   1066.601 
   350.500      1.178   1068.942 
   351.000      1.167   1073.171 
   351.500      1.163   1079.869 
   352.000      1.151   1086.118 
   352.500      1.121   1088.054 
   353.000      1.078   1085.002 
   353.500      1.020   1079.348 
