~Version Information Block
 VERS.                2.00:     CWLS LOG ASCII STANDARD - VERSION 2.000000
 WRAP.                  NO:     One Line Per Depth Step
#
~Well Information Block
#MNEM.UNIT                     Data                         Information
#----------   ------------------------------------------   ----------------
 STRT.FT                                        0.0000:
 STOP.FT                                     3200.0000:
 STEP.FT                                        0.5000:
 NULL.                                       -999.2500:
 COMP.                                                :     COMPANY
 WELL.                                                :     WELL
 FLD .                                                :     FIELD
 CNTY.                                                :     COUNTY
 STAT.                                                :     STATE
 CTRY.                                                :     COUNTRY
 SRVC.                                                :     SERVICE COMPANY
 DATE.                                                :     DATE
 API .                                                :     API NUMBER
 UWI .                                                :     UWI NUMBER
#
~Curve Information Block
#MNEM.UNIT       API CODE      Curve Description
#----------    -------------   -------------------
 DEPT.FT                   :   Depth in Feet
 GR  .GAPI                 :   Gamma Ray
 NEUT.GAPI                 :   Neutrons
#
~A  DEPTH         GR       NEUT  
# ...
  1180.000     10.419    939.521 
  1180.500     10.478    942.861 
  1181.000     10.496    946.669 
  1181.500     10.510    951.597 
  1182.000     10.536    956.555 
  1182.500     10.543    959.809 
  1183.000     10.497    960.857 
  1183.500     10.405    960.711 
  1184.000     10.296    960.656 
  1184.500     10.164    961.533 
  1185.000      9.979    963.824 
  1185.500      9.732    967.661 
  1186.000      9.477    972.856 
  1186.500      9.278    979.013 
  1187.000      9.168    985.097 
  1187.500      9.150    988.907 
  1188.000      9.219    988.319 
  1188.500      9.334    983.455 
  1189.000      9.427    976.645 
  1189.500      9.471    970.397 
  1190.000      9.521    966.658 
  1190.500      9.631    967.389 
  1191.000      9.764    973.287 
  1191.500      9.838    981.413 
  1192.000      9.805    986.763 
  1192.500      9.681    987.349 
  1193.000      9.529    986.166 
  1193.500      9.427    987.198 
  1194.000      9.417    990.871 
  1194.500      9.482    994.280 
  1195.000      9.580    994.825 
  1195.500      9.697    992.734 
  1196.000      9.830    990.256 
  1196.500      9.966    989.297 
  1197.000     10.087    990.374 
  1197.500     10.184    993.243 
  1198.000     10.247    997.152 
  1198.500     10.267   1000.447 
  1199.000     10.255   1001.449 
  1199.500     10.236   1000.175 
  1200.000     10.222    998.093 
  1200.500     10.200    996.236 
  1201.000     10.163    994.763 
  1201.500     10.132    993.776 
  1202.000     10.136    992.712 
  1202.500     10.169    989.718 
  1203.000     10.185    983.925 
  1203.500     10.163    977.377 
  1204.000     10.141    972.500 
  1204.500     10.162    968.819 
  1205.000     10.219    964.463 
  1205.500     10.259    959.463 
  1206.000     10.255    954.722 
  1206.500     10.229    949.543 
  1207.000     10.221    943.566 
  1207.500     10.247    939.565 
  1208.000     10.299    941.095 
  1208.500     10.347    948.143 
  1209.000     10.370    957.327 
  1209.500     10.374    964.566 
  1210.000     10.365    966.299 
  1210.500     10.313    961.467 
  1211.000     10.175    953.897 
  1211.500      9.968    949.078 
  1212.000      9.767    947.241 
  1212.500      9.631    943.792 
  1213.000      9.555    937.361 
  1213.500      9.521    932.291 
  1214.000      9.546    931.648 
  1214.500      9.653    933.405 
  1215.000      9.817    935.665 
  1215.500      9.977    940.277 
  1216.000     10.081    948.461 
  1216.500     10.097    956.880 
  1217.000     10.013    961.674 
  1217.500      9.850    963.148 
  1218.000      9.679    963.855 
  1218.500      9.586    964.654 
  1219.000      9.596    965.910 
  1219.500      9.664    969.700 
  1220.000      9.739    976.438 
  1220.500      9.821    982.443 
  1221.000      9.921    985.139 
  1221.500      9.998    986.664 
  1222.000      9.979    986.982 
  1222.500      9.853    979.511 
  1223.000      9.687    961.716 
  1223.500      9.552    944.003 
  1224.000      9.465    938.906 
  1224.500      9.416    946.241 
  1225.000      9.407    956.756 
  1225.500      9.439    964.646 
  1226.000      9.495    968.889 
  1226.500      9.560    968.659 
  1227.000      9.641    965.058 
  1227.500      9.755    962.458 
  1228.000      9.899    962.799 
  1228.500     10.045    963.260 
  1229.000     10.158    961.943 
  1229.500     10.221    960.470 
  1230.000     10.232    959.334 
  1230.500     10.175    956.587 
  1231.000     10.024    952.273 
  1231.500      9.794    949.321 
  1232.000      9.570    949.632 
  1232.500      9.424    952.043 
  1233.000      9.359    954.616 
  1233.500      9.334    956.590 
  1234.000      9.312    958.551 
  1234.500      9.242    961.197 
  1235.000      9.066    963.364 
  1235.500      8.799    962.343 
  1236.000      8.558    957.282 
  1236.500      8.451    951.279 
  1237.000      8.472    948.301 
  1237.500      8.540    949.106 
  1238.000      8.610    951.620 
  1238.500      8.686    954.005 
  1239.000      8.758    955.957 
  1239.500      8.785    957.970 
  1240.000      8.752    960.287 
  1240.500      8.697    962.584 
  1241.000      8.666    964.712 
  1241.500      8.661    967.694 
  1242.000      8.654    972.711 
  1242.500      8.617    978.816 
  1243.000      8.534    983.185 
  1243.500      8.394    984.073 
  1244.000      8.219    982.119 
  1244.500      8.068    978.838 
  1245.000      7.987    975.238 
  1245.500      7.947    972.074 
  1246.000      7.875    969.839 
  1246.500      7.744    968.337 
  1247.000      7.615    967.403 
  1247.500      7.566    967.822 
  1248.000      7.617    970.560 
  1248.500      7.717    974.877 
  1249.000      7.804    978.215 
  1249.500      7.857    978.537 
  1250.000      7.880    976.157 
  1250.500      7.866    972.360 
  1251.000      7.826    966.894 
  1251.500      7.833    958.805 
  1252.000      7.977    949.353 
  1252.500      8.254    941.766 
  1253.000      8.535    937.457 
  1253.500      8.705    934.642 
  1254.000      8.776    931.508 
  1254.500      8.829    928.746 
  1255.000      8.878    927.845 
  1255.500      8.864    928.378 
  1256.000      8.768    928.298 
  1256.500      8.644    926.431 
  1257.000      8.560    923.720 
  1257.500      8.540    921.734 
  1258.000      8.572    920.637 
  1258.500      8.631    919.821 
  1259.000      8.688    919.978 
  1259.500      8.730    923.751 
  1260.000      8.747    932.812 
  1260.500      8.696    945.799 
  1261.000      8.543    959.899 
  1261.500      8.324    974.129 
  1262.000      8.084    989.185 
  1262.500      7.784   1002.837 
  1263.000      7.389   1008.993 
  1263.500      7.003   1005.760 
  1264.000      6.782   1000.302 
  1264.500      6.769    997.940 
  1265.000      6.930    990.749 
  1265.500      7.266    968.807 
  1266.000      7.732    939.594 
  1266.500      8.137    921.773 
  1267.000      8.309    919.972 
  1267.500      8.315    920.594 
  1268.000      8.357    913.771 
  1268.500      8.509    905.335 
  1269.000      8.681    904.197 
  1269.500      8.796    909.874 
  1270.000      8.873    916.229 
  1270.500      8.948    920.128 
  1271.000      8.998    919.327 
  1271.500      8.978    915.074 
  1272.000      8.898    914.548 
  1272.500      8.831    918.444 
  1273.000      8.839    923.726 
  1273.500      8.898    928.081 
  1274.000      8.936    929.479 
  1274.500      8.935    927.428 
  1275.000      8.940    922.809 
  1275.500      8.967    916.786 
  1276.000      8.957    911.746 
  1276.500      8.852    912.354 
  1277.000      8.702    921.731 
  1277.500      8.615    935.221 
  1278.000      8.614    943.800 
  1278.500      8.587    948.519 
  1279.000      8.432    958.692 
  1279.500      8.151    973.068 
  1280.000      7.765    985.373 
  1280.500      7.295    998.055 
  1281.000      6.857   1002.798 
  1281.500      6.591    981.004 
  1282.000      6.473    946.015 
  1282.500      6.451    930.241 
  1283.000      6.728    928.187 
  1283.500      7.524    916.248 
  1284.000      8.562    902.886 
  1284.500      9.231    902.590 
  1285.000      9.325    905.967 
  1285.500      9.214    908.191 
  1286.000      9.250    916.080 
  1286.500      9.392    924.389 
  1287.000      9.474    925.647 
  1287.500      9.485    925.201 
  1288.000      9.498    926.608 
  1288.500      9.536    927.449 
  1289.000      9.557    930.271 
  1289.500      9.482    937.387 
  1290.000      9.269    944.718 
  1290.500      8.997    950.504 
  1291.000      8.786    956.258 
  1291.500      8.643    961.257 
  1292.000      8.497    966.804 
  1292.500      8.370    976.965 
  1293.000      8.391    987.617 
  1293.500      8.592    988.522 
  1294.000      8.828    981.347 
  1294.500      8.942    977.817 
  1295.000      8.931    981.867 
  1295.500      8.878    989.518 
  1296.000      8.784    994.910 
  1296.500      8.576    996.378 
  1297.000      8.248    995.735 
  1297.500      7.916    996.422 
