~Version Information Block
 VERS.                2.00:     CWLS LOG ASCII STANDARD - VERSION 2.000000
 WRAP.                  NO:     One Line Per Depth Step
#
~Well Information Block
#MNEM.UNIT                     Data                         Information
#----------   ------------------------------------------   ----------------
 STRT.FT                                        0.0000:
 STOP.FT                                     3200.0000:
 STEP.FT                                        0.5000:
 NULL.                                       -999.2500:
 COMP.                                                :     COMPANY
 WELL.                                                :     WELL
 FLD .                                                :     FIELD
 CNTY.                                                :     COUNTY
 STAT.                                                :     STATE
 CTRY.                                                :     COUNTRY
 SRVC.                                                :     SERVICE COMPANY
 DATE.                                                :     DATE
 API .                                                :     API NUMBER
 UWI .                                                :     UWI NUMBER
#
~Curve Information Block
#MNEM.UNIT       API CODE      Curve Description
#----------    -------------   -------------------
 DEPT.FT                   :   Depth in Feet
 GR  .GAPI                 :   Gamma Ray
 NEUT.GAPI                 :   Neutrons
#
~A  DEPTH         GR       NEUT  
     0.000      1.867    892.440 
     0.500      1.867    892.440 
     1.000      1.867    892.440 
     1.500      1.867    892.440 
     2.000      2.296    892.440 
     2.500      2.296    892.440 
     3.000      3.153    892.440 
     3.500      3.153    892.440 
     4.000      3.153    892.440 
     4.500      3.153    892.440 
     5.000      3.153    892.440 
     5.500      3.153    892.440 
     6.000      3.031    885.104 
     6.500      2.908    879.567 
     7.000      2.883    881.845 
     7.500      2.876    876.494 
     8.000      3.037    873.069 
     8.500      3.224    872.746 
     9.000      3.326    879.912 
     9.500      3.351    893.011 
    10.000      3.365    904.028 
    10.500      3.411    907.188 
    11.000      3.438    904.266 
    11.500      3.342    900.642 
    12.000      3.097    899.468 
    12.500      2.859    899.946 
    13.000      2.813    899.445 
    13.500      2.918    897.519 
    14.000      2.951    897.586 
    14.500      2.811    902.760 
    15.000      2.623    911.134 
    15.500      2.526    918.203 
    16.000      2.488    922.138 
    16.500      2.385    923.296 
    17.000      2.172    921.540 
    17.500      1.896    918.008 
    18.000      1.645    915.901 
    18.500      1.497    915.670 
    19.000      1.486    912.645 
    19.500      1.580    903.491 
    20.000      1.720    891.316 
    20.500      1.873    881.118 
    21.000      2.009    874.537 
    21.500      2.082    872.028 
    22.000      2.070    875.005 
    22.500      2.035    882.175 
    23.000      2.067    888.094 
    23.500      2.165    889.043 
    24.000      2.234    887.706 
    24.500      2.232    889.265 
    25.000      2.232    895.373 
    25.500      2.318    903.487 
    26.000      2.464    910.182 
    26.500      2.583    913.748 
    27.000      2.639    914.989 
    27.500      2.657    916.097 
    28.000      2.646    918.261 
    28.500      2.605    920.778 
    29.000      2.567    922.817 
    29.500      2.573    924.745 
    30.000      2.619    926.887 
    30.500      2.657    928.678 
    31.000      2.667    930.267 
    31.500      2.665    933.486 
    32.000      2.657    939.562 
    32.500      2.616    946.672 
    33.000      2.518    951.356 
    33.500      2.384    952.265 
    34.000      2.276    951.118 
    34.500      2.245    950.081 
    35.000      2.289    949.765 
    35.500      2.354    949.665 
    36.000      2.374    948.852 
    36.500      2.340    946.011 
    37.000      2.314    940.612 
    37.500      2.361    934.687 
    38.000      2.469    931.883 
    38.500      2.569    934.005 
    39.000      2.620    939.423 
    39.500      2.639    945.027 
    40.000      2.663    948.534 
    40.500      2.698    948.973 
    41.000      2.720    946.510 
    41.500      2.719    942.362 
    42.000      2.725    938.377 
    42.500      2.781    936.571 
    43.000      2.873    938.852 
    43.500      2.941    945.736 
    44.000      2.966    954.598 
    44.500      3.001    960.782 
    45.000      3.068    961.653 
    45.500      3.089    958.887 
    46.000      3.003    956.377 
    46.500      2.878    956.490 
    47.000      2.847    958.882 
    47.500      2.948    961.729 
    48.000      3.102    963.513 
    48.500      3.215    964.107 
    49.000      3.238    964.316 
    49.500      3.163    964.344 
    50.000      3.020    963.306 
    50.500      2.879    960.508 
    51.000      2.800    956.723 
    51.500      2.780    953.237 
    52.000      2.784    949.337 
    52.500      2.789    941.864 
    53.000      2.790    928.603 
    53.500      2.775    911.883 
    54.000      2.730    896.972 
    54.500      2.664    886.519 
    55.000      2.606    879.178 
    55.500      2.587    874.690 
    56.000      2.616    876.692 
    56.500      2.660    887.559 
    57.000      2.663    903.121 
    57.500      2.602    916.278 
    58.000      2.529    924.430 
    58.500      2.514    930.034 
    59.000      2.565    935.012 
    59.500      2.618    938.283 
    60.000      2.610    939.027 
    60.500      2.530    939.275 
    61.000      2.424    941.608 
    61.500      2.355    945.287 
    62.000      2.359    946.426 
    62.500      2.414    942.270 
    63.000      2.432    934.619 
    63.500      2.344    928.286 
    64.000      2.171    926.657 
    64.500      2.007    929.622 
    65.000      1.915    935.218 
    65.500      1.868    941.341 
    66.000      1.811    945.952 
    66.500      1.740    947.440 
    67.000      1.691    945.761 
    67.500      1.678    942.560 
    68.000      1.674    939.617 
    68.500      1.647    937.762 
    69.000      1.600    937.169 
    69.500      1.567    937.875 
    70.000      1.565    939.443 
    70.500      1.568    940.785 
    71.000      1.537    941.116 
    71.500      1.463    941.190 
    72.000      1.368    942.663 
    72.500      1.266    945.762 
    73.000      1.158    948.880 
    73.500      1.055    951.162 
    74.000      0.981    953.954 
    74.500      0.953    957.859 
    75.000      0.953    960.275 
    75.500      0.954    958.367 
    76.000      0.937    953.294 
    76.500      0.895    948.709 
    77.000      0.830    945.498 
    77.500      0.758    940.053 
    78.000      0.698    931.716 
    78.500      0.659    922.812 
    79.000      0.636    914.936 
    79.500      0.622    907.212 
    80.000      0.616    896.310 
    80.500      0.614    881.219 
    81.000      0.600    867.813 
    81.500      0.566    861.352 
    82.000      0.531    856.643 
    82.500      0.519    846.019 
    83.000      0.519    832.426 
    83.500      0.516    823.622 
    84.000      0.517    821.064 
    84.500      0.539    823.178 
    85.000      0.567    829.434 
    85.500      0.569    834.662 
    86.000      0.545    836.897 
    86.500      0.518    835.747 
    87.000      0.497    832.380 
    87.500      0.479    828.324 
    88.000      0.461    824.945 
    88.500      0.451    823.745 
    89.000      0.454    825.842 
    89.500      0.474    830.250 
    90.000      0.514    833.889 
    90.500      0.575    834.642 
    91.000      0.647    833.706 
    91.500      0.713    833.413 
    92.000      0.754    833.159 
    92.500      0.766    830.003 
    93.000      0.768    823.495 
    93.500      0.772    817.374 
    94.000      0.756    815.647 
    94.500      0.704    818.605 
    95.000      0.647    823.695 
    95.500      0.643    828.590 
    96.000      0.709    832.386 
    96.500      0.809    834.769 
    97.000      0.901    835.284 
    97.500      0.954    833.764 
    98.000      0.943    831.095 
    98.500      0.872    828.557 
    99.000      0.793    826.134 
    99.500      0.766    823.177 
   100.000      0.794    821.421 
   100.500      0.834    824.506 
   101.000      0.855    832.714 
   101.500      0.866    841.586 
   102.000      0.886    848.266 
   102.500      0.908    855.756 
   103.000      0.925    867.386 
   103.500      0.956    880.258 
   104.000      1.025    888.545 
   104.500      1.119    891.247 
   105.000      1.192    892.284 
   105.500      1.201    893.651 
   106.000      1.144    892.458 
   106.500      1.042    885.576 
   107.000      0.920    874.595 
   107.500      0.812    864.496 
   108.000      0.751    858.612 
   108.500      0.739    856.850 
   109.000      0.738    858.360 
   109.500      0.707    863.111 
   110.000      0.648    870.004 
   110.500      0.593    875.706 
   111.000      0.556    877.366 
   111.500      0.534    875.202 
   112.000      0.530    871.314 
   112.500      0.556    867.071 
   113.000      0.611    862.399 
   113.500      0.674    856.495 
   114.000      0.726    848.658 
   114.500      0.758    839.748 
   115.000      0.757    833.254 
   115.500      0.722    833.659 
   116.000      0.679    842.396 
   116.500      0.665    855.471 
   117.000      0.696    866.125 
   117.500      0.759    870.510 
