~Version Information Block
 VERS.                2.00:     CWLS LOG ASCII STANDARD - VERSION 2.000000
 WRAP.                  NO:     One Line Per Depth Step
#
~Well Information Block
#MNEM.UNIT                     Data                         Information
#----------   ------------------------------------------   ----------------
 STRT.FT                                        0.0000:
 STOP.FT                                     3200.0000:
 STEP.FT                                        0.5000:
 NULL.                                       -999.2500:
 COMP.                                                :     COMPANY
 WELL.                                                :     WELL
 FLD .                                                :     FIELD
 CNTY.                                                :     COUNTY
 STAT.                                                :     STATE
 CTRY.                                                :     COUNTRY
 SRVC.                                                :     SERVICE COMPANY
 DATE.                                                :     DATE
 API .                                                :     API NUMBER
 UWI .                                                :     UWI NUMBER
#
~Curve Information Block
#MNEM.UNIT       API CODE      Curve Description
#----------    -------------   -------------------
 DEPT.FT                   :   Depth in Feet
 GR  .GAPI                 :   Gamma Ray
 NEUT.GAPI                 :   Neutrons
#
~A  DEPTH         GR       NEUT  
# ...
  2596.000      3.693   1062.384 
  2596.500      3.954   1059.142 
  2597.000      4.148   1054.277 
  2597.500      4.219   1049.545 
  2598.000      4.176   1047.130 
  2598.500      4.092   1047.317 
  2599.000      4.028   1048.808 
  2599.500      3.972   1050.612 
  2600.000      3.891   1052.731 
  2600.500      3.791   1055.195 
  2601.000      3.697   1057.237 
  2601.500      3.613   1057.871 
  2602.000      3.538   1057.138 
  2602.500      3.480   1056.461 
  2603.000      3.429   1057.505 
  2603.500      3.346   1060.652 
  2604.000      3.226   1064.730 
  2604.500      3.129   1068.120 
  2605.000      3.119   1070.080 
  2605.500      3.187   1071.051 
  2606.000      3.288   1071.928 
  2606.500      3.397   1072.852 
  2607.000      3.510   1072.583 
  2607.500      3.599   1069.699 
  2608.000      3.616   1064.784 
  2608.500      3.546   1060.436 
  2609.000      3.436   1058.411 
  2609.500      3.359   1057.961 
  2610.000      3.370   1057.960 
  2610.500      3.476   1059.170 
  2611.000      3.641   1062.675 
  2611.500      3.822   1067.235 
  2612.000      3.996   1070.161 
  2612.500      4.168   1070.186 
  2613.000      4.342   1068.048 
  2613.500      4.508   1064.718 
  2614.000      4.633   1060.544 
  2614.500      4.684   1055.871 
  2615.000      4.664   1051.397 
  2615.500      4.636   1047.966 
  2616.000      4.681   1046.371 
  2616.500      4.805   1047.052 
  2617.000      4.927   1049.444 
  2617.500      4.988   1051.848 
  2618.000      5.044   1052.542 
  2618.500      5.187   1051.014 
  2619.000      5.407   1047.827 
  2619.500      5.610   1043.174 
  2620.000      5.770   1036.668 
  2620.500      5.970   1029.059 
  2621.000      6.245   1023.076 
  2621.500      6.491   1021.103 
  2622.000      6.624   1022.414 
  2622.500      6.730   1024.272 
  2623.000      6.958   1025.554 
  2623.500      7.298   1027.281 
  2624.000      7.602   1029.326 
  2624.500      7.789   1029.061 
  2625.000      7.913   1024.572 
  2625.500      8.025   1017.460 
  2626.000      8.113   1010.812 
  2626.500      8.181   1005.624 
  2627.000      8.286   1000.673 
  2627.500      8.449    995.108 
  2628.000      8.627    989.672 
  2628.500      8.789    985.622 
  2629.000      8.953    983.535 
  2629.500      9.114    983.053 
  2630.000      9.218    983.306 
  2630.500      9.225    983.753 
  2631.000      9.161    984.694 
  2631.500      9.089    986.560 
  2632.000      9.066    988.786 
  2632.500      9.122    990.231 
  2633.000      9.227    990.925 
  2633.500      9.298    992.474 
  2634.000      9.290    996.476 
  2634.500      9.247   1002.688 
  2635.000      9.233   1009.303 
  2635.500      9.237   1014.507 
  2636.000      9.217   1017.481 
  2636.500      9.203   1018.728 
  2637.000      9.281   1019.920 
  2637.500      9.474   1022.888 
  2638.000      9.682   1028.041 
  2638.500      9.784   1034.069 
  2639.000      9.747   1039.628 
  2639.500      9.607   1044.837 
  2640.000      9.394   1050.548 
  2640.500      9.126   1056.674 
  2641.000      8.874   1061.804 
  2641.500      8.729   1064.225 
  2642.000      8.689   1062.922 
  2642.500      8.636   1058.181 
  2643.000      8.474   1052.031 
  2643.500      8.255   1047.575 
  2644.000      8.118   1046.327 
  2644.500      8.127   1046.010 
  2645.000      8.234   1042.534 
  2645.500      8.367   1034.497 
  2646.000      8.491   1024.274 
  2646.500      8.587   1014.473 
  2647.000      8.654   1005.801 
  2647.500      8.740    999.315 
  2648.000      8.901    997.673 
  2648.500      9.098   1002.016 
  2649.000      9.204   1009.820 
  2649.500      9.147   1017.743 
  2650.000      8.981   1024.859 
  2650.500      8.789   1031.290 
  2651.000      8.593   1036.088 
  2651.500      8.402   1038.816 
  2652.000      8.268   1041.306 
  2652.500      8.216   1045.473 
  2653.000      8.185   1050.514 
  2653.500      8.143   1054.187 
  2654.000      8.189   1055.969 
  2654.500      8.445   1057.192 
  2655.000      8.892   1058.678 
  2655.500      9.422   1059.775 
  2656.000      9.984   1059.537 
  2656.500     10.543   1058.093 
  2657.000     10.966   1056.702 
  2657.500     11.102   1056.564 
  2658.000     10.978   1057.489 
  2658.500     10.772   1058.387 
  2659.000     10.590   1059.287 
  2659.500     10.383   1061.867 
  2660.000     10.099   1067.166 
  2660.500      9.797   1073.520 
  2661.000      9.608   1077.962 
  2661.500      9.622   1078.998 
  2662.000      9.827   1077.128 
  2662.500     10.095   1072.955 
  2663.000     10.250   1066.518 
  2663.500     10.228   1058.369 
  2664.000     10.148   1050.356 
  2664.500     10.171   1044.760 
  2665.000     10.315   1042.865 
  2665.500     10.470   1043.330 
  2666.000     10.550   1042.801 
  2666.500     10.530   1039.706 
  2667.000     10.404   1031.786 
  2667.500     10.199   1021.167 
  2668.000     10.027   1013.182 
  2668.500     10.007   1002.833 
  2669.000     10.127    980.774 
  2669.500     10.250    955.434 
  2670.000     10.277    938.358 
  2670.500     10.245    926.184 
  2671.000     10.250    917.584 
  2671.500     10.330    914.842 
  2672.000     10.437    917.790 
  2672.500     10.499    930.337 
  2673.000     10.489    946.830 
  2673.500     10.415    956.027 
  2674.000     10.280    966.165 
  2674.500     10.073    978.550 
  2675.000      9.802    988.637 
  2675.500      9.505    995.666 
  2676.000      9.212   1002.931 
  2676.500      8.917   1008.773 
  2677.000      8.598   1010.927 
  2677.500      8.295   1012.074 
  2678.000      8.100   1013.319 
  2678.500      8.074   1012.410 
  2679.000      8.191   1009.643 
  2679.500      8.371   1006.267 
  2680.000      8.536   1001.275 
  2680.500      8.612    995.093 
  2681.000      8.579    990.490 
  2681.500      8.536    985.720 
  2682.000      8.640    981.256 
  2682.500      8.935    978.352 
  2683.000      9.274    977.841 
  2683.500      9.471    978.321 
  2684.000      9.472    977.725 
  2684.500      9.362    976.058 
  2685.000      9.251    974.866 
  2685.500      9.198    974.473 
  2686.000      9.207    973.834 
  2686.500      9.233    972.751 
  2687.000      9.207    972.077 
  2687.500      9.087    971.717 
  2688.000      8.912    970.448 
  2688.500      8.793    968.207 
  2689.000      8.826    966.727 
  2689.500      8.996    967.003 
  2690.000      9.197    967.658 
  2690.500      9.337    966.873 
  2691.000      9.400    964.750 
  2691.500      9.410    962.361 
  2692.000      9.380    959.581 
  2692.500      9.335    955.651 
  2693.000      9.344    951.275 
  2693.500      9.462    948.198 
  2694.000      9.639    946.773 
  2694.500      9.757    945.727 
  2695.000      9.775    944.331 
  2695.500      9.755    943.072 
  2696.000      9.736    941.785 
  2696.500      9.700    939.403 
  2697.000      9.697    936.407 
  2697.500      9.808    935.522 
  2698.000      9.921    938.331 
  2698.500      9.870    942.437 
  2699.000      9.898    944.156 
  2699.500     10.490    942.873 
  2700.000     11.469    940.710 
  2700.500     11.873    938.618 
  2701.000     11.166    935.995 
  2701.500     10.032    934.104 
  2702.000      9.454    936.246 
  2702.500      9.504    942.980 
  2703.000      9.604    949.941 
  2703.500      9.504    952.502 
  2704.000      9.401    951.044 
  2704.500      9.399    950.091 
  2705.000      9.389    953.364 
  2705.500      9.307    960.581 
  2706.000      9.142    968.331 
  2706.500      8.833    973.676 
  2707.000      8.383    977.245 
  2707.500      7.928    982.162 
  2708.000      7.585    989.450 
  2708.500      7.341    995.938 
  2709.000      7.158    998.085 
  2709.500      7.060    996.163 
  2710.000      7.062    993.260 
  2710.500      7.133    991.508 
  2711.000      7.254    990.811 
  2711.500      7.444    990.246 
  2712.000      7.678    989.054 
  2712.500      7.863    986.498 
  2713.000      7.929    981.874 
  2713.500      7.903    974.662 
