~Version Information Block
 VERS.                2.00:     CWLS LOG ASCII STANDARD - VERSION 2.000000
 WRAP.                  NO:     One Line Per Depth Step
#
~Well Information Block
#MNEM.UNIT                     Data                         Information
#----------   ------------------------------------------   ----------------
 STRT.FT                                        0.0000:
 STOP.FT                                     3200.0000:
 STEP.FT                                        0.5000:
 NULL.                                       -999.2500:
 COMP.                                                :     COMPANY
 WELL.                                                :     WELL
 FLD .                                                :     FIELD
 CNTY.                                                :     COUNTY
 STAT.                                                :     STATE
 CTRY.                                                :     COUNTRY
 SRVC.                                                :     SERVICE COMPANY
 DATE.                                                :     DATE
 API .                                                :     API NUMBER
 UWI .                                                :     UWI NUMBER
#
~Curve Information Block
#MNEM.UNIT       API CODE      Curve Description
#----------    -------------   -------------------
 DEPT.FT                   :   Depth in Feet
 GR  .GAPI                 :   Gamma Ray
 NEUT.GAPI                 :   Neutrons
#
~A  DEPTH         GR       NEUT  
# ...
   944.000      9.488    897.449 
   944.500      9.193    901.080 
   945.000      8.891    913.127 
   945.500      8.653    925.519 
   946.000      8.505    932.574 
   946.500      8.434    938.985 
   947.000      8.422    948.210 
   947.500      8.466    955.878 
   948.000      8.554    958.891 
   948.500      8.664    956.698 
   949.000      8.781    948.953 
   949.500      8.908    940.607 
   950.000      9.042    936.385 
   950.500      9.179    932.521 
   951.000      9.332    927.050 
   951.500      9.514    925.894 
   952.000      9.684    930.653 
   952.500      9.769    935.734 
   953.000      9.751    937.865 
   953.500      9.698    936.469 
   954.000      9.678    934.590 
   954.500      9.676    934.657 
   955.000      9.634    936.881 
   955.500      9.542    941.127 
   956.000      9.447    947.455 
   956.500      9.391    954.657 
   957.000      9.363    960.554 
   957.500      9.317    963.911 
   958.000      9.223    964.543 
   958.500      9.087    961.716 
   959.000      8.929    954.743 
   959.500      8.756    945.610 
   960.000      8.561    938.703 
   960.500      8.330    936.801 
   961.000      8.069    938.395 
   961.500      7.828    940.028 
   962.000      7.649    940.838 
   962.500      7.493    943.742 
   963.000      7.326    951.574 
   963.500      7.233    962.490 
   964.000      7.321    970.771 
   964.500      7.530    973.047 
   965.000      7.692    972.204 
   965.500      7.776    972.960 
   966.000      7.867    975.454 
   966.500      7.945    976.949 
   967.000      7.915    978.960 
   967.500      7.827    986.862 
   968.000      7.808   1000.880 
   968.500      7.775   1013.009 
   969.000      7.509   1016.052 
   969.500      7.032   1011.278 
   970.000      6.648   1004.543 
   970.500      6.560    999.886 
   971.000      6.677   1000.341 
   971.500      6.815   1009.393 
   972.000      6.896   1026.122 
   972.500      6.874   1042.468 
   973.000      6.692   1050.389 
   973.500      6.405   1049.936 
   974.000      6.204   1047.107 
   974.500      6.230   1045.797 
   975.000      6.432   1045.262 
   975.500      6.663   1044.314 
   976.000      6.855   1044.630 
   976.500      7.027   1048.996 
   977.000      7.195   1057.559 
   977.500      7.316   1067.232 
   978.000      7.332   1074.988 
   978.500      7.229   1080.381 
   979.000      7.039   1084.065 
   979.500      6.810   1085.399 
   980.000      6.592   1083.603 
   980.500      6.445   1080.145 
   981.000      6.412   1077.933 
   981.500      6.473   1078.356 
   982.000      6.545   1080.736 
   982.500      6.550   1083.955 
   983.000      6.464   1087.296 
   983.500      6.315   1090.668 
   984.000      6.165   1095.344 
   984.500      6.085   1103.480 
   985.000      6.108   1115.534 
   985.500      6.205   1128.697 
   986.000      6.314   1138.841 
   986.500      6.352   1143.606 
   987.000      6.214   1142.993 
   987.500      5.840   1137.955 
   988.000      5.333   1129.688 
   988.500      4.921   1120.048 
   989.000      4.761   1111.279 
   989.500      4.826   1104.737 
   990.000      5.009   1100.422 
   990.500      5.261   1097.911 
   991.000      5.572   1097.074 
   991.500      5.886   1097.459 
   992.000      6.104   1097.695 
   992.500      6.150   1096.220 
   993.000      6.042   1092.653 
   993.500      5.878   1088.472 
   994.000      5.768   1086.358 
   994.500      5.761   1088.138 
   995.000      5.837   1092.889 
   995.500      5.919   1097.929 
   996.000      5.878   1101.922 
   996.500      5.614   1105.825 
   997.000      5.189   1110.577 
   997.500      4.821   1115.250 
   998.000      4.688   1118.415 
   998.500      4.766   1120.301 
   999.000      4.898   1122.385 
   999.500      4.980   1124.652 
  1000.000      5.005   1124.467 
  1000.500      5.009   1119.618 
  1001.000      5.026   1112.008 
  1001.500      5.082   1106.177 
  1002.000      5.160   1104.162 
  1002.500      5.199   1104.257 
  1003.000      5.153   1104.933 
  1003.500      5.052   1106.409 
  1004.000      5.005   1107.630 
  1004.500      5.132   1105.659 
  1005.000      5.455   1099.761 
  1005.500      5.847   1093.203 
  1006.000      6.132   1089.330 
  1006.500      6.261   1087.865 
  1007.000      6.339   1086.136 
  1007.500      6.468   1082.292 
  1008.000      6.631   1076.607 
  1008.500      6.761   1070.487 
  1009.000      6.859   1064.918 
  1009.500      6.972   1059.733 
  1010.000      7.102   1054.580 
  1010.500      7.188   1050.309 
  1011.000      7.179   1048.226 
  1011.500      7.106   1048.058 
  1012.000      7.057   1048.246 
  1012.500      7.115   1048.685 
  1013.000      7.296   1051.296 
  1013.500      7.523   1056.832 
  1014.000      7.664   1063.524 
  1014.500      7.663   1070.508 
  1015.000      7.606   1079.870 
  1015.500      7.590   1092.466 
  1016.000      7.531   1104.058 
  1016.500      7.233   1109.369 
  1017.000      6.669   1108.630 
  1017.500      6.090   1106.308 
  1018.000      5.775   1104.697 
  1018.500      5.761   1102.519 
  1019.000      5.888   1099.266 
  1019.500      6.016   1097.172 
  1020.000      6.124   1098.226 
  1020.500      6.202   1101.633 
  1021.000      6.192   1105.233 
  1021.500      6.063   1108.194 
  1022.000      5.889   1111.010 
  1022.500      5.780   1112.996 
  1023.000      5.757   1112.145 
  1023.500      5.742   1108.734 
  1024.000      5.657   1105.716 
  1024.500      5.498   1102.649 
  1025.000      5.321   1094.214 
  1025.500      5.198   1079.316 
  1026.000      5.173   1066.127 
  1026.500      5.220   1061.311 
  1027.000      5.245   1059.493 
  1027.500      5.168   1051.305 
  1028.000      4.999   1037.375 
  1028.500      4.846   1026.354 
  1029.000      4.811   1022.738 
  1029.500      4.903   1024.175 
  1030.000      5.051   1027.978 
  1030.500      5.198   1033.432 
  1031.000      5.320   1038.936 
  1031.500      5.386   1041.993 
  1032.000      5.363   1042.038 
  1032.500      5.296   1040.861 
  1033.000      5.302   1040.476 
  1033.500      5.418   1041.508 
  1034.000      5.533   1043.073 
  1034.500      5.540   1043.672 
  1035.000      5.482   1042.278 
  1035.500      5.471   1038.911 
  1036.000      5.522   1034.536 
  1036.500      5.597   1030.507 
  1037.000      5.728   1027.746 
  1037.500      5.962   1026.132 
  1038.000      6.218   1024.536 
  1038.500      6.341   1021.604 
  1039.000      6.290   1016.779 
  1039.500      6.162   1011.008 
  1040.000      6.046   1006.059 
  1040.500      5.994   1002.453 
  1041.000      6.086    998.785 
  1041.500      6.373    994.445 
  1042.000      6.752    992.140 
  1042.500      7.021    995.404 
  1043.000      7.087   1003.602 
  1043.500      7.051   1011.732 
  1044.000      7.058   1015.718 
  1044.500      7.140   1016.023 
  1045.000      7.245   1015.450 
  1045.500      7.357   1015.388 
  1046.000      7.502   1015.604 
  1046.500      7.640   1016.213 
  1047.000      7.670   1017.986 
  1047.500      7.577   1021.026 
  1048.000      7.472   1024.333 
  1048.500      7.458   1026.591 
  1049.000      7.518   1026.930 
  1049.500      7.591   1025.580 
  1050.000      7.657   1023.994 
  1050.500      7.709   1023.496 
  1051.000      7.705   1023.555 
  1051.500      7.603   1022.091 
  1052.000      7.413   1017.695 
  1052.500      7.202   1010.886 
  1053.000      7.073   1003.147 
  1053.500      7.108    995.504 
  1054.000      7.307    988.136 
  1054.500      7.573    980.976 
  1055.000      7.807    974.526 
  1055.500      7.971    969.835 
  1056.000      8.089    967.337 
  1056.500      8.211    965.992 
  1057.000      8.387    963.805 
  1057.500      8.616    959.071 
  1058.000      8.819    951.433 
  1058.500      8.907    942.604 
  1059.000      8.875    935.735 
  1059.500      8.779    932.533 
  1060.000      8.649    931.713 
  1060.500      8.486    931.728 
  1061.000      8.304    933.611 
  1061.500      8.126    938.887 
