~Version Information Block
 VERS.                2.00:     CWLS LOG ASCII STANDARD - VERSION 2.000000
 WRAP.                  NO:     One Line Per Depth Step
#
~Well Information Block
#MNEM.UNIT                     Data                         Information
#----------   ------------------------------------------   ----------------
 STRT.FT                                        0.0000:
 STOP.FT                                     3200.0000:
 STEP.FT                                        0.5000:
 NULL.                                       -999.2500:
 COMP.                                                :     COMPANY
 WELL.                                                :     WELL
 FLD .                                                :     FIELD
 CNTY.                                                :     COUNTY
 STAT.                                                :     STATE
 CTRY.                                                :     COUNTRY
 SRVC.                                                :     SERVICE COMPANY
 DATE.                                                :     DATE
 API .                                                :     API NUMBER
 UWI .                                                :     UWI NUMBER
#
~Curve Information Block
#MNEM.UNIT       API CODE      Curve Description
#----------    -------------   -------------------
 DEPT.FT                   :   Depth in Feet
 GR  .GAPI                 :   Gamma Ray
 NEUT.GAPI                 :   Neutrons
#
~A  DEPTH         GR       NEUT  
# ...
   590.000      1.540    967.361 
   590.500      1.573    963.482 
   591.000      1.634    960.860 
   591.500      1.662    960.504 
   592.000      1.634    964.539 
   592.500      1.581    972.796 
   593.000      1.543    981.882 
   593.500      1.518    988.983 
   594.000      1.488    994.282 
   594.500      1.454    998.921 
   595.000      1.439   1002.664 
   595.500      1.443   1005.071 
   596.000      1.431   1007.050 
   596.500      1.381   1009.330 
   597.000      1.313   1011.110 
   597.500      1.271   1011.417 
   598.000      1.283   1010.777 
   598.500      1.346   1010.159 
   599.000      1.429   1010.468 
   599.500      1.494   1012.831 
   600.000      1.523   1017.384 
   600.500      1.532   1021.797 
   601.000      1.542   1024.363 
   601.500      1.555   1026.895 
   602.000      1.552   1029.869 
   602.500      1.522   1028.252 
   603.000      1.479   1018.645 
   603.500      1.446   1006.403 
   604.000      1.439    998.145 
   604.500      1.453    992.638 
   605.000      1.467    987.295 
   605.500      1.466    986.872 
   606.000      1.445    995.484 
   606.500      1.403   1005.993 
   607.000      1.350   1008.055 
   607.500      1.309   1002.007 
   608.000      1.302    995.680 
   608.500      1.332    991.995 
   609.000      1.378    988.873 
   609.500      1.422    987.458 
   610.000      1.459    991.670 
   610.500      1.489   1000.934 
   611.000      1.505   1009.378 
   611.500      1.501   1012.297 
   612.000      1.488   1010.607 
   612.500      1.465   1008.577 
   613.000      1.423   1008.865 
   613.500      1.367   1009.995 
   614.000      1.332   1008.855 
   614.500      1.326   1004.442 
   615.000      1.297    998.836 
   615.500      1.191    994.053 
   616.000      1.032    989.798 
   616.500      0.877    985.073 
   617.000      0.746    980.360 
   617.500      0.628    977.037 
   618.000      0.542    975.478 
   618.500      0.520    974.820 
   619.000      0.555    973.920 
   619.500      0.605    972.119 
   620.000      0.636    969.621 
   620.500      0.645    966.954 
   621.000      0.631    963.620 
   621.500      0.599    958.548 
   622.000      0.563    953.024 
   622.500      0.535    951.467 
   623.000      0.515    957.019 
   623.500      0.509    966.816 
   624.000      0.535    974.719 
   624.500      0.584    978.161 
   625.000      0.619    979.438 
   625.500      0.610    980.150 
   626.000      0.567    978.522 
   626.500      0.518    974.218 
   627.000      0.476    971.180 
   627.500      0.437    972.328 
   628.000      0.409    975.314 
   628.500      0.408    978.212 
   629.000      0.436    984.779 
   629.500      0.478    998.190 
   630.000      0.513   1012.995 
   630.500      0.525   1020.377 
   631.000      0.517   1019.254 
   631.500      0.515   1016.421 
   632.000      0.536   1016.552 
   632.500      0.570   1017.325 
   633.000      0.576   1013.796 
   633.500      0.542   1004.326 
   634.000      0.495    991.792 
   634.500      0.472    980.212 
   635.000      0.466    970.977 
   635.500      0.444    963.005 
   636.000      0.399    955.869 
   636.500      0.353    950.897 
   637.000      0.328    949.665 
   637.500      0.317    953.357 
   638.000      0.310    962.126 
   638.500      0.313    972.744 
   639.000      0.333    979.728 
   639.500      0.359    981.485 
   640.000      0.378    982.546 
   640.500      0.394    986.604 
   641.000      0.420    991.379 
   641.500      0.445    993.481 
   642.000      0.455    994.223 
   642.500      0.460    996.908 
   643.000      0.478   1001.561 
   643.500      0.500   1005.677 
   644.000      0.500   1007.375 
   644.500      0.475   1005.798 
   645.000      0.453   1001.216 
   645.500      0.453    996.013 
   646.000      0.461    992.548 
   646.500      0.472    989.390 
   647.000      0.497    982.960 
   647.500      0.540    973.746 
   648.000      0.576    966.668 
   648.500      0.579    964.804 
   649.000      0.559    966.498 
   649.500      0.545    969.781 
   650.000      0.556    975.169 
   650.500      0.582    982.265 
   651.000      0.607    987.517 
   651.500      0.622    988.279 
   652.000      0.637    987.024 
   652.500      0.663    989.032 
   653.000      0.685    996.179 
   653.500      0.683   1004.208 
   654.000      0.661   1006.753 
   654.500      0.644   1002.021 
   655.000      0.641    994.655 
   655.500      0.629    990.161 
   656.000      0.600    989.085 
   656.500      0.578    988.224 
   657.000      0.576    986.093 
   657.500      0.583    984.168 
   658.000      0.584    983.375 
   658.500      0.582    982.638 
   659.000      0.581    981.334 
   659.500      0.580    980.371 
   660.000      0.580    980.525 
   660.500      0.585    981.318 
   661.000      0.586    981.916 
   661.500      0.567    981.570 
   662.000      0.534    979.437 
   662.500      0.515    975.204 
   663.000      0.520    969.935 
   663.500      0.526    965.325 
   664.000      0.507    961.930 
   664.500      0.474    959.195 
   665.000      0.455    956.896 
   665.500      0.455    955.589 
   666.000      0.461    955.566 
   666.500      0.462    956.418 
   667.000      0.460    957.635 
   667.500      0.456    958.817 
   668.000      0.456    959.424 
   668.500      0.471    959.251 
   669.000      0.505    958.785 
   669.500      0.533    957.930 
   670.000      0.520    955.186 
   670.500      0.470    949.037 
   671.000      0.420    940.077 
   671.500      0.394    931.176 
   672.000      0.379    925.957 
   672.500      0.356    926.540 
   673.000      0.333    931.183 
   673.500      0.329    935.427 
   674.000      0.347    937.780 
   674.500      0.381    942.178 
   675.000      0.419    951.687 
   675.500      0.447    962.177 
   676.000      0.457    966.937 
   676.500      0.460    965.438 
   677.000      0.475    962.621 
   677.500      0.501    961.042 
   678.000      0.523    959.310 
   678.500      0.530    957.504 
   679.000      0.522    958.426 
   679.500      0.502    962.710 
   680.000      0.476    967.209 
   680.500      0.459    969.972 
   681.000      0.454    973.398 
   681.500      0.456    980.398 
   682.000      0.462    989.506 
   682.500      0.467    996.026 
   683.000      0.449    997.010 
   683.500      0.398    993.624 
   684.000      0.343    989.383 
   684.500      0.329    987.369 
   685.000      0.352    989.094 
   685.500      0.371    994.002 
   686.000      0.359    999.564 
   686.500      0.335   1002.332 
   687.000      0.325   1000.421 
   687.500      0.337    995.470 
   688.000      0.356    991.042 
   688.500      0.375    988.836 
   689.000      0.406    987.962 
   689.500      0.461    987.402 
   690.000      0.526    986.286 
   690.500      0.569    982.193 
   691.000      0.583    973.611 
   691.500      0.597    964.269 
   692.000      0.628    960.607 
   692.500      0.650    964.089 
   693.000      0.635    970.159 
   693.500      0.597    974.808 
   694.000      0.564    977.982 
   694.500      0.538    980.286 
   695.000      0.504    981.196 
   695.500      0.470    980.873 
   696.000      0.457    980.613 
   696.500      0.460    980.749 
   697.000      0.459    980.683 
   697.500      0.452    980.600 
   698.000      0.470    980.983 
   698.500      0.520    981.022 
   699.000      0.570    980.211 
   699.500      0.584    980.133 
   700.000      0.567    981.875 
   700.500      0.546    982.048 
   701.000      0.535    975.642 
   701.500      0.528    963.215 
   702.000      0.515    951.402 
   702.500      0.492    945.016 
   703.000      0.463    942.633 
   703.500      0.448    941.871 
   704.000      0.470    944.410 
   704.500      0.523    952.542 
   705.000      0.570    964.188 
   705.500      0.587    975.127 
   706.000      0.585    983.915 
   706.500      0.582    991.493 
   707.000      0.574    997.694 
   707.500      0.553   1000.878 
