~Version Information Block
 VERS.                2.00:     CWLS LOG ASCII STANDARD - VERSION 2.000000
 WRAP.                  NO:     One Line Per Depth Step
#
~Well Information Block
#MNEM.UNIT                     Data                         Information
#----------   ------------------------------------------   ----------------
 STRT.FT                                        0.0000:
 STOP.FT                                     3200.0000:
 STEP.FT                                        0.5000:
 NULL.                                       -999.2500:
 COMP.                                                :     COMPANY
 WELL.                                                :     WELL
 FLD .                                                :     FIELD
 CNTY.                                                :     COUNTY
 STAT.                                                :     STATE
 CTRY.                                                :     COUNTRY
 SRVC.                                                :     SERVICE COMPANY
 DATE.                                                :     DATE
 API .                                                :     API NUMBER
 UWI .                                                :     UWI NUMBER
#
~Curve Information Block
#MNEM.UNIT       API CODE      Curve Description
#----------    -------------   -------------------
 DEPT.FT                   :   Depth in Feet
 GR  .GAPI                 :   Gamma Ray
 NEUT.GAPI                 :   Neutrons
#
~A  DEPTH         GR       NEUT  
# ...
  2714.000      7.866    964.732 
  2714.500      7.857    952.828 
  2715.000      7.850    941.101 
  2715.500      7.805    932.383 
  2716.000      7.730    928.508 
  2716.500      7.669    929.354 
  2717.000      7.653    933.562 
  2717.500      7.667    939.900 
  2718.000      7.662    947.713 
  2718.500      7.598    956.518 
  2719.000      7.460    965.821 
  2719.500      7.281    975.117 
  2720.000      7.133    983.307 
  2720.500      7.080    988.346 
  2721.000      7.113    988.547 
  2721.500      7.158    984.389 
  2722.000      7.152    978.195 
  2722.500      7.129    972.174 
  2723.000      7.221    967.544 
  2723.500      7.521    965.023 
  2724.000      7.976    964.794 
  2724.500      8.451    965.709 
  2725.000      8.887    965.982 
  2725.500      9.313    964.892 
  2726.000      9.724    962.725 
  2726.500     10.044    959.296 
  2727.000     10.235    954.707 
  2727.500     10.383    951.202 
  2728.000     10.600    951.818 
  2728.500     10.894    956.482 
  2729.000     11.175    961.995 
  2729.500     11.368    966.069 
  2730.000     11.472    968.616 
  2730.500     11.520    969.248 
  2731.000     11.520    967.159 
  2731.500     11.453    963.870 
  2732.000     11.330    962.333 
  2732.500     11.205    963.196 
  2733.000     11.135    965.540 
  2733.500     11.128    970.740 
  2734.000     11.140    980.780 
  2734.500     11.130    993.009 
  2735.000     11.100   1001.799 
  2735.500     11.082   1005.870 
  2736.000     11.100   1009.188 
  2736.500     11.158   1014.277 
  2737.000     11.262   1019.249 
  2737.500     11.416   1022.346 
  2738.000     11.591   1024.901 
  2738.500     11.737   1028.476 
  2739.000     11.820   1032.416 
  2739.500     11.818   1035.738 
  2740.000     11.706   1038.708 
  2740.500     11.479   1041.322 
  2741.000     11.194   1042.588 
  2741.500     10.901   1042.230 
  2742.000     10.574   1040.946 
  2742.500     10.168   1038.802 
  2743.000      9.677   1037.654 
  2743.500      9.263   1042.582 
  2744.000      8.980   1052.862 
  2744.500      8.661   1073.683 
  2745.000      8.364   1093.703 
  2745.500      8.160   1098.545 
  2746.000      7.718   1104.822 
  2746.500      6.876   1127.853 
  2747.000      6.037   1149.555 
  2747.500      5.355   1157.255 
  2748.000      4.519   1161.651 
  2748.500      3.663   1166.040 
  2749.000      3.243   1163.981 
  2749.500      3.144   1157.095 
  2750.000      2.968   1151.396 
  2750.500      2.753   1148.600 
  2751.000      2.627   1146.459 
  2751.500      2.493   1144.858 
  2752.000      2.368   1143.513 
  2752.500      2.268   1144.331 
  2753.000      2.252   1147.423 
  2753.500      2.319   1151.313 
  2754.000      2.391   1155.268 
  2754.500      2.414   1159.290 
  2755.000      2.409   1162.661 
  2755.500      2.426   1164.632 
  2756.000      2.476   1166.341 
  2756.500      2.530   1169.966 
  2757.000      2.554   1175.541 
  2757.500      2.534   1180.088 
  2758.000      2.480   1180.596 
  2758.500      2.419   1177.076 
  2759.000      2.383   1172.108 
  2759.500      2.398   1168.528 
  2760.000      2.471   1167.847 
  2760.500      2.599   1169.597 
  2761.000      2.766   1171.422 
  2761.500      2.936   1170.641 
  2762.000      3.057   1166.651 
  2762.500      3.092   1161.680 
  2763.000      3.038   1158.544 
  2763.500      2.911   1157.472 
  2764.000      2.739   1155.626 
  2764.500      2.583   1150.362 
  2765.000      2.511   1142.701 
  2765.500      2.534   1136.609 
  2766.000      2.578   1134.737 
  2766.500      2.563   1135.948 
  2767.000      2.482   1137.360 
  2767.500      2.394   1137.626 
  2768.000      2.347   1137.397 
  2768.500      2.355   1137.321 
  2769.000      2.422   1136.627 
  2769.500      2.546   1133.863 
  2770.000      2.711   1128.917 
  2770.500      2.879   1123.836 
  2771.000      3.010   1120.864 
  2771.500      3.080   1119.776 
  2772.000      3.099   1118.228 
  2772.500      3.120   1114.794 
  2773.000      3.213   1110.409 
  2773.500      3.404   1106.684 
  2774.000      3.631   1103.939 
  2774.500      3.776   1101.454 
  2775.000      3.771   1098.925 
  2775.500      3.658   1096.789 
  2776.000      3.562   1095.408 
  2776.500      3.560   1094.314 
  2777.000      3.607   1092.492 
  2777.500      3.605   1089.441 
  2778.000      3.532   1085.589 
  2778.500      3.468   1081.560 
  2779.000      3.503   1078.144 
  2779.500      3.653   1077.763 
  2780.000      3.865   1084.169 
  2780.500      4.062   1098.159 
  2781.000      4.166   1114.497 
  2781.500      4.116   1125.994 
  2782.000      3.906   1130.612 
  2782.500      3.605   1132.346 
  2783.000      3.303   1135.551 
  2783.500      3.043   1140.965 
  2784.000      2.807   1147.276 
  2784.500      2.588   1153.500 
  2785.000      2.414   1158.889 
  2785.500      2.318   1162.419 
  2786.000      2.298   1163.505 
  2786.500      2.325   1162.558 
  2787.000      2.362   1160.745 
  2787.500      2.386   1159.803 
  2788.000      2.401   1161.483 
  2788.500      2.438   1165.965 
  2789.000      2.512   1171.317 
  2789.500      2.608   1174.986 
  2790.000      2.707   1175.787 
  2790.500      2.798   1173.987 
  2791.000      2.861   1170.239 
  2791.500      2.877   1164.973 
  2792.000      2.857   1158.420 
  2792.500      2.847   1151.224 
  2793.000      2.870   1145.494 
  2793.500      2.883   1143.790 
  2794.000      2.824   1145.052 
  2794.500      2.679   1143.264 
  2795.000      2.488   1133.619 
  2795.500      2.303   1119.057 
  2796.000      2.155   1107.021 
  2796.500      2.059   1100.657 
  2797.000      2.029   1097.144 
  2797.500      2.065   1093.968 
  2798.000      2.143   1092.202 
  2798.500      2.216   1093.196 
  2799.000      2.256   1096.097 
  2799.500      2.278   1099.571 
  2800.000      2.324   1103.380 
  2800.500      2.408   1107.578 
  2801.000      2.508   1112.009 
  2801.500      2.604   1116.714 
  2802.000      2.693   1121.654 
  2802.500      2.773   1126.321 
  2803.000      2.843   1130.206 
  2803.500      2.920   1132.825 
  2804.000      3.037   1133.326 
  2804.500      3.217   1131.145 
  2805.000      3.484   1127.400 
  2805.500      3.858   1124.069 
  2806.000      4.275   1121.605 
  2806.500      4.585   1118.985 
  2807.000      4.687   1116.172 
  2807.500      4.659   1114.558 
  2808.000      4.662   1114.521 
  2808.500      4.750   1114.282 
  2809.000      4.851   1112.046 
  2809.500      4.917   1108.067 
  2810.000      4.997   1104.134 
  2810.500      5.143   1101.870 
  2811.000      5.302   1101.706 
  2811.500      5.349   1102.679 
  2812.000      5.220   1103.107 
  2812.500      4.964   1102.335 
  2813.000      4.675   1101.699 
  2813.500      4.406   1102.819 
  2814.000      4.173   1104.900 
  2814.500      4.001   1104.910 
  2815.000      3.920   1100.861 
  2815.500      3.927   1094.123 
  2816.000      4.000   1088.048 
  2816.500      4.147   1084.957 
  2817.000      4.401   1084.963 
  2817.500      4.740   1086.755 
  2818.000      5.065   1088.568 
  2818.500      5.268   1088.755 
  2819.000      5.316   1086.795 
  2819.500      5.254   1083.726 
  2820.000      5.138   1081.100 
  2820.500      4.999   1079.881 
  2821.000      4.856   1080.902 
  2821.500      4.722   1084.560 
  2822.000      4.566   1088.513 
  2822.500      4.328   1088.262 
  2823.000      3.986   1082.644 
  2823.500      3.610   1076.341 
  2824.000      3.324   1074.142 
  2824.500      3.212   1075.477 
  2825.000      3.269   1077.535 
  2825.500      3.410   1080.116 
  2826.000      3.523   1083.746 
  2826.500      3.538   1086.502 
  2827.000      3.452   1086.722 
  2827.500      3.306   1086.064 
  2828.000      3.148   1086.261 
  2828.500      3.029   1085.439 
  2829.000      2.985   1080.736 
  2829.500      3.015   1072.441 
  2830.000      3.073   1063.001 
  2830.500      3.125   1053.933 
  2831.000      3.200   1045.712 
  2831.500      3.363   1039.041 
