~Version Information Block
 VERS.                2.00:     CWLS LOG ASCII STANDARD - VERSION 2.000000
 WRAP.                  NO:     One Line Per Depth Step
#
~Well Information Block
#MNEM.UNIT                     Data                         Information
#----------   ------------------------------------------   ----------------
 STRT.FT                                        0.0000:
 STOP.FT                                     3200.0000:
 STEP.FT                                        0.5000:
 NULL.                                       -999.2500:
 COMP.                                                :     COMPANY
 WELL.                                                :     WELL
 FLD .                                                :     FIELD
 CNTY.                                                :     COUNTY
 STAT.                                                :     STATE
 CTRY.                                                :     COUNTRY
 SRVC.                                                :     SERVICE COMPANY
 DATE.                                                :     DATE
 API .                                                :     API NUMBER
 UWI .                                                :     UWI NUMBER
#
~Curve Information Block
#MNEM.UNIT       API CODE      Curve Description
#----------    -------------   -------------------
 DEPT.FT                   :   Depth in Feet
 GR  .GAPI                 :   Gamma Ray
 NEUT.GAPI                 :   Neutrons
#
~A  DEPTH         GR       NEUT  
# ...
  2360.000      2.696   1193.862 
  2360.500      2.751   1202.643 
  2361.000      2.808   1207.897 
  2361.500      2.877   1208.968 
  2362.000      2.946   1207.072 
  2362.500      3.004   1203.113 
  2363.000      3.066   1198.440 
  2363.500      3.132   1195.478 
  2364.000      3.151   1195.967 
  2364.500      3.071   1199.257 
  2365.000      2.914   1203.267 
  2365.500      2.769   1207.035 
  2366.000      2.693   1211.611 
  2366.500      2.666   1218.314 
  2367.000      2.636   1226.608 
  2367.500      2.577   1234.490 
  2368.000      2.494   1240.844 
  2368.500      2.398   1246.019 
  2369.000      2.278   1250.215 
  2369.500      2.119   1252.766 
  2370.000      1.934   1253.585 
  2370.500      1.767   1253.865 
  2371.000      1.650   1254.466 
  2371.500      1.578   1254.566 
  2372.000      1.526   1252.428 
  2372.500      1.495   1247.266 
  2373.000      1.499   1240.597 
  2373.500      1.534   1235.826 
  2374.000      1.586   1234.956 
  2374.500      1.648   1234.894 
  2375.000      1.724   1229.138 
  2375.500      1.803   1214.919 
  2376.000      1.862   1197.206 
  2376.500      1.901   1183.640 
  2377.000      1.960   1176.488 
  2377.500      2.082   1172.144 
  2378.000      2.261   1168.280 
  2378.500      2.463   1167.822 
  2379.000      2.671   1174.162 
  2379.500      2.867   1185.790 
  2380.000      2.984   1198.779 
  2380.500      2.932   1211.889 
  2381.000      2.693   1225.217 
  2381.500      2.362   1235.758 
  2382.000      2.065   1239.309 
  2382.500      1.871   1236.367 
  2383.000      1.782   1231.948 
  2383.500      1.776   1229.483 
  2384.000      1.828   1228.301 
  2384.500      1.904   1226.769 
  2385.000      1.965   1224.743 
  2385.500      1.979   1222.629 
  2386.000      1.934   1220.316 
  2386.500      1.842   1217.628 
  2387.000      1.735   1214.668 
  2387.500      1.654   1211.567 
  2388.000      1.626   1208.318 
  2388.500      1.649   1205.175 
  2389.000      1.682   1203.126 
  2389.500      1.685   1203.619 
  2390.000      1.649   1207.131 
  2390.500      1.599   1211.661 
  2391.000      1.556   1213.423 
  2391.500      1.531   1210.110 
  2392.000      1.532   1203.357 
  2392.500      1.559   1197.151 
  2393.000      1.600   1193.866 
  2393.500      1.640   1192.522 
  2394.000      1.687   1190.784 
  2394.500      1.755   1187.646 
  2395.000      1.829   1184.093 
  2395.500      1.865   1181.951 
  2396.000      1.841   1182.374 
  2396.500      1.779   1184.922 
  2397.000      1.711   1187.949 
  2397.500      1.648   1190.066 
  2398.000      1.596   1191.154 
  2398.500      1.564   1192.158 
  2399.000      1.556   1194.237 
  2399.500      1.557   1197.972 
  2400.000      1.547   1202.802 
  2400.500      1.522   1207.469 
  2401.000      1.498   1211.316 
  2401.500      1.506   1214.885 
  2402.000      1.559   1218.893 
  2402.500      1.628   1223.065 
  2403.000      1.671   1226.363 
  2403.500      1.684   1227.946 
  2404.000      1.706   1227.536 
  2404.500      1.774   1225.499 
  2405.000      1.883   1222.871 
  2405.500      1.991   1220.547 
  2406.000      2.051   1217.736 
  2406.500      2.043   1212.052 
  2407.000      1.997   1202.212 
  2407.500      1.986   1190.359 
  2408.000      2.061   1180.664 
  2408.500      2.212   1175.622 
  2409.000      2.384   1174.683 
  2409.500      2.525   1176.352 
  2410.000      2.603   1180.186 
  2410.500      2.609   1185.972 
  2411.000      2.539   1192.070 
  2411.500      2.416   1195.791 
  2412.000      2.295   1195.444 
  2412.500      2.242   1191.721 
  2413.000      2.282   1187.110 
  2413.500      2.375   1184.194 
  2414.000      2.464   1184.059 
  2414.500      2.531   1185.963 
  2415.000      2.574   1188.400 
  2415.500      2.584   1190.685 
  2416.000      2.578   1193.102 
  2416.500      2.623   1195.347 
  2417.000      2.756   1195.778 
  2417.500      2.914   1192.775 
  2418.000      3.016   1186.856 
  2418.500      3.067   1180.426 
  2419.000      3.127   1175.664 
  2419.500      3.201   1172.699 
  2420.000      3.244   1169.857 
  2420.500      3.262   1165.772 
  2421.000      3.327   1161.758 
  2421.500      3.482   1161.274 
  2422.000      3.691   1166.089 
  2422.500      3.883   1174.214 
  2423.000      4.019   1182.653 
  2423.500      4.083   1190.076 
  2424.000      4.057   1195.001 
  2424.500      3.949   1194.080 
  2425.000      3.807   1185.350 
  2425.500      3.668   1171.802 
  2426.000      3.510   1159.182 
  2426.500      3.336   1151.192 
  2427.000      3.245   1147.982 
  2427.500      3.346   1147.426 
  2428.000      3.604   1146.926 
  2428.500      3.851   1144.648 
  2429.000      3.955   1140.971 
  2429.500      3.934   1137.360 
  2430.000      3.882   1134.392 
  2430.500      3.848   1131.757 
  2431.000      3.804   1129.453 
  2431.500      3.710   1127.694 
  2432.000      3.589   1125.977 
  2432.500      3.504   1123.689 
  2433.000      3.457   1121.947 
  2433.500      3.373   1122.159 
  2434.000      3.234   1109.512 
  2434.500      3.190   1088.587 
  2435.000      3.427   1053.620 
  2435.500      3.936   1005.301 
  2436.000      4.494    981.305 
  2436.500      4.917    984.178 
  2437.000      5.213    981.163 
  2437.500      5.462    978.144 
  2438.000      5.647    985.784 
  2438.500      5.687    991.225 
  2439.000      5.549    994.775 
  2439.500      5.271    999.925 
  2440.000      4.905   1000.241 
  2440.500      4.537    995.434 
  2441.000      4.302    989.132 
  2441.500      4.302    984.432 
  2442.000      4.496    978.785 
  2442.500      4.737    973.736 
  2443.000      4.904    977.784 
  2443.500      4.951    991.590 
  2444.000      4.849   1007.031 
  2444.500      4.575   1020.804 
  2445.000      4.186   1034.090 
  2445.500      3.840   1042.981 
  2446.000      3.668   1043.877 
  2446.500      3.647   1042.124 
  2447.000      3.630   1045.082 
  2447.500      3.508   1052.751 
  2448.000      3.311   1060.708 
  2448.500      3.124   1067.576 
  2449.000      2.977   1073.424 
  2449.500      2.848   1079.513 
  2450.000      2.750   1082.576 
  2450.500      2.730   1081.951 
  2451.000      2.784   1082.047 
  2451.500      2.842   1082.061 
  2452.000      2.844   1079.496 
  2452.500      2.796   1080.813 
  2453.000      2.727   1088.154 
  2453.500      2.645   1095.238 
  2454.000      2.554   1102.885 
  2454.500      2.484   1112.129 
  2455.000      2.466   1118.218 
  2455.500      2.493   1124.353 
  2456.000      2.529   1135.033 
  2456.500      2.549   1142.741 
  2457.000      2.531   1154.127 
  2457.500      2.434   1168.693 
  2458.000      2.222   1185.409 
  2458.500      1.921   1202.218 
  2459.000      1.627   1215.210 
  2459.500      1.421   1220.233 
  2460.000      1.321   1218.076 
  2460.500      1.301   1214.756 
  2461.000      1.340   1213.072 
  2461.500      1.410   1208.690 
  2462.000      1.486   1198.714 
  2462.500      1.572   1188.191 
  2463.000      1.687   1182.971 
  2463.500      1.815   1181.595 
  2464.000      1.931   1178.404 
  2464.500      2.053   1176.885 
  2465.000      2.192   1180.534 
  2465.500      2.267   1186.450 
  2466.000      2.175   1194.415 
  2466.500      1.947   1203.333 
  2467.000      1.735   1208.690 
  2467.500      1.625   1209.810 
  2468.000      1.569   1210.332 
  2468.500      1.504   1211.188 
  2469.000      1.434   1210.997 
  2469.500      1.385   1210.654 
  2470.000      1.363   1211.127 
  2470.500      1.373   1210.401 
  2471.000      1.407   1206.971 
  2471.500      1.425   1204.376 
  2472.000      1.416   1207.539 
  2472.500      1.436   1213.335 
  2473.000      1.523   1218.330 
  2473.500      1.625   1220.106 
  2474.000      1.677   1219.082 
  2474.500      1.699   1216.693 
  2475.000      1.745   1213.805 
  2475.500      1.812   1210.936 
  2476.000      1.860   1208.946 
  2476.500      1.869   1209.266 
  2477.000      1.839   1212.826 
  2477.500      1.758   1218.590 
