~Version Information Block
 VERS.                2.00:     CWLS LOG ASCII STANDARD - VERSION 2.000000
 WRAP.                  NO:     One Line Per Depth Step
#
~Well Information Block
#MNEM.UNIT                     Data                         Information
#----------   ------------------------------------------   ----------------
 STRT.FT                                        0.0000:
 STOP.FT                                     3200.0000:
 STEP.FT                                        0.5000:
 NULL.                                       -999.2500:
 COMP.                                                :     COMPANY
 WELL.                                                :     WELL
 FLD .                                                :     FIELD
 CNTY.                                                :     COUNTY
 STAT.                                                :     STATE
 CTRY.                                                :     COUNTRY
 SRVC.                                                :     SERVICE COMPANY
 DATE.                                                :     DATE
 API .                                                :     API NUMBER
 UWI .                                                :     UWI NUMBER
#
~Curve Information Block
#MNEM.UNIT       API CODE      Curve Description
#----------    -------------   -------------------
 DEPT.FT                   :   Depth in Feet
 GR  .GAPI                 :   Gamma Ray
 NEUT.GAPI                 :   Neutrons
#
~A  DEPTH         GR       NEUT  
# ...
   354.000      0.931   1073.595 
   354.500      0.830   1069.126 
   355.000      0.770   1066.495 
   355.500      0.781   1065.536 
   356.000      0.844   1065.666 
   356.500      0.924   1066.347 
   357.000      1.004   1067.018 
   357.500      1.064   1066.707 
   358.000      1.070   1064.311 
   358.500      1.017   1059.606 
   359.000      0.945   1054.332 
   359.500      0.894   1051.514 
   360.000      0.869   1052.992 
   360.500      0.855   1057.745 
   361.000      0.860   1063.196 
   361.500      0.899   1067.543 
   362.000      0.957   1070.084 
   362.500      0.998   1070.457 
   363.000      1.010   1068.872 
   363.500      1.021   1066.370 
   364.000      1.066   1063.928 
   364.500      1.126   1061.833 
   365.000      1.149   1060.375 
   365.500      1.109   1060.251 
   366.000      1.039   1061.740 
   366.500      0.985   1064.153 
   367.000      0.960   1066.396 
   367.500      0.951   1067.504 
   368.000      0.944   1066.817 
   368.500      0.946   1064.404 
   369.000      0.963   1061.187 
   369.500      0.993   1058.035 
   370.000      1.017   1054.987 
   370.500      1.019   1051.733 
   371.000      0.996   1048.510 
   371.500      0.953   1045.835 
   372.000      0.899   1044.305 
   372.500      0.849   1043.402 
   373.000      0.825   1043.845 
   373.500      0.840   1045.357 
   374.000      0.882   1046.223 
   374.500      0.939   1045.168 
   375.000      1.023   1041.745 
   375.500      1.142   1035.655 
   376.000      1.252   1026.896 
   376.500      1.297   1015.360 
   377.000      1.277   1001.479 
   377.500      1.250    987.725 
   378.000      1.258    975.780 
   378.500      1.295    964.655 
   379.000      1.341    956.236 
   379.500      1.383    955.727 
   380.000      1.407    960.561 
   380.500      1.402    968.144 
   381.000      1.380    975.175 
   381.500      1.358    978.678 
   382.000      1.335    976.127 
   382.500      1.311    967.900 
   383.000      1.312    958.635 
   383.500      1.372    953.232 
   384.000      1.467    951.572 
   384.500      1.534    949.361 
   385.000      1.555    943.661 
   385.500      1.589    935.263 
   386.000      1.678    926.124 
   386.500      1.782    916.715 
   387.000      1.826    906.773 
   387.500      1.795    898.446 
   388.000      1.724    893.667 
   388.500      1.640    894.761 
   389.000      1.554    902.232 
   389.500      1.498    913.116 
   390.000      1.506    926.410 
   390.500      1.565    944.230 
   391.000      1.615    964.867 
   391.500      1.617    982.472 
   392.000      1.582    993.647 
   392.500      1.535    998.552 
   393.000      1.489    998.613 
   393.500      1.453    996.495 
   394.000      1.438    994.702 
   394.500      1.438    993.448 
   395.000      1.428    992.689 
   395.500      1.389    994.679 
   396.000      1.323    999.312 
   396.500      1.237   1004.506 
   397.000      1.137   1008.865 
   397.500      1.029   1013.855 
   398.000      0.924   1021.206 
   398.500      0.834   1029.067 
   399.000      0.772   1033.097 
   399.500      0.749   1031.529 
   400.000      0.748   1026.862 
   400.500      0.739   1022.265 
   401.000      0.717   1018.200 
   401.500      0.706   1013.634 
   402.000      0.720   1008.972 
   402.500      0.747   1005.852 
   403.000      0.767   1004.473 
   403.500      0.781   1003.042 
   404.000      0.812   1000.305 
   404.500      0.879    997.269 
   405.000      0.973    995.537 
   405.500      1.059    994.859 
   406.000      1.118    993.439 
   406.500      1.156    990.334 
   407.000      1.185    986.473 
   407.500      1.188    983.013 
   408.000      1.133    979.592 
   408.500      1.026    974.854 
   409.000      0.919    968.386 
   409.500      0.861    961.145 
   410.000      0.859    954.697 
   410.500      0.896    951.639 
   411.000      0.960    955.759 
   411.500      1.057    968.609 
   412.000      1.190    985.511 
   412.500      1.341    997.954 
   413.000      1.474   1001.164 
   413.500      1.569    997.068 
   414.000      1.631    990.025 
   414.500      1.673    982.592 
   415.000      1.690    975.997 
   415.500      1.673    971.303 
   416.000      1.635    968.291 
   416.500      1.619    965.113 
   417.000      1.666    960.808 
   417.500      1.777    956.863 
   418.000      1.907    955.819 
   418.500      1.992    958.689 
   419.000      1.998    964.492 
   419.500      1.926    970.957 
   420.000      1.813    977.397 
   420.500      1.727    983.032 
   421.000      1.765    985.592 
   421.500      1.988    984.384 
   422.000      2.344    979.917 
   422.500      2.681    972.171 
   423.000      2.853    967.088 
   423.500      2.806    976.344 
   424.000      2.576    998.930 
   424.500      2.235   1018.123 
   425.000      1.888   1027.603 
   425.500      1.645   1037.907 
   426.000      1.552   1048.184 
   426.500      1.546   1056.540 
   427.000      1.520   1062.281 
   427.500      1.423   1063.786 
   428.000      1.275   1062.780 
   428.500      1.112   1067.074 
   429.000      0.956   1083.467 
   429.500      0.832   1106.113 
   430.000      0.763   1120.821 
   430.500      0.743   1122.563 
   431.000      0.740   1119.393 
   431.500      0.730   1118.490 
   432.000      0.715   1118.832 
   432.500      0.708   1118.290 
   433.000      0.703   1118.073 
   433.500      0.686   1120.499 
   434.000      0.660   1117.553 
   434.500      0.641   1112.567 
   435.000      0.634   1111.473 
   435.500      0.638   1106.588 
   436.000      0.657   1094.428 
   436.500      0.699   1087.474 
   437.000      0.758   1090.142 
   437.500      0.826   1086.182 
   438.000      0.896   1068.123 
   438.500      0.954   1057.245 
   439.000      0.988   1067.192 
   439.500      1.018   1070.906 
   440.000      1.066   1042.290 
   440.500      1.113   1001.489 
   441.000      1.121    974.672 
   441.500      1.103    952.893 
   442.000      1.110    930.465 
   442.500      1.149    925.370 
   443.000      1.181    937.820 
   443.500      1.192    947.524 
   444.000      1.214    951.439 
   444.500      1.245    957.595 
   445.000      1.245    962.698 
   445.500      1.199    963.572 
   446.000      1.147    964.796 
   446.500      1.116    966.788 
   447.000      1.081    966.606 
   447.500      1.024    967.482 
   448.000      0.971    973.165 
   448.500      0.945    978.131 
   449.000      0.928    978.659 
   449.500      0.909    985.396 
   450.000      0.911   1006.543 
   450.500      0.953   1028.474 
   451.000      1.002   1036.235 
   451.500      1.017   1036.320 
   452.000      1.007   1039.130 
   452.500      1.016   1041.629 
   453.000      1.064   1040.292 
   453.500      1.135   1038.295 
   454.000      1.200   1035.813 
   454.500      1.246   1030.821 
   455.000      1.265   1025.289 
   455.500      1.249   1021.056 
   456.000      1.196   1017.289 
   456.500      1.130   1014.605 
   457.000      1.080   1015.635 
   457.500      1.063   1019.788 
   458.000      1.071   1024.527 
   458.500      1.080   1027.238 
   459.000      1.064   1028.084 
   459.500      1.013   1028.981 
   460.000      0.944   1030.433 
   460.500      0.895   1031.179 
   461.000      0.882   1030.572 
   461.500      0.888   1029.417 
   462.000      0.889   1028.168 
   462.500      0.884   1025.750 
   463.000      0.886   1020.682 
   463.500      0.901   1012.662 
   464.000      0.924   1002.698 
   464.500      0.962    992.345 
   465.000      1.024    983.078 
   465.500      1.107    976.293 
   466.000      1.205    973.357 
   466.500      1.320    974.657 
   467.000      1.443    978.275 
   467.500      1.542    980.641 
   468.000      1.581    979.611 
   468.500      1.556    976.304 
   469.000      1.497    972.984 
   469.500      1.444    970.893 
   470.000      1.429    970.409 
   470.500      1.455    972.393 
   471.000      1.490    977.322 
   471.500      1.494    983.950 
