~VERSION INFORMATION
 VERS.               2.10:   CWLS LOG ASCII STANDARD - VERSION 2.10
 WRAP.                 NO:   ONE LINE PER DEPTH STEP
~WELL INFORMATION
#MNEM.UNIT      DATA TYPE    INFORMATION
#----------   ------------   ------------------------------
 STRT.F         8800.0000:   START DEPTH
 STOP.F        13240.0000:   STOP DEPTH
 STEP.F            0.5000:   STEP LENGTH
 NULL.          -999.2500:   NO VALUE
 COMP. Exxon Company, USA:   COMPANY
 WELL.     Howard Deem #1:   WELL
 FLD .            Wildcat:   FIELD
 LOC .        Wood County:   LOCATION
 STAT.      West Virginia:   STATE
 COUN.               Wood:   COUNTY
 CTRY.      Not Specified:   COUNTRY
 SRVC.       Schlumberger:   SERVICE COMPANY
 DATE.         11/22/1976:   LOGDATE
 APIN.             47-107:   API NUMBER
~CURVE INFORMATION
#MNEM.UNIT       API CODE    CURVE DESCRIPTION
#----------   ------------   ------------------------------
 DEPT.F                  :
 GR  .GAPI   60 310 00 00:   Gamma Ray
 DPHI.none   42 890 12 00:   Den. Porosity, Ss [%]
 DT  .us/f   60 520 00 00:   Delta t
~PARAMETER INFORMATION
#MNEM.UNIT          VALUE    DESCRIPTION
#----------   ------------   ------------------------------
 EKB .F          726.0000:   Kelly bushing
 EGL .F          693.0000:   Ground level
 EDF .F          723.0000:   Drilling floor
 EPD .F          693.0000:   Permanent datum
 TD  .F            0.0000:   Total depth
 NRUN.             2.0000:   Number of Runs
#--RUN 1---   ------------   The following are for Run 1---
 RUN .             1.0000:   Run 1
 DATE.mm/dd/yyyy 11/22/1976:   Date Logged
 DD  .ft            12850:   Depth Driller
 DL  .ft            12857:   Depth Logger
 BLI .ft            12857:   Bottom Log Interval
 TLI .ft             8530:   Top Log Interval
 CSS .inch        10  3/4:   Casing Size
 CTD1.ft             8737:   Casing Driller 1
 CTL1.ft             8735:   Casing Logger 1
 BS  .inch         9  1/2:   Bit Size
 DFT .          fresh gel:   Type Fluid In Hole
 DFPH.                 11:   pH
 DFL .mL                4:   Fluid Loss
 WSS .            mud pit:   Source Of Sample
 RM  .ohmm           .512:   Rm
 EMT .F                78:   Rm Meas. Temp.
 RMF .ohmm           .813:   Rmf
 MFT .F                53:   Rmf Meas. Temp.
 RMC .ohmm            .40:   Rmc
 MCST.F                75:   Rmc Meas. Temp.
 MFSS.                  M:   Source Rmf.
 MCSS.                  C:   Source Rmc.
 RMB .ohmm            .23:   Rm. At BHT
 BHT .F               179:   BHT.
 MRT .F               179:   Maximum Recorded Temp.
 ENGI.             Ashton:   Recorded By
 WITN.      Hurley-Fulton:   Witnessed By
 DGBY.   Rutledge & McCoy:   Digitized By
#--RUN 2---   ------------   The following are for Run 2---
 RUN .             2.0000:   Run 2
 DATE.mm/dd/yyyy 11/29/1976:   Date Logged
 DD  .ft            13266:   Depth Driller
 DL  .ft            13271:   Depth Logger
 BLI .ft            13268:   Bottom Log Interval
 TLI .ft            12660:   Top Log Interval
 CSS .inch        10  3/4:   Casing Size
 CTD1.ft             8736:   Casing Driller 1
 CTL1.ft             8736:   Casing Logger 1
 BS  .inch         9  1/2:   Bit Size
 DFT .          fresh gel:   Type Fluid In Hole
 DFPH.               10.7:   pH
 DFL .mL             95.9:   Fluid Loss
 WSS .           flowline:   Source Of Sample
 RM  .ohmm            .43:   Rm
 EMT .F                68:   Rm Meas. Temp.
 RMF .ohmm            .43:   Rmf
 MFT .F                58:   Rmf Meas. Temp.
 RMC .ohmm            .30:   Rmc
 MCST.F                75:   Rmc Meas. Temp.
 MFSS.                  M:   Source Rmf.
 MCSS.                  C:   Source Rmc.
 RMB .ohmm           .155:   Rm. At BHT
 BHT .F               185:   BHT.
 MRT .F               185:   Maximum Recorded Temp.
 ENGI.             Ashton:   Recorded By
 WITN.            Drennen:   Witnessed By
 DGBY.   Rutledge & McCoy:   Digitized By
~OTHER INFORMATION
# Run Two Starts at 12000 ft
~A  DEPTH       GR       DPHI         DT
# ...
13168.0000   138.4915    12.5328    60.9812
13168.5000   145.1488    13.0270    60.7479
13169.0000   154.2616    13.1506    61.0741
13169.5000   159.5189    12.9653    61.2605
13170.0000   162.3032    12.7490    60.9340
13170.5000   167.8696    11.9151    59.9081
13171.0000   171.2722    10.0309    58.1831
13171.5000   174.0565     9.0734    57.9032
13172.0000   174.6769     8.9189    58.0459
13172.5000   169.1156     9.8147    58.7333
13173.0000   161.3899    10.5251    60.8864
13173.5000   154.9006     9.8456    61.5856
13174.0000   151.1934     8.9189    61.0259
13174.5000   147.4862     8.3320    59.9535
13175.0000   144.0882     8.5483    58.6946
13175.5000   142.5397     9.5367    59.3938
13176.0000   141.6197    10.4015    61.3148
13176.5000   143.1681    11.1737    61.3981
13177.0000   152.4439    11.6680    60.9318
13177.5000   156.4647    11.1429    59.0202
13178.0000   160.7946    10.5251    60.0457
13178.5000   168.2157    11.2973    59.3928
13179.0000   166.3632    12.1622    61.2109
13179.5000   163.8627    12.0077    61.8837
13180.0000   169.7686    11.4826    63.6348
13180.5000   179.3535    11.4844    62.7488
13181.0000   183.6834    11.1429    61.6764
13181.5000   187.3951    11.7606    61.4898
13182.0000   187.7059    11.1429    61.2099
13182.5000   183.3810    10.2162    60.8368
13183.0000   174.0043     9.8764    60.8367
13183.5000   156.4927    11.0502    61.3718
13184.0000   149.0761    12.1004    61.6289
13184.5000   147.5326    11.8834    60.6963
13185.0000   147.2257    12.9796    58.5983
13185.5000   156.3313    13.6757    57.7123
13186.0000   172.8876    14.2625    58.5980
13186.5000   183.7090    14.6023    61.5349
13187.0000   188.0389    14.2317    61.3829
13187.5000   189.5868    13.9228    60.9751
13188.0000   189.8976    12.4402    61.7675
13188.5000   187.7365    10.7662    60.4620
13189.0000   185.5672    10.2471    58.5504
13189.5000   181.7266     9.0734    57.9442
13190.0000   176.9247     8.3938    57.0117
13190.5000   168.2716     8.1776    58.0371
13191.0000   155.2908     8.3629    58.6431
13191.5000   136.4368    10.4324    58.8760
13192.0000   131.8017    10.1544    58.2697
13192.5000   131.8045     9.8147    57.9433
13193.0000   133.1030    10.0618    58.3627
13193.5000   133.3546    10.1853    61.4861
13194.0000   125.6294    11.3282    61.9988
13194.5000   120.3766    12.1004    62.0918
13195.0000   116.3603    12.4093    61.5322
13195.5000   113.8896    11.0193    60.9260
13196.0000   112.0371    10.7994    61.3921
13196.5000   112.9668    11.6106    61.7649
13197.0000   111.7331    12.9344    60.9722
13197.5000   112.9718    12.1931    61.1585
13198.0000   115.4470    10.7104    61.7644
13198.5000   119.4678    10.3089    60.7351
13199.0000   123.1794    10.9266    58.5473
13199.5000   126.2729    11.1628    58.3607
13200.0000   128.1298    11.6371    59.0598
13200.5000   128.1322    12.7610    61.2508
13201.0000   128.1349    13.0888    61.5770
13201.5000   128.1371    13.2124    62.3269
13202.0000   128.7576    13.3977    61.5767
13202.5000   129.3781    14.5714    61.3434
13203.0000   130.3077    14.1699    61.7162
13203.5000   131.2373    13.8610    61.4830
13204.0000   131.2396    13.3285    60.5504
13204.5000   130.6241    11.7536    61.5984
13205.0000   127.6209    11.3591    62.2284
13205.5000   122.8803    12.0386    61.0628
13206.0000   115.4413    12.2857    62.2747
13206.5000   109.7048    12.5328    61.1557
13207.0000   101.6333    12.8108    62.8339
13207.5000    95.4569    15.1274    63.8127
13208.0000    94.2264    15.7659    64.9315
13208.5000    92.0686    16.5863    62.8006
13209.0000    90.8382    14.3526    61.3414
13209.5000    90.8442    12.1931    61.4345
13210.0000    96.4143    13.4659    61.9938
13210.5000   102.0742    14.5097    64.6976
13211.0000   109.1993    13.4595    64.9305
13211.5000   112.5080    11.5444    65.0702
13212.0000   115.6052    10.8622    64.5294
13212.5000   118.7025    10.0927    61.7599
13213.0000   126.1273     8.3012    61.3401
13213.5000   129.5336     7.7761    62.1325
13214.0000   127.9941    10.3398    62.7851
13214.5000   124.9089    11.3282    64.8362
13215.0000   119.2617    12.1313    64.4631
13215.5000   112.8668    13.7992    65.3021
13216.0000   115.6549    12.8168    64.1830
13216.5000   121.5341    12.4093    64.0897
13217.0000   124.3222    13.6757    64.9753
13217.5000   126.8012    14.3243    64.8353
13218.0000   123.7160    13.6139    63.2500
13218.5000   120.3217    13.1506    62.2709
13219.0000   109.1994    12.4710    62.9234
13219.5000   101.5156    11.2951    63.6225
13220.0000    85.7199    11.2973    61.1981
13220.5000    79.8527    10.7722    60.0791
13221.0000    81.0951     9.6911    57.3750
13221.5000    83.5741     9.3514    55.6499
13222.0000    92.2355     9.6911    54.7173
13222.5000    95.6418     8.9807    55.2766
13223.0000    98.7390     8.9189    56.2842
13223.5000   100.2906     9.1800    58.7728
13224.0000    97.7197     9.8147    57.5605
13224.5000    92.5761    10.0000    57.8867
13225.0000    90.1092    10.5560    58.6791
13225.5000    88.8772    11.1737    58.1195
13226.0000    89.5030    10.6795    57.6531
13226.5000    91.3637    11.5753    57.7998
13227.0000    93.2244    11.4198    58.4454
13227.5000    95.7034    10.9168    58.4919
13228.0000    98.4941    10.3089    58.3052
13228.5000   101.0825    10.5869    57.7456
13229.0000   105.9239    10.3089    56.5333
13229.5000   110.5667     9.9073    55.1812
13230.0000   114.9003     9.5985    55.2743
13230.5000   115.8322     9.7529    55.3674
13231.0000   112.1303    10.4403    55.7868
13231.5000   103.7901    11.5753    54.8076
13232.0000    98.8502    11.4208    55.2270
13232.5000    88.8756    10.9266    55.5999
13233.0000    82.0802    10.3398    54.9470
13233.5000    81.2484     9.8456    54.7137
13234.0000    81.8742     9.3822    54.2940
13234.5000    82.4985     9.4510    55.5218
13235.0000    82.1953     8.8948    55.7389
13235.5000    82.2014     7.5598    55.0861
13236.0000    81.5891     7.9614    54.5731
13236.5000    80.9769     8.4556    49.5380
13237.0000    79.7121     9.2587    47.0894
13237.5000    78.4660     7.9614    56.1577
13238.0000    77.5961     7.2201    55.2055
13238.5000    76.6748     6.6950    54.6656
13239.0000    74.2078     7.0868    55.3647
13239.5000    71.4318     8.1158    55.0382
13240.0000    67.7284     8.4247    55.1780
