~VERSION INFORMATION
 VERS.               2.10:   CWLS LOG ASCII STANDARD - VERSION 2.10
 WRAP.                 NO:   ONE LINE PER DEPTH STEP
~WELL INFORMATION
#MNEM.UNIT      DATA TYPE    INFORMATION
#----------   ------------   ------------------------------
 STRT.F         8800.0000:   START DEPTH
 STOP.F        13240.0000:   STOP DEPTH
 STEP.F            0.5000:   STEP LENGTH
 NULL.          -999.2500:   NO VALUE
 COMP. Exxon Company, USA:   COMPANY
 WELL.     Howard Deem #1:   WELL
 FLD .            Wildcat:   FIELD
 LOC .        Wood County:   LOCATION
 STAT.      West Virginia:   STATE
 COUN.               Wood:   COUNTY
 CTRY.      Not Specified:   COUNTRY
 SRVC.       Schlumberger:   SERVICE COMPANY
 DATE.         11/22/1976:   LOGDATE
 APIN.             47-107:   API NUMBER
~CURVE INFORMATION
#MNEM.UNIT       API CODE    CURVE DESCRIPTION
#----------   ------------   ------------------------------
 DEPT.F                  :
 GR  .GAPI   60 310 00 00:   Gamma Ray
 DPHI.none   42 890 12 00:   Den. Porosity, Ss [%]
 DT  .us/f   60 520 00 00:   Delta t
~PARAMETER INFORMATION
#MNEM.UNIT          VALUE    DESCRIPTION
#----------   ------------   ------------------------------
 EKB .F          726.0000:   Kelly bushing
 EGL .F          693.0000:   Ground level
 EDF .F          723.0000:   Drilling floor
 EPD .F          693.0000:   Permanent datum
 TD  .F            0.0000:   Total depth
 NRUN.             2.0000:   Number of Runs
#--RUN 1---   ------------   The following are for Run 1---
 RUN .             1.0000:   Run 1
 DATE.mm/dd/yyyy 11/22/1976:   Date Logged
 DD  .ft            12850:   Depth Driller
 DL  .ft            12857:   Depth Logger
 BLI .ft            12857:   Bottom Log Interval
 TLI .ft             8530:   Top Log Interval
 CSS .inch        10  3/4:   Casing Size
 CTD1.ft             8737:   Casing Driller 1
 CTL1.ft             8735:   Casing Logger 1
 BS  .inch         9  1/2:   Bit Size
 DFT .          fresh gel:   Type Fluid In Hole
 DFPH.                 11:   pH
 DFL .mL                4:   Fluid Loss
 WSS .            mud pit:   Source Of Sample
 RM  .ohmm           .512:   Rm
 EMT .F                78:   Rm Meas. Temp.
 RMF .ohmm           .813:   Rmf
 MFT .F                53:   Rmf Meas. Temp.
 RMC .ohmm            .40:   Rmc
 MCST.F                75:   Rmc Meas. Temp.
 MFSS.                  M:   Source Rmf.
 MCSS.                  C:   Source Rmc.
 RMB .ohmm            .23:   Rm. At BHT
 BHT .F               179:   BHT.
 MRT .F               179:   Maximum Recorded Temp.
 ENGI.             Ashton:   Recorded By
 WITN.      Hurley-Fulton:   Witnessed By
 DGBY.   Rutledge & McCoy:   Digitized By
#--RUN 2---   ------------   The following are for Run 2---
 RUN .             2.0000:   Run 2
 DATE.mm/dd/yyyy 11/29/1976:   Date Logged
 DD  .ft            13266:   Depth Driller
 DL  .ft            13271:   Depth Logger
 BLI .ft            13268:   Bottom Log Interval
 TLI .ft            12660:   Top Log Interval
 CSS .inch        10  3/4:   Casing Size
 CTD1.ft             8736:   Casing Driller 1
 CTL1.ft             8736:   Casing Logger 1
 BS  .inch         9  1/2:   Bit Size
 DFT .          fresh gel:   Type Fluid In Hole
 DFPH.               10.7:   pH
 DFL .mL             95.9:   Fluid Loss
 WSS .           flowline:   Source Of Sample
 RM  .ohmm            .43:   Rm
 EMT .F                68:   Rm Meas. Temp.
 RMF .ohmm            .43:   Rmf
 MFT .F                58:   Rmf Meas. Temp.
 RMC .ohmm            .30:   Rmc
 MCST.F                75:   Rmc Meas. Temp.
 MFSS.                  M:   Source Rmf.
 MCSS.                  C:   Source Rmc.
 RMB .ohmm           .155:   Rm. At BHT
 BHT .F               185:   BHT.
 MRT .F               185:   Maximum Recorded Temp.
 ENGI.             Ashton:   Recorded By
 WITN.            Drennen:   Witnessed By
 DGBY.   Rutledge & McCoy:   Digitized By
~OTHER INFORMATION
# Run Two Starts at 12000 ft
~A  DEPTH       GR       DPHI         DT
# ...
12895.0000   182.4506     2.6479    55.4206
12895.5000   184.6227     3.4202    53.3426
12896.0000   188.0313     3.8527    51.9452
12896.5000   188.9670     4.0139    51.5448
12897.0000   188.0327     3.1733    51.7770
12897.5000   183.5939     3.3637    52.8484
12898.0000   171.6832     4.9032    53.4069
12898.5000   170.1438     7.7141    55.0377
12899.0000   172.0089     9.1041    54.3841
12899.5000   179.1269    10.6486    54.4298
12900.0000   182.8446    11.1120    55.1748
12900.5000   185.6349    11.4518    54.9874
12901.0000   186.6403    11.8727    55.1264
12901.5000   186.5712    11.4190    54.1929
12902.0000   188.1625    10.9227    55.1243
12902.5000   191.2343    10.6182    55.3565
12903.0000   192.7881     9.7843    55.1648
12903.5000   189.7052     7.4295    54.7372
12904.0000   186.3132     4.6455    54.4550
12904.5000   184.1576     4.8687    53.6729
12905.0000   186.9106     6.9428    53.5643
12905.5000   189.9284     5.7383    52.5821
12906.0000   192.6989     5.5531    51.5074
12906.5000   190.2229     2.6188    52.3907
12907.0000   193.3111     3.6690    51.8754
12907.5000   191.7617     3.9162    51.5466
12908.0000   189.2865     3.4839    51.9648
12908.5000   192.3740     4.6268    51.9539
12909.0000   191.4360     3.4531    51.6783
12909.5000   190.2040     2.8972    51.6292
12910.0000   189.5821     4.0093    52.6058
12910.5000   186.4879     2.6207    54.5147
12911.0000   180.9208     2.7689    54.9784
12911.5000   177.5182     5.4221    55.1624
12912.0000   179.0600     4.3924    53.4457
12912.5000   181.8391     3.8765    51.5210
12913.0000   182.1453     3.9997    52.0308
12913.5000   181.8331     3.7214    52.2620
12914.0000   183.4552     4.4933    52.4454
12914.5000   184.6091     4.9255    51.6504
12915.0000   186.4601     5.1722    51.1357
12915.5000   188.3118     5.2352    51.8022
12916.0000   190.4734     5.4954    52.0677
12916.5000   188.9240     3.6577    51.6398
12917.0000   184.5934     1.6806    53.5021
12917.5000   183.0448     2.5143    54.3388
12918.0000   182.7326     1.2784    53.9634
12918.5000   183.6570     0.8458    54.3805
12919.0000   183.3441     1.8647    54.7982
12919.5000   183.3411     4.4670    53.4431
12920.0000   183.9563     6.0340    52.3623
12920.5000   185.4989     4.4584    51.4335
12921.0000   186.7324     3.4696    52.1303
12921.5000   189.8206     2.3574    51.3812
12922.0000   194.7635     1.9864    52.9638
12922.5000   198.8598     3.9938    54.4066
12923.0000   204.3401     4.1788    55.3831
12923.5000   201.5543     4.4257    55.3340
12924.0000   200.6239     2.2014    54.3487
12924.5000   203.4030     1.7686    54.5825
12925.0000   206.1821     2.0772    54.3469
12925.5000   202.4696     2.8504    55.0443
12926.0000   201.2301     3.2918    54.5290
12926.5000   199.3724     4.4546    55.0394
12927.0000   199.9877     5.5664    54.4302
12927.5000   197.7762     3.8363    54.9872
12928.0000   187.3070     3.4036    54.5891
12928.5000   175.5575     3.6195    54.4694
12929.0000   171.8450     3.2176    55.0263
12929.5000   166.5870     2.8158    53.8111
12930.0000   163.8027     2.4448    51.7107
12930.5000   165.3453     3.5744    51.9413
12931.0000   165.3415     5.6611    51.7057
12931.5000   166.9089     6.1020    52.1228
12932.0000   167.8085     6.1192    52.1670
12932.5000   164.4044     6.4313    51.5118
12933.0000   161.9284     5.9332    51.3688
12933.5000   160.9981     5.6241    51.4596
12934.0000   161.9232     4.3882    51.8307
12934.5000   164.0832     2.3493    51.4080
12935.0000   166.2441     1.5768    52.0582
12935.5000   167.1684     1.8545    51.8692
12936.0000   159.4369     3.0956    54.0893
12936.5000   153.5607     3.9471    55.3601
12937.0000   147.3753     6.3941    55.2644
12937.5000   140.8808     9.4517    52.4647
12938.0000   142.4234    10.4707    51.5765
12938.5000   144.5842    11.4589    51.7138
12939.0000   147.6972    11.9218    54.3687
12939.5000   149.9755    11.7053    55.0204
12940.0000   156.9392    12.8370    55.2495
12940.5000   164.0459    13.8668    54.4539
12941.0000   169.6070    13.9901    54.8709
12941.5000   176.4046    13.2176    55.3347
12942.0000   181.9658    10.9007    55.2389
12942.5000   189.9999     8.9235    55.1438
12943.0000   193.0881     7.8730    55.5137
12943.5000   192.7759     6.8843    54.9429
12944.0000   194.3185     6.2841    54.9627
12944.5000   193.6965     5.8026    54.8063
12945.0000   183.4926     6.3891    54.2910
12945.5000   176.9981     7.6244    54.3818
12946.0000   172.0492     8.5817    54.4731
12946.5000   167.7185     7.1296    54.0971
12947.0000   164.6243     6.2335    52.8358
12947.5000   164.3122     5.8008    51.8543
12948.0000   165.5973     5.4013    52.6444
12948.5000   169.1419     4.3949    52.2217
12949.0000   177.5945     3.2361    52.7787
12949.5000   180.6827     1.4294    53.8951
12950.0000   188.0985    -0.9425    55.4783
12950.5000   187.7864     0.0572    54.7759
12951.0000   180.3646     2.6594    55.3908
12951.5000   178.5068     2.1844    54.7204
12952.0000   178.8129     1.8470    54.6752
12952.5000   177.8309     2.5853    55.2315
12953.0000   172.5721     3.4709    54.6230
12953.5000   170.1478     4.3453    53.6414
12954.0000   166.4354     4.1288    52.1937
12954.5000   163.6503     5.0860    51.8183
12955.0000   167.9750     5.9506    51.3813
12955.5000   172.9179     6.6299    51.7667
12956.0000   177.8608     5.5793    51.0643
12956.5000   181.5672     5.0502    51.5746
12957.0000   182.4915     4.3194    51.3390
12957.5000   171.9777     3.6015    51.5703
12958.0000   163.6285     3.2923    51.6138
12958.5000   167.9532     3.1994    50.3526
12959.0000   171.6596     2.7048    49.4177
12959.5000   175.3660     2.2103    48.3896
12960.0000   183.7092     1.8394    51.0438
12960.5000   184.3740     1.4684    52.7196
12961.0000   179.6847     1.1901    55.4211
12961.5000   177.8046     0.3558    55.5125
12962.0000   175.3502     1.7632    54.6702
12962.5000   173.4925     3.2896    54.9942
12963.0000   171.9439     1.9610    53.6396
12963.5000   169.1588     1.7136    51.4762
12964.0000   163.2826     1.4353    52.7948
12964.5000   160.1884     1.0644    54.3774
12965.0000   155.5486     1.3421    54.9350
12965.5000   149.0541     1.3109    53.2536
12966.0000   144.4142     1.5517    51.4795
12966.5000   150.2838     3.1635    51.9433
12967.0000   154.2993     3.3794    51.6144
12967.5000   161.7152     4.2440    51.1923
12968.0000   167.2763     5.4792    51.3291
12968.5000   169.7462     6.8688    51.7928
12969.0000   183.3445     6.6523    52.2566
12969.5000   190.1421     6.3123    51.3217
12970.0000   189.8300     6.4299    51.4124
12970.5000   187.8481     5.8175    52.1092
12971.0000   179.0040     5.4352    51.6872
12971.5000   177.4554     4.0253    52.4306
12972.0000   178.3798     3.0674    52.1018
12972.5000   182.7044     2.6656    52.7047
12973.0000   184.2470     3.3140    53.7279
12973.5000   180.2255     4.6109    55.2645
12974.0000   179.8689     3.4369    55.7742
12974.5000   186.0927     3.8373    55.8455
12975.0000   190.4444     5.3311    54.8368
12975.5000   191.6501     6.1541    54.8343
12976.0000   195.0474     6.4010    54.4117
12976.5000   195.0444     5.6902    54.3626
12977.0000   190.0955     5.4428    53.5209
12977.5000   186.3830     5.5969    51.9800
12978.0000   181.4341     5.7510    52.0247
12978.5000   178.0308     5.4064    51.5502
12979.0000   179.2643     4.7928    51.9259
12979.5000   184.5433     5.2868    51.4038
12980.0000   184.8224     5.2864    52.3865
12980.5000   182.6548     4.8846    51.6847
12981.0000   181.4153     4.8226    51.0295
12981.5000   179.8667     5.7798    51.5865
12982.0000   176.1543     5.2853    51.6779
12982.5000   171.2054     4.7907    51.2970
12983.0000   158.8376     4.9449    51.8136
12983.5000   145.8516     4.5739    51.4689
12984.0000   128.4969     5.0369    51.8998
12984.5000    85.2575     5.4999    52.3641
12985.0000    79.9995     7.8188    52.0347
12985.5000    79.0699     9.1441    53.5240
