~VERSION INFORMATION
 VERS.               2.10:   CWLS LOG ASCII STANDARD - VERSION 2.10
 WRAP.                 NO:   ONE LINE PER DEPTH STEP
~WELL INFORMATION
#MNEM.UNIT      DATA TYPE    INFORMATION
#----------   ------------   ------------------------------
 STRT.F         8800.0000:   START DEPTH
 STOP.F        13240.0000:   STOP DEPTH
 STEP.F            0.5000:   STEP LENGTH
 NULL.          -999.2500:   NO VALUE
 COMP. Exxon Company, USA:   COMPANY
 WELL.     Howard Deem #1:   WELL
 FLD .            Wildcat:   FIELD
 LOC .        Wood County:   LOCATION
 STAT.      West Virginia:   STATE
 COUN.               Wood:   COUNTY
 CTRY.      Not Specified:   COUNTRY
 SRVC.       Schlumberger:   SERVICE COMPANY
 DATE.         11/22/1976:   LOGDATE
 APIN.             47-107:   API NUMBER
~CURVE INFORMATION
#MNEM.UNIT       API CODE    CURVE DESCRIPTION
#----------   ------------   ------------------------------
 DEPT.F                  :
 GR  .GAPI   60 310 00 00:   Gamma Ray
 DPHI.none   42 890 12 00:   Den. Porosity, Ss [%]
 DT  .us/f   60 520 00 00:   Delta t
~PARAMETER INFORMATION
#MNEM.UNIT          VALUE    DESCRIPTION
#----------   ------------   ------------------------------
 EKB .F          726.0000:   Kelly bushing
 EGL .F          693.0000:   Ground level
 EDF .F          723.0000:   Drilling floor
 EPD .F          693.0000:   Permanent datum
 TD  .F            0.0000:   Total depth
 NRUN.             2.0000:   Number of Runs
#--RUN 1---   ------------   The following are for Run 1---
 RUN .             1.0000:   Run 1
 DATE.mm/dd/yyyy 11/22/1976:   Date Logged
 DD  .ft            12850:   Depth Driller
 DL  .ft            12857:   Depth Logger
 BLI .ft            12857:   Bottom Log Interval
 TLI .ft             8530:   Top Log Interval
 CSS .inch        10  3/4:   Casing Size
 CTD1.ft             8737:   Casing Driller 1
 CTL1.ft             8735:   Casing Logger 1
 BS  .inch         9  1/2:   Bit Size
 DFT .          fresh gel:   Type Fluid In Hole
 DFPH.                 11:   pH
 DFL .mL                4:   Fluid Loss
 WSS .            mud pit:   Source Of Sample
 RM  .ohmm           .512:   Rm
 EMT .F                78:   Rm Meas. Temp.
 RMF .ohmm           .813:   Rmf
 MFT .F                53:   Rmf Meas. Temp.
 RMC .ohmm            .40:   Rmc
 MCST.F                75:   Rmc Meas. Temp.
 MFSS.                  M:   Source Rmf.
 MCSS.                  C:   Source Rmc.
 RMB .ohmm            .23:   Rm. At BHT
 BHT .F               179:   BHT.
 MRT .F               179:   Maximum Recorded Temp.
 ENGI.             Ashton:   Recorded By
 WITN.      Hurley-Fulton:   Witnessed By
 DGBY.   Rutledge & McCoy:   Digitized By
#--RUN 2---   ------------   The following are for Run 2---
 RUN .             2.0000:   Run 2
 DATE.mm/dd/yyyy 11/29/1976:   Date Logged
 DD  .ft            13266:   Depth Driller
 DL  .ft            13271:   Depth Logger
 BLI .ft            13268:   Bottom Log Interval
 TLI .ft            12660:   Top Log Interval
 CSS .inch        10  3/4:   Casing Size
 CTD1.ft             8736:   Casing Driller 1
 CTL1.ft             8736:   Casing Logger 1
 BS  .inch         9  1/2:   Bit Size
 DFT .          fresh gel:   Type Fluid In Hole
 DFPH.               10.7:   pH
 DFL .mL             95.9:   Fluid Loss
 WSS .           flowline:   Source Of Sample
 RM  .ohmm            .43:   Rm
 EMT .F                68:   Rm Meas. Temp.
 RMF .ohmm            .43:   Rmf
 MFT .F                58:   Rmf Meas. Temp.
 RMC .ohmm            .30:   Rmc
 MCST.F                75:   Rmc Meas. Temp.
 MFSS.                  M:   Source Rmf.
 MCSS.                  C:   Source Rmc.
 RMB .ohmm           .155:   Rm. At BHT
 BHT .F               185:   BHT.
 MRT .F               185:   Maximum Recorded Temp.
 ENGI.             Ashton:   Recorded By
 WITN.            Drennen:   Witnessed By
 DGBY.   Rutledge & McCoy:   Digitized By
~OTHER INFORMATION
# Run Two Starts at 12000 ft
~A  DEPTH       GR       DPHI         DT
# ...
12258.0000   103.2729    -3.6898    47.2149
12258.5000   113.3386    -2.8963    45.2095
12259.0000   123.4043     0.6237    49.3716
12259.5000   126.1994     4.7077    50.5603
12260.0000   118.8714     3.7475    49.6018
12260.5000   111.5434     1.0570    40.1904
12261.0000   104.2154    -1.9839    45.3458
12261.5000    96.8873    -0.8585    52.8976
12262.0000    89.5593     0.3405    54.7151
12262.5000    92.6906     1.2084    53.7820
12263.0000    98.5190     2.4307    53.7306
12263.5000   104.3473     1.8906    52.5336
12264.0000   110.1757     3.0994    50.7497
12264.5000   116.0040     1.6124    50.1894
12265.0000   121.8324     0.9001    48.2308
12265.5000   127.4789     1.8299    49.3489
12266.0000   115.9258     3.1625    50.2340
12266.5000   104.7223     2.6361    48.7881
12267.0000    93.5188     0.7774    47.2955
12267.5000    82.3153    -0.3516    46.4557
12268.0000    71.1118    -0.6783    46.2219
12268.5000    58.9897    -0.3371    47.6197
12269.0000    60.2360    -1.2043    46.1272
12269.5000    64.4318    -3.7757    45.3341
12270.0000    70.0174    -5.2006    46.5920
12270.5000    75.6030    -6.5326    47.5703
12271.0000    81.1052    -7.5238    48.8284
12271.5000    82.2834    -5.8784    49.4804
12272.0000    79.1887    -4.4247    49.9459
12272.5000    77.3343    -3.4949    49.4100
12273.0000    78.2706    -4.3003    48.7324
12273.5000    80.1371    -3.8971    49.1978
12274.0000    82.6238    -3.5076    49.6167
12274.5000    82.9384    -2.0200    49.8027
12275.0000    80.1553    -0.7505    49.2890
12275.5000    75.2001    -0.3018    48.3093
12276.0000    73.6558    -1.4169    47.1897
12276.5000    72.6350    -0.4870    45.0987
12277.0000    66.1046     0.8456    45.4633
12277.5000    58.8102     1.0007    46.6747
12278.0000    51.5159    -0.6720    45.0890
12278.5000    47.0200    -2.4378    44.7619
12279.0000    51.4250    -4.5766    43.8756
12279.5000    59.9829    -4.3271    45.5531
12280.0000    68.5409    -3.5213    47.1375
12280.5000    77.0988    -3.1182    47.0902
12281.0000    85.6567    -2.6221    48.2685
12281.5000    94.2147    -0.7940    47.6481
12282.0000   102.7726     1.6818    47.5542
12282.5000   111.1724     1.7440    43.1246
12283.0000   114.0538    -0.6270    42.9843
12283.5000   106.9696    -1.3813    50.8156
12284.0000    94.7147     0.3542    52.3067
12284.5000    82.4599     0.9122    52.1196
12285.0000    76.2486     1.5631    50.6868
12285.5000    78.1152     1.5324    48.2952
12286.0000    91.3219     4.1045    50.2992
12286.5000   105.4982     3.2371    51.6971
12287.0000   119.6746     3.3615    52.3957
12287.5000   133.8510     2.9280    51.8358
12288.0000   142.2635     2.0917    53.3268
12288.5000   128.3231     1.6273    53.9788
12289.0000   114.3828     2.4984    54.1180
12289.5000   100.4425     2.3406    53.2313
12290.0000    83.7532     1.5043    50.8199
12290.5000    80.6584     0.5441    34.1625
12291.0000    80.3529     1.0954    50.8516
12291.5000    80.0489     3.4882    51.5969
12292.0000    81.9169     4.2631    51.0834
12292.5000    87.4688     4.2302    52.0151
12293.0000    93.6887     3.8823    53.9258
12293.5000    99.9085     4.2331    54.8109
12294.0000   106.7479     3.7996    57.6074
12294.5000    96.0293     3.4281    56.4819
12295.0000    84.1250     3.5213    56.1973
12295.5000    76.6886     2.6851    55.3210
12296.0000    72.9737     2.3136    56.1595
12296.5000    69.5590     1.5434    55.2729
12297.0000    69.6545     2.5311    54.3398
12297.5000    73.6311     3.0271    54.0128
12298.0000    79.9263     4.1119    51.5225
12298.5000    86.2215     4.3600    39.0931
12299.0000    92.5167     4.9800    50.0418
12299.5000    98.4431     4.3607    53.4678
12300.0000    91.6101     2.0885    52.4709
12300.5000    85.1554    -1.0918    52.7033
12301.0000    80.1682     1.9544    51.3505
12301.5000    80.7944     4.7337    52.4687
12302.0000    82.6603     6.0043    53.0740
12302.5000    81.4260     4.4763    51.6650
12303.0000    83.2941     2.1964    50.5436
12303.5000    87.0210     0.7400    50.3553
12304.0000    93.5387     2.4007    50.8190
12304.5000    99.7463     2.6851    51.0490
12305.0000   106.5740     1.4190    51.6991
12305.5000   105.9599    -0.6399    51.0440
12306.0000   102.5551    -0.9410    51.6475
12306.5000    90.4007    -1.0439    50.2930
12307.0000    79.8140    -2.4811    50.1917
12307.5000    69.2273    -1.9679    48.7956
12308.0000    58.6406    -1.3911    46.2756
12308.5000    46.7728    -2.1968    45.6670
12309.0000    45.8471    -3.3971    45.1517
12309.5000    50.1958    -7.1709    44.6364
12310.0000    53.3026    -7.9148    45.1467
12310.5000    58.2699   -12.6246    47.0557
12311.0000    74.5199    -8.3255    47.5216
12311.5000    79.4627    -4.2790    49.4507
12312.0000    81.8554    -3.2845    49.3319
12312.5000    86.5126    -2.1490    48.8166
12313.0000    92.1000    -1.6579    48.6276
12313.5000   100.4781    -2.4875    49.5109
12314.0000   105.1353    -4.8189    50.6739
12314.5000   114.7538    -3.4354    51.0910
12315.0000   115.6900    -1.5243    51.6479
12315.5000   114.7659    -0.8391    51.5988
12316.0000   116.3646     0.1156    51.8556
12316.5000   118.8104     2.4099    53.7843
12317.0000   120.9870     3.0181    54.3413
12317.5000   122.2334     4.1332    53.8260
12318.0000   120.9991     5.4033    53.3106
12318.5000   119.7648     4.6894    52.7953
12319.0000   118.8391     3.7295    52.5131
12319.5000   120.3971     2.6447    51.9512
12320.0000   120.0930     1.8389    51.3426
12320.5000   117.2573     0.2894    51.1070
12321.0000   112.9377    -0.5785    51.4775
12321.5000   108.6180    -0.1140    48.5373
12322.0000   104.2983     1.5278    49.5138
12322.5000    99.9692     0.9078    50.2572
12323.0000    97.4946     0.3188    50.9081
12323.5000    96.5157    -1.6025    50.7657
12324.0000    93.7873    -1.0760    50.6227
12324.5000    90.0724    -1.4792    49.3149
12325.0000    78.2955    -2.0734    48.2867
12325.5000    74.8906    -1.6556    46.7360
12326.0000    75.8269    -1.8829    46.6500
12326.5000    78.0035    -2.1001    46.8800
12327.0000    80.4902    -3.4327    47.2038
12327.5000    81.4264    -3.5880    48.5999
12328.0000    82.0526    -4.0220    48.3643
12328.5000    79.1044    -4.5181    47.8490
12329.0000    74.7138    -3.8057    47.0074
12329.5000    70.1752    -3.9731    46.3056
12330.0000    65.6367    -3.4345    45.9267
12330.5000    62.2399    -3.5279    46.2483
12331.0000    61.9343    -3.9310    46.7170
12331.5000    64.1124    -4.4890    47.0409
12332.0000    66.7734    -4.9230    47.7377
12332.5000    74.4229    -3.7460    48.3879
12333.0000    82.0723    -3.4364    49.1313
12333.5000    89.7218    -3.1889    50.1544
12334.0000    97.3713     0.7570    51.3641
12334.5000   105.0207     2.6354    52.2496
12335.0000   112.6702    -0.6182    52.7363
12335.5000   120.3197     0.2590    53.8268
12336.0000   127.1140     2.0149    54.1046
12336.5000   127.1200     2.7892    53.7752
12337.0000   126.5059     3.8012    53.2599
12337.5000   121.5329     4.1518    52.9310
12338.0000   107.0192     3.0360    52.2758
12338.5000    99.8568     4.3680    52.0869
12339.0000   101.7249     4.9565    52.2242
12339.5000   104.0236     3.0282    51.8954
12340.0000   111.7274     1.2998    52.1260
12340.5000   119.4312     0.0289    51.4236
12341.0000   127.1350     0.9787    50.9549
12341.5000   134.8389     3.4367    50.6260
12342.0000   142.5427     2.8477    50.6702
12342.5000   147.6591     1.5151    51.5068
12343.0000   147.9803     0.9261    51.9239
12343.5000   148.6313     0.7399    52.2011
12344.0000   153.5702     1.2043    52.3877
12344.5000   155.4367     0.7703    50.4546
12345.0000   152.9621    -1.3769    51.7734
12345.5000   149.5573    -1.0585    51.5378
12346.0000   146.7727    -0.3771    51.1158
12346.5000   144.6081     1.8606    50.6004
12347.0000   144.3039     3.9623    50.9709
12347.5000   145.2529     3.4595    52.1805
12348.0000   143.3461     2.6270    52.1780
12348.5000   140.4378     2.9056    51.8461
