~VERSION INFORMATION
 VERS.               2.10:   CWLS LOG ASCII STANDARD - VERSION 2.10
 WRAP.                 NO:   ONE LINE PER DEPTH STEP
~WELL INFORMATION
#MNEM.UNIT      DATA TYPE    INFORMATION
#----------   ------------   ------------------------------
 STRT.F         8800.0000:   START DEPTH
 STOP.F        13240.0000:   STOP DEPTH
 STEP.F            0.5000:   STEP LENGTH
 NULL.          -999.2500:   NO VALUE
 COMP. Exxon Company, USA:   COMPANY
 WELL.     Howard Deem #1:   WELL
 FLD .            Wildcat:   FIELD
 LOC .        Wood County:   LOCATION
 STAT.      West Virginia:   STATE
 COUN.               Wood:   COUNTY
 CTRY.      Not Specified:   COUNTRY
 SRVC.       Schlumberger:   SERVICE COMPANY
 DATE.         11/22/1976:   LOGDATE
 APIN.             47-107:   API NUMBER
~CURVE INFORMATION
#MNEM.UNIT       API CODE    CURVE DESCRIPTION
#----------   ------------   ------------------------------
 DEPT.F                  :
 GR  .GAPI   60 310 00 00:   Gamma Ray
 DPHI.none   42 890 12 00:   Den. Porosity, Ss [%]
 DT  .us/f   60 520 00 00:   Delta t
~PARAMETER INFORMATION
#MNEM.UNIT          VALUE    DESCRIPTION
#----------   ------------   ------------------------------
 EKB .F          726.0000:   Kelly bushing
 EGL .F          693.0000:   Ground level
 EDF .F          723.0000:   Drilling floor
 EPD .F          693.0000:   Permanent datum
 TD  .F            0.0000:   Total depth
 NRUN.             2.0000:   Number of Runs
#--RUN 1---   ------------   The following are for Run 1---
 RUN .             1.0000:   Run 1
 DATE.mm/dd/yyyy 11/22/1976:   Date Logged
 DD  .ft            12850:   Depth Driller
 DL  .ft            12857:   Depth Logger
 BLI .ft            12857:   Bottom Log Interval
 TLI .ft             8530:   Top Log Interval
 CSS .inch        10  3/4:   Casing Size
 CTD1.ft             8737:   Casing Driller 1
 CTL1.ft             8735:   Casing Logger 1
 BS  .inch         9  1/2:   Bit Size
 DFT .          fresh gel:   Type Fluid In Hole
 DFPH.                 11:   pH
 DFL .mL                4:   Fluid Loss
 WSS .            mud pit:   Source Of Sample
 RM  .ohmm           .512:   Rm
 EMT .F                78:   Rm Meas. Temp.
 RMF .ohmm           .813:   Rmf
 MFT .F                53:   Rmf Meas. Temp.
 RMC .ohmm            .40:   Rmc
 MCST.F                75:   Rmc Meas. Temp.
 MFSS.                  M:   Source Rmf.
 MCSS.                  C:   Source Rmc.
 RMB .ohmm            .23:   Rm. At BHT
 BHT .F               179:   BHT.
 MRT .F               179:   Maximum Recorded Temp.
 ENGI.             Ashton:   Recorded By
 WITN.      Hurley-Fulton:   Witnessed By
 DGBY.   Rutledge & McCoy:   Digitized By
#--RUN 2---   ------------   The following are for Run 2---
 RUN .             2.0000:   Run 2
 DATE.mm/dd/yyyy 11/29/1976:   Date Logged
 DD  .ft            13266:   Depth Driller
 DL  .ft            13271:   Depth Logger
 BLI .ft            13268:   Bottom Log Interval
 TLI .ft            12660:   Top Log Interval
 CSS .inch        10  3/4:   Casing Size
 CTD1.ft             8736:   Casing Driller 1
 CTL1.ft             8736:   Casing Logger 1
 BS  .inch         9  1/2:   Bit Size
 DFT .          fresh gel:   Type Fluid In Hole
 DFPH.               10.7:   pH
 DFL .mL             95.9:   Fluid Loss
 WSS .           flowline:   Source Of Sample
 RM  .ohmm            .43:   Rm
 EMT .F                68:   Rm Meas. Temp.
 RMF .ohmm            .43:   Rmf
 MFT .F                58:   Rmf Meas. Temp.
 RMC .ohmm            .30:   Rmc
 MCST.F                75:   Rmc Meas. Temp.
 MFSS.                  M:   Source Rmf.
 MCSS.                  C:   Source Rmc.
 RMB .ohmm           .155:   Rm. At BHT
 BHT .F               185:   BHT.
 MRT .F               185:   Maximum Recorded Temp.
 ENGI.             Ashton:   Recorded By
 WITN.            Drennen:   Witnessed By
 DGBY.   Rutledge & McCoy:   Digitized By
~OTHER INFORMATION
# Run Two Starts at 12000 ft
~A  DEPTH       GR       DPHI         DT
# ...
11439.0000    18.6495     4.3810    46.2343
11439.5000    18.9669     2.6492    46.6328
11440.0000    19.6160     1.6907    45.8419
11440.5000    20.2774     1.5056    45.0979
11441.0000    21.1642     1.6918    46.2560
11441.5000    22.3872     1.0736    46.3926
11442.0000    23.0725     0.5392    47.1795
11442.5000    23.6730     0.6415    46.1101
11443.0000    24.1056     0.4113    45.3657
11443.5000    23.9826     0.0240    46.3845
11444.0000    22.8618    -0.2540    45.8251
11444.5000    23.5655     0.3652    46.0551
11445.0000    24.9457    -3.9032    41.5875
11445.5000    25.9314    -4.3977    36.2178
11446.0000    27.2704    -4.8304    45.7107
11446.5000    28.0776    -4.4277    49.4812
11447.0000    27.9288    -4.8601    50.3603
11447.5000    27.4645    -3.4056    34.6278
11448.0000    27.7827    -2.4411    49.3818
11448.5000    28.6681    -2.0433    48.0583
11449.0000    30.0214    -1.1766    57.4307
11449.5000    31.5376    -1.5782    75.8631
11450.0000    33.6191    -2.5986    92.0652
11450.5000    35.9090    -2.6910    48.0508
11451.0000    37.9272    -1.4397    49.6987
11451.5000    39.2716     2.1276    50.3418
11452.0000    40.5985     1.9750    46.5205
11452.5000    41.5591     0.3740    40.1744
11453.0000    42.8488     1.6118    47.3378
11453.5000    46.3708     1.2721    49.9159
11454.0000    49.8927     2.4173    41.9762
11454.5000    53.4147     2.8510    50.5174
11455.0000    56.9367     1.7689    54.5959
11455.5000    60.4586     0.8413    70.1426
11456.0000    63.9806     2.3886    60.4334
11456.5000    66.8144     2.2963    38.9464
11457.0000    64.2740     1.9256    44.1242
11457.5000    62.1537     2.1118    50.1313
11458.0000    60.1979     2.7001    45.3312
11458.5000    58.1622     2.6610    38.3208
11459.0000    55.6282     2.9488    50.2180
11459.5000    53.7720     2.7018    47.7408
11460.0000    51.8182     2.9189    52.1628
11460.5000    50.6604     2.5791    50.2577
11461.0000    51.2343     1.5587    49.7452
11461.5000    52.5717     0.2290    50.6248
11462.0000    53.7923     0.1906    54.9383
11462.5000    55.0429     1.1861    42.9832
11463.0000    56.9175     2.0249    42.7743
11463.5000    58.3185     1.4996    48.2039
11464.0000    54.0432     0.9124    40.4114
11464.5000    51.6382     0.3250    48.2454
11465.0000    50.6878     0.8515    48.9399
11465.5000    50.0905     0.4499    44.6815
11466.0000    52.5894     0.3851    39.5053
11466.5000    53.9512    -0.0907    45.2994
11467.0000    56.1712    -1.0642    47.5395
11467.5000    58.8366    -0.8781    47.4441
11468.0000    60.1232     0.2361    49.3446
11468.5000    57.4246     0.7624    44.1124
11469.0000    52.0978     0.9178    38.5200
11469.5000    46.7709    -0.5048    40.8381
11470.0000    41.4441    -0.5133    44.9437
11470.5000    35.8157     0.5021    44.0443
11471.0000    39.9284     1.3531    41.6642
11471.5000    40.8101     2.7030    45.7568
11472.0000    38.0130     4.2228    46.8221
11472.5000    36.3359     5.4691    40.0451
11473.0000    35.1520     6.9796    36.3772
11473.5000    34.2913     9.0339    35.9972
11474.0000    37.2289     8.8736    42.4489
11474.5000    40.4435     5.4711    45.5126
11475.0000    43.6582     2.0349    40.6841
11475.5000    46.8728    -1.4013    38.0375
11476.0000    50.0875    -2.7626    39.9845
11476.5000    53.3021    -0.3307    38.5434
11477.0000    56.5167     2.1012    43.9706
11477.5000    59.7314     4.5330    46.3352
11478.0000    62.9460     6.9649    45.3122
11478.5000    66.1607     8.0123    44.5214
11479.0000    69.3753     8.0748    46.8859
11479.5000    72.5900     7.1753    41.2685
11480.0000    75.8046    -4.0510    38.8535
11480.5000    77.9434    -4.9785    44.9303
11481.0000    75.5896    -2.7197    47.2023
11481.5000    74.5647    -2.1314    47.3858
11482.0000    73.1684    -1.8524    55.7987
11482.5000    67.7599    -1.1194    45.5251
11483.0000    65.5470    -0.4593    46.8693
11483.5000    68.4140    -1.0773    46.3568
11484.0000    64.4778    -1.7265    48.4889
11484.5000    58.2637    -1.9734    40.4590
11485.0000    52.0496    -1.8801    48.2997
11485.5000    45.8355    -0.7349    46.8122
11486.0000    39.6214    -0.7359    46.4330
11486.5000    33.4073     0.8274    42.6782
11487.0000    26.0275     1.6798    45.2279
11487.5000    27.9012     2.0825    43.5553
11488.0000    29.4643    -0.1790    37.8920
11488.5000    28.7148    -2.8591    37.1940
11489.0000    27.0578    -5.7118    38.1200
11489.5000    25.1195    -5.4019    37.1435
11490.0000    23.6912    -4.2568    37.2807
11490.5000    22.1108    -5.2946    37.6191
11491.0000    20.1517    -5.9880    37.3230
11491.5000    19.2499    -5.5853    38.1894
11492.0000    18.2350    -5.0590    43.2117
11492.5000    17.3646    -5.6771    46.4120
11493.0000    17.7972    -6.2026    45.3422
11493.5000    18.0056    -5.3357    44.9225
11494.0000    19.0335    -5.5517    43.9924
11494.5000    19.9693    -5.9709    37.3088
11495.0000    20.8180    -7.6851    43.8955
11495.5000    20.1542    -7.5609    49.9724
11496.0000    19.5818    -6.4466    37.8590
11496.5000    19.5885    -5.5490    44.1674
11497.0000    19.4397    -6.1981    39.2006
11497.5000    19.6407    -7.4660    45.7874
11498.0000    19.9166    -7.8676    45.4142
11498.5000    19.6098    -6.8510    44.9486
11499.0000    19.5993    -7.0622    48.6034
11499.5000    19.5255    -6.1954    63.8300
11500.0000    19.9377    -7.1848    55.5542
11500.5000    20.5663    -7.4317    45.2182
11501.0000    20.2456    -8.1737    44.2417
11501.5000    19.9773    -8.1422    42.2907
11502.0000    20.3058    -7.6771    38.4372
11502.5000    21.0051    -7.2591    42.0541
11503.0000    21.7381    -6.6556    46.2284
11503.5000    22.8404    -6.8097    45.5767
11504.0000    23.5148    -6.6855    45.0643
11504.5000    24.4916    -6.5304    37.2664
11505.0000    25.3750    -7.2103    38.5637
11505.5000    27.2690    -7.7667    41.7169
11506.0000    27.6368    -7.8589    43.6638
11506.5000    28.2211    -7.8232    47.3277
11507.0000    28.6949    -7.1462    45.4231
11507.5000    29.5350    -6.6198    40.0383
11508.0000    30.1326    -5.9077    41.9312
11508.5000    30.5930    -6.7116    43.6480
11509.0000    31.4927    -5.9995    39.2892
11509.5000    36.0940    -5.4421    37.9879
11510.0000    37.8506    -5.0314    37.4759
11510.5000    39.5467    -4.3759    42.1601
11511.0000    38.9402    -3.9247    43.3646
11511.5000    38.5286    -4.9140    73.9424
11512.0000    38.3426    -5.2539    62.7708
11512.5000    38.3567    -4.6965    50.0323
11513.0000    36.7495    -4.4484    36.7206
11513.5000    33.7121    -3.6126    44.0503
11514.0000    36.4680    -2.9830    43.1202
11514.5000    39.6074    -2.6216    45.2527
11515.0000    42.7468    -3.1778    38.9857
11515.5000    45.8862    -3.9507    32.4413
11516.0000    49.0256    -4.0431    37.0791
11516.5000    52.1650    -3.9188    47.2395
11517.0000    55.3044    -3.8253    47.7948
11517.5000    58.4438    -2.9895    46.7250
11518.0000    61.5832    -3.0828    45.5575
11518.5000    62.0903    -2.6721    32.1965
11519.0000    59.2681    -1.0079    46.4093
11519.5000    57.1059    -1.5644    41.4592
11520.0000    55.0796    -1.2235    43.6056
11520.5000    53.5905    -1.6251    45.3205
11521.0000    51.5466    -3.0476    43.9258
11521.5000    49.5145    -4.2845    41.6964
11522.0000    49.2553    -4.7790    40.9055
11522.5000    50.7860    -4.4072    37.4232
11523.0000    50.4891    -4.9943    45.1242
11523.5000    50.9312    -4.6535    38.3013
11524.0000    52.1362    -4.9934    46.3266
11524.5000    56.0879    -4.5287    46.4207
11525.0000    60.0396    -4.0642    45.8472
11525.5000    63.9913    -3.6924    47.1089
11526.0000    67.9430    -3.8495    47.0140
11526.5000    71.8948    -4.1554    47.3832
11527.0000    75.8465    -3.5051    47.7065
11527.5000    73.8143    -2.2671    47.2864
11528.0000    69.9502    -2.4524    45.6602
11528.5000    66.0860    -1.4927    43.6705
11529.0000    62.2218    -0.9664    46.5163
11529.5000    58.3577    -2.8837    39.3917
