~VERSION INFORMATION
 VERS.               2.10:   CWLS LOG ASCII STANDARD - VERSION 2.10
 WRAP.                 NO:   ONE LINE PER DEPTH STEP
~WELL INFORMATION
#MNEM.UNIT      DATA TYPE    INFORMATION
#----------   ------------   ------------------------------
 STRT.F         8800.0000:   START DEPTH
 STOP.F        13240.0000:   STOP DEPTH
 STEP.F            0.5000:   STEP LENGTH
 NULL.          -999.2500:   NO VALUE
 COMP. Exxon Company, USA:   COMPANY
 WELL.     Howard Deem #1:   WELL
 FLD .            Wildcat:   FIELD
 LOC .        Wood County:   LOCATION
 STAT.      West Virginia:   STATE
 COUN.               Wood:   COUNTY
 CTRY.      Not Specified:   COUNTRY
 SRVC.       Schlumberger:   SERVICE COMPANY
 DATE.         11/22/1976:   LOGDATE
 APIN.             47-107:   API NUMBER
~CURVE INFORMATION
#MNEM.UNIT       API CODE    CURVE DESCRIPTION
#----------   ------------   ------------------------------
 DEPT.F                  :
 GR  .GAPI   60 310 00 00:   Gamma Ray
 DPHI.none   42 890 12 00:   Den. Porosity, Ss [%]
 DT  .us/f   60 520 00 00:   Delta t
~PARAMETER INFORMATION
#MNEM.UNIT          VALUE    DESCRIPTION
#----------   ------------   ------------------------------
 EKB .F          726.0000:   Kelly bushing
 EGL .F          693.0000:   Ground level
 EDF .F          723.0000:   Drilling floor
 EPD .F          693.0000:   Permanent datum
 TD  .F            0.0000:   Total depth
 NRUN.             2.0000:   Number of Runs
#--RUN 1---   ------------   The following are for Run 1---
 RUN .             1.0000:   Run 1
 DATE.mm/dd/yyyy 11/22/1976:   Date Logged
 DD  .ft            12850:   Depth Driller
 DL  .ft            12857:   Depth Logger
 BLI .ft            12857:   Bottom Log Interval
 TLI .ft             8530:   Top Log Interval
 CSS .inch        10  3/4:   Casing Size
 CTD1.ft             8737:   Casing Driller 1
 CTL1.ft             8735:   Casing Logger 1
 BS  .inch         9  1/2:   Bit Size
 DFT .          fresh gel:   Type Fluid In Hole
 DFPH.                 11:   pH
 DFL .mL                4:   Fluid Loss
 WSS .            mud pit:   Source Of Sample
 RM  .ohmm           .512:   Rm
 EMT .F                78:   Rm Meas. Temp.
 RMF .ohmm           .813:   Rmf
 MFT .F                53:   Rmf Meas. Temp.
 RMC .ohmm            .40:   Rmc
 MCST.F                75:   Rmc Meas. Temp.
 MFSS.                  M:   Source Rmf.
 MCSS.                  C:   Source Rmc.
 RMB .ohmm            .23:   Rm. At BHT
 BHT .F               179:   BHT.
 MRT .F               179:   Maximum Recorded Temp.
 ENGI.             Ashton:   Recorded By
 WITN.      Hurley-Fulton:   Witnessed By
 DGBY.   Rutledge & McCoy:   Digitized By
#--RUN 2---   ------------   The following are for Run 2---
 RUN .             2.0000:   Run 2
 DATE.mm/dd/yyyy 11/29/1976:   Date Logged
 DD  .ft            13266:   Depth Driller
 DL  .ft            13271:   Depth Logger
 BLI .ft            13268:   Bottom Log Interval
 TLI .ft            12660:   Top Log Interval
 CSS .inch        10  3/4:   Casing Size
 CTD1.ft             8736:   Casing Driller 1
 CTL1.ft             8736:   Casing Logger 1
 BS  .inch         9  1/2:   Bit Size
 DFT .          fresh gel:   Type Fluid In Hole
 DFPH.               10.7:   pH
 DFL .mL             95.9:   Fluid Loss
 WSS .           flowline:   Source Of Sample
 RM  .ohmm            .43:   Rm
 EMT .F                68:   Rm Meas. Temp.
 RMF .ohmm            .43:   Rmf
 MFT .F                58:   Rmf Meas. Temp.
 RMC .ohmm            .30:   Rmc
 MCST.F                75:   Rmc Meas. Temp.
 MFSS.                  M:   Source Rmf.
 MCSS.                  C:   Source Rmc.
 RMB .ohmm           .155:   Rm. At BHT
 BHT .F               185:   BHT.
 MRT .F               185:   Maximum Recorded Temp.
 ENGI.             Ashton:   Recorded By
 WITN.            Drennen:   Witnessed By
 DGBY.   Rutledge & McCoy:   Digitized By
~OTHER INFORMATION
# Run Two Starts at 12000 ft
~A  DEPTH       GR       DPHI         DT
# ...
11712.0000    24.9866     6.5060    45.3095
11712.5000    22.3260     1.9122    44.2026
11713.0000    21.5046    -2.6816    43.5885
11713.5000    21.5119    -6.3765    44.9317
11714.0000    21.5202    -6.1258    44.2336
11714.5000    21.5299    -2.5325    43.7675
11715.0000    21.6546    -5.2872    43.9980
11715.5000    21.8567    -7.8498    43.7175
11716.0000    21.8650    -8.8356    44.0862
11716.5000    21.8733    -8.8608    44.1306
11717.0000    21.8819    -6.8398    44.4103
11717.5000    22.2015    -7.9495    44.3116
11718.0000    22.5932    -7.6649    43.7992
11718.5000    23.1533    -7.9085    43.5656
11719.0000    24.1054    -8.3661    44.3520
11719.5000    24.9561    -8.6407    44.8140
11720.0000    25.6708    -8.0448    45.0909
11720.5000    26.1274    -7.4504    42.9073
11721.0000    26.9585    -8.8376    41.0492
11721.5000    27.8768    -8.6769    45.1632
11722.0000    28.1952    -9.1050    45.4070
11722.5000    28.5150    -8.8204    44.8482
11723.0000    27.6008    -9.1865    45.2174
11723.5000    25.8558    -9.8934    44.1011
11724.0000    24.4905   -11.2510    44.3311
11724.5000    23.2023   -12.1128    44.3291
11725.0000    22.1882   -10.3456    44.0637
11725.5000    20.7774    -9.8692    44.6499
11726.0000    18.9119    -9.2748    44.6375
11726.5000    16.8255    -7.8128    43.3944
11727.0000    14.8837    -8.8915    43.2052
11727.5000    15.0257    -7.3676    44.5020
11728.0000    15.2339    -7.5788    44.3144
11728.5000    15.5321    -8.4406    44.2664
11729.0000    15.9623    -7.3503    45.1920
11729.5000    16.4828    -8.1194    44.7259
11730.0000    17.0024    -4.8280    44.3426
11730.5000    18.8118    -4.4519    43.7474
11731.0000    21.1800    -5.7770    44.8590
11731.5000    22.3002    -4.1669    43.3716
11732.0000    22.1298     0.2420    42.7204
11732.5000    22.1399     3.3188    45.3634
11733.0000    21.6811     5.2633    44.8040
11733.5000    22.1988     7.3727    44.5699
11734.0000    22.7882     9.1112    45.7280
11734.5000    22.7954     9.5074    45.1691
11735.0000    22.4713     4.1866    44.2315
11735.5000    21.8789    -0.9148    44.4957
11736.0000    21.7770    -6.0162    44.9310
11736.5000    21.2711    -9.5552    44.1860
11737.0000    20.9678    -9.1453    44.7872
11737.5000    20.8899    -9.6663    45.5740
11738.0000    20.9848   -10.6831    45.6653
11738.5000    26.0300   -11.4520    45.3379
11739.0000    29.4122   -10.9505    45.1039
11739.5000    28.4868   -10.2816    44.5404
11740.0000    27.2563    -9.5744    41.2676
11740.5000    26.2810    -9.6926    38.3688
11741.0000    26.0187   -10.9882    40.9653
11741.5000    34.9717   -11.9120    39.1536
11742.0000    47.3574   -12.3401    36.6926
11742.5000    55.6401   -10.7852    45.9244
11743.0000    55.5338    -8.4305    46.1085
11743.5000    53.4746    -6.7449    46.6628
11744.0000    51.3412    -6.9575    45.7718
11744.5000    49.8967    -5.3082    44.8490
11745.0000    48.2040    -5.0561    46.7490
11745.5000    46.1069    -7.1192    47.3508
11746.0000    46.4729    -9.0448    46.6527
11746.5000    47.2947   -10.4907    47.1147
11747.0000    45.1866    -6.6363    45.9056
11747.5000    35.3668    -2.9466    43.9546
11748.0000    30.8091    -0.8892    44.8807
11748.5000    28.1864     3.0425    42.7441
11749.0000    25.1274     1.6307    43.2993
11749.5000    21.1800     0.3269    44.2713
11750.0000    16.0068     1.5267    42.5519
11750.5000    14.9625     2.6685    44.1740
11751.0000    16.2225     4.7953    44.6824
11751.5000    17.5461     7.7258    45.5620
11752.0000    18.1933     6.8639    43.9823
11752.5000    18.4379     8.2329    45.2331
11753.0000    17.6553     8.5470    44.5350
11753.5000    18.0173     5.7406    43.4193
11754.0000    19.4071     1.5800    44.5774
11754.5000    20.0334    -3.2577    44.0185
11755.0000    21.0275    -5.4948    44.5733
11755.5000    21.6225    -6.5157    44.1995
11756.0000    22.3887    -6.9396    43.6871
11756.5000    22.5779    -4.9233    42.6641
11757.0000    19.1650    -1.5489    42.0589
11757.5000    19.9117     1.8254    42.9872
11758.0000    20.7475     4.6721    45.5859
11758.5000    21.2729     4.4961    45.2541
11759.0000    21.7009     2.4322    44.1384
11759.5000    21.7127     0.1110    43.8115
11760.0000    21.7238    -1.2525    42.6494
11760.5000    21.3468    -2.1453    43.9931
11761.0000    20.1897    -5.3473    43.9447
11761.5000    19.7206    -4.8813    43.8774
11762.0000    19.9584    -3.5835    43.5230
11762.5000    20.5359     0.6656    44.5015
11763.0000    20.5462    -1.0314    46.3959
11763.5000    24.8820    -2.0792    43.7484
11764.0000    27.1127    -3.2508    44.4424
11764.5000    25.9264    -2.5635    44.3476
11765.0000    25.2447    -2.0620    43.4639
11765.5000    24.9647    -4.5660    44.5755
11766.0000    24.8639    -3.8167    45.3302
11766.5000    24.0529    -3.9659    44.6178
11767.0000    24.0644    -4.4545    43.2701
11767.5000    23.9824    -4.8825    43.8713
11768.0000    23.1530    -2.5840    42.7556
11768.5000    22.3563    -1.4939    43.9132
11769.0000    21.4691     0.7844    44.5144
11769.5000    20.3840    -0.0893    42.3778
11770.0000    18.9822    -2.8076    43.9999
11770.5000    18.1692    -3.2667    44.8331
11771.0000    17.6149    -4.7719    43.6710
11771.5000    17.1664    -6.9391    44.2616
11772.0000    16.7011    -8.7041    44.8734
11772.5000    16.7150    -7.4576    43.6644
11773.0000    16.8535    -7.4519    42.7343
11773.5000    17.0859    -8.8222    42.6399
11774.0000    17.9958   -10.0107    43.7511
11774.5000    18.5357   -10.1923    44.8163
11775.0000    19.5742    -8.0783    44.8920
11775.5000    20.9230    -7.3864    44.3018
11776.0000    22.0533    -5.6983    44.3977
11776.5000    26.4625    -4.0103    44.3437
11777.0000    27.9025    -2.7570    43.9709
11777.5000    28.7388    -3.4317    44.6180
11778.0000    29.6125    -4.4795    44.1983
11778.5000    29.9346    -1.9427    44.0571
11779.0000    29.9460     0.7062    45.1224
11779.5000    30.2702     0.2472    45.3059
11780.0000    31.5065    -0.6812    46.0928
11780.5000    32.2311    -3.1385    45.6452
11781.0000    33.1086    -5.5958    45.5497
11781.5000    33.5571    -6.9806    44.0444
11782.0000    34.0644    -8.3768    45.0633
11782.5000    34.0779   -10.8791    44.4116
11783.0000    33.2477    -9.4854    44.0847
11783.5000    31.9180    -6.2717    45.1500
11784.0000    30.9077    -6.8712    45.5197
11784.5000    30.2049    -6.4478    43.2433
11785.0000    29.1490    -6.9083    45.1947
11785.5000    29.1599    -5.8801    43.5025
11786.0000    29.6231    -8.5375    43.1908
11786.5000    30.1182    -9.1825    40.5897
11787.0000    25.5660    -9.5176    41.2837
11787.5000    23.1827    -6.6732    42.7207
11788.0000    22.0532    -3.7122    45.1312
11788.5000    20.8424    -5.6275    43.3658
11789.0000    19.5163    -3.9163    43.1781
11789.5000    18.0381    -5.2025    39.2782
11790.0000    16.8647    -7.2289    44.1486
11790.5000    20.6501    -9.1560    43.6361
11791.0000    24.6148    -9.5029    44.1445
11791.5000    26.6050    -9.6817    42.5178
11792.0000    28.3739    -9.5480    40.3348
11792.5000    29.9119    -7.6985    38.3379
11793.0000    31.0638    -4.6521    44.9247
11793.5000    32.1469     0.1491    46.0828
11794.0000    25.7941     4.9504    44.9625
11794.5000    26.9417     9.5965    42.8305
11795.0000    28.1318    14.1120    44.0808
11795.5000    29.2446    20.8849    44.9605
11796.0000    30.1230    18.8724    45.5158
11796.5000    25.3627    16.6177    44.8636
11797.0000    23.5036    14.3630    44.7693
11797.5000    23.6083    10.6842    45.6020
11798.0000    24.4628     6.5056    44.8111
11798.5000    23.8494     5.3955    43.6954
11799.0000    23.8738     3.6175    43.9873
11799.5000    24.1860     1.3184    44.5261
11800.0000    24.0917     1.5100    44.7560
11800.5000    23.8951     0.6186    45.6362
11801.0000    28.0403     1.7595    44.1023
11801.5000    33.0103     3.9763    44.4251
11802.0000    37.3256     7.7627    44.8412
11802.5000    39.7784    10.5872    43.7558
