~VERSION INFORMATION
 VERS.               2.10:   CWLS LOG ASCII STANDARD - VERSION 2.10
 WRAP.                 NO:   ONE LINE PER DEPTH STEP
~WELL INFORMATION
#MNEM.UNIT      DATA TYPE    INFORMATION
#----------   ------------   ------------------------------
 STRT.F         8800.0000:   START DEPTH
 STOP.F        13240.0000:   STOP DEPTH
 STEP.F            0.5000:   STEP LENGTH
 NULL.          -999.2500:   NO VALUE
 COMP. Exxon Company, USA:   COMPANY
 WELL.     Howard Deem #1:   WELL
 FLD .            Wildcat:   FIELD
 LOC .        Wood County:   LOCATION
 STAT.      West Virginia:   STATE
 COUN.               Wood:   COUNTY
 CTRY.      Not Specified:   COUNTRY
 SRVC.       Schlumberger:   SERVICE COMPANY
 DATE.         11/22/1976:   LOGDATE
 APIN.             47-107:   API NUMBER
~CURVE INFORMATION
#MNEM.UNIT       API CODE    CURVE DESCRIPTION
#----------   ------------   ------------------------------
 DEPT.F                  :
 GR  .GAPI   60 310 00 00:   Gamma Ray
 DPHI.none   42 890 12 00:   Den. Porosity, Ss [%]
 DT  .us/f   60 520 00 00:   Delta t
~PARAMETER INFORMATION
#MNEM.UNIT          VALUE    DESCRIPTION
#----------   ------------   ------------------------------
 EKB .F          726.0000:   Kelly bushing
 EGL .F          693.0000:   Ground level
 EDF .F          723.0000:   Drilling floor
 EPD .F          693.0000:   Permanent datum
 TD  .F            0.0000:   Total depth
 NRUN.             2.0000:   Number of Runs
#--RUN 1---   ------------   The following are for Run 1---
 RUN .             1.0000:   Run 1
 DATE.mm/dd/yyyy 11/22/1976:   Date Logged
 DD  .ft            12850:   Depth Driller
 DL  .ft            12857:   Depth Logger
 BLI .ft            12857:   Bottom Log Interval
 TLI .ft             8530:   Top Log Interval
 CSS .inch        10  3/4:   Casing Size
 CTD1.ft             8737:   Casing Driller 1
 CTL1.ft             8735:   Casing Logger 1
 BS  .inch         9  1/2:   Bit Size
 DFT .          fresh gel:   Type Fluid In Hole
 DFPH.                 11:   pH
 DFL .mL                4:   Fluid Loss
 WSS .            mud pit:   Source Of Sample
 RM  .ohmm           .512:   Rm
 EMT .F                78:   Rm Meas. Temp.
 RMF .ohmm           .813:   Rmf
 MFT .F                53:   Rmf Meas. Temp.
 RMC .ohmm            .40:   Rmc
 MCST.F                75:   Rmc Meas. Temp.
 MFSS.                  M:   Source Rmf.
 MCSS.                  C:   Source Rmc.
 RMB .ohmm            .23:   Rm. At BHT
 BHT .F               179:   BHT.
 MRT .F               179:   Maximum Recorded Temp.
 ENGI.             Ashton:   Recorded By
 WITN.      Hurley-Fulton:   Witnessed By
 DGBY.   Rutledge & McCoy:   Digitized By
#--RUN 2---   ------------   The following are for Run 2---
 RUN .             2.0000:   Run 2
 DATE.mm/dd/yyyy 11/29/1976:   Date Logged
 DD  .ft            13266:   Depth Driller
 DL  .ft            13271:   Depth Logger
 BLI .ft            13268:   Bottom Log Interval
 TLI .ft            12660:   Top Log Interval
 CSS .inch        10  3/4:   Casing Size
 CTD1.ft             8736:   Casing Driller 1
 CTL1.ft             8736:   Casing Logger 1
 BS  .inch         9  1/2:   Bit Size
 DFT .          fresh gel:   Type Fluid In Hole
 DFPH.               10.7:   pH
 DFL .mL             95.9:   Fluid Loss
 WSS .           flowline:   Source Of Sample
 RM  .ohmm            .43:   Rm
 EMT .F                68:   Rm Meas. Temp.
 RMF .ohmm            .43:   Rmf
 MFT .F                58:   Rmf Meas. Temp.
 RMC .ohmm            .30:   Rmc
 MCST.F                75:   Rmc Meas. Temp.
 MFSS.                  M:   Source Rmf.
 MCSS.                  C:   Source Rmc.
 RMB .ohmm           .155:   Rm. At BHT
 BHT .F               185:   BHT.
 MRT .F               185:   Maximum Recorded Temp.
 ENGI.             Ashton:   Recorded By
 WITN.            Drennen:   Witnessed By
 DGBY.   Rutledge & McCoy:   Digitized By
~OTHER INFORMATION
# Run Two Starts at 12000 ft
~A  DEPTH       GR       DPHI         DT
# ...
10529.0000    31.7799     2.8618    44.4376
10529.5000    32.9848     1.9019    44.8082
10530.0000    34.3175     0.5628    44.5753
10530.5000    35.8195    -0.1516    44.5746
10531.0000    36.9088    -0.6996    45.2236
10531.5000    38.6444     0.8463    45.6405
10532.0000    41.4052     0.7216    46.0575
10532.5000    43.6506     2.9481    46.6137
10533.0000    46.6725     3.3187    46.0863
10533.5000    47.4202     2.4823    46.1977
10534.0000    46.6087     0.3208    46.3332
10534.5000    45.4572    -3.3825    46.2859
10535.0000    40.8075    -7.0859    47.0277
10535.5000    38.6692   -10.7892    46.5166
10536.0000    39.6050   -10.3990    45.5880
10536.5000    41.4401    -7.5316    46.4689
10537.0000    44.5256    -4.5467    46.2826
10537.5000    48.8997    -5.2818    46.6067
10538.0000    50.8378    -7.2617    47.0701
10538.5000    51.0762    -9.8393    47.1622
10539.0000    49.8482    -3.0037    47.0221
10539.5000    49.5448    -2.0765    47.5783
10540.0000    48.9335    -0.4376    47.5776
10540.5000    44.3414    -3.4704    47.4377
10541.0000    41.7861    -5.2827    47.0194
10541.5000    39.3720    -5.9162    46.4619
10542.0000    36.0303    -5.7315    46.0436
10542.5000    33.5114    -6.5369    45.9037
10543.0000    35.3746    -5.1766    46.8311
10543.5000    35.8511    -5.0229    46.5921
10544.0000    34.8325    -4.6835    46.1799
10544.5000    28.9042    -4.1584    44.9263
10545.0000    27.3905    -3.6953    45.2505
10545.5000    26.1025    -3.4482    45.7138
10546.0000    25.8331    -1.8452    46.3628
10546.5000    27.0119     3.6033    46.5015
10547.0000    28.3587     5.0559    45.6654
10547.5000    29.8738     4.1577    45.5244
10548.0000    31.3442     1.9624    45.9499
10548.5000    34.0224    -1.0202    46.0810
10549.0000    36.7006    -4.5381    46.6370
10549.5000    39.3788    -7.1066    47.1004
10550.0000    42.0570    -7.7263    47.0533
10550.5000    44.7352    -7.3869    46.8670
10551.0000    47.4134    -5.9935    46.1238
10551.5000    43.8724    -4.6356    45.6127
10552.0000    39.8276    -4.0487    45.7513
10552.5000    39.5247    -3.4618    45.7473
10553.0000    39.5317    -4.1743    46.2452
10553.5000    39.5396    -4.7939    47.0485
10554.0000    38.9823    -5.9703    46.6301
10554.5000    36.7540    -3.5381    45.6549
10555.0000    34.5257    -1.0224    45.0046
10555.5000    32.2974    -1.3637    45.4215
10556.0000    30.0691    -2.0799    45.5602
10556.5000    27.8408    -2.3298    45.5279
10557.0000    27.8020     1.5414    45.6173
10557.5000    29.7025     1.8501    44.5371
10558.0000    29.3216     2.3748    44.8147
10558.5000    27.5530     2.8689    45.5103
10559.0000    28.8219     3.2392    45.5094
10559.5000    29.7879     3.5168    46.4368
10560.0000    30.9744     5.0008    46.6219
10560.5000    34.7477     4.1953    46.5747
10561.0000    38.4841     3.3901    46.8988
10561.5000    39.3418     1.4093    46.7125
10562.0000    39.4770    -0.2310    46.1550
10562.5000    39.6638     1.3456    46.3458
10563.0000    39.6720    -0.3630    46.1999
10563.5000    39.5684    -3.0490    46.1064
10564.0000    38.7573    -2.7014    46.1987
10564.5000    38.2554    -4.0410    46.1050
10565.0000    37.9726    -5.6506    46.2900
10565.5000    34.7599    -5.3112    46.1965
10566.0000    32.1134    -5.6833    45.2677
10566.5000    32.4417    -6.3029    44.9886
10567.0000    33.2355    -4.7261    44.9415
10567.5000    34.1822    -2.7780    45.5905
10568.0000    35.2066    -3.5746    45.4969
10568.5000    36.3478    -2.6873    46.0066
10569.0000    41.8148     3.5299    46.0989
10569.5000    48.1393     3.9314    46.0517
10570.0000    48.7337     1.3626    46.0046
10570.5000    48.0061     0.0006    46.2359
10571.0000    45.9643    -0.6021    46.1424
10571.5000    45.6636     1.4218    45.8603
10572.0000    46.0814    -1.9308    46.1522
10572.5000    47.2219    -3.4369    46.4187
10573.0000    49.0063    -3.0049    46.2789
10573.5000    47.9118    -3.5627    46.1853
10574.0000    46.0065    -3.8420    45.5350
10574.5000    41.6267    -4.2141    45.8127
10575.0000    38.2821    -6.1021    45.6264
10575.5000    36.1359    -7.0361    45.4798
10576.0000    36.7595   -10.4349    46.0891
10576.5000    37.7858    -4.5816    46.0765
10577.0000    38.9391    -0.0113    45.9021
10577.5000    39.4282    -5.0876    46.3653
10578.0000    38.4265    -9.3692    46.1790
10578.5000    34.1714    -9.1352    45.7143
10579.0000    29.9163    -3.1402    45.3426
10579.5000    25.6612    -2.1878    46.1770
10580.0000    21.4061    -4.2100    46.9652
10580.5000    17.0930    -3.4267    47.5213
10581.0000    14.8827    -0.3283    48.0311
10581.5000    14.8895    -1.8138    47.6279
10582.0000    14.8964    -2.2479    47.0087
10582.5000    14.9038    -1.8944    46.3120
10583.0000    15.2195    -4.1082    45.8472
10583.5000    15.9031    -5.9323    45.4289
10584.0000    16.7797    -6.2112    45.3356
10584.5000    17.7004    -3.8303    45.9844
10585.0000    19.4210    -5.0331    45.9979
10585.5000    22.0558    -2.3524    45.2870
10586.0000    24.2535    -0.8325    45.2893
10586.5000    26.4532    -1.2089    45.4936
10587.0000    28.8776    -1.6388    45.4240
10587.5000    30.8662    -0.7340    45.2841
10588.0000    32.5997     0.7294    45.3762
10588.5000    27.0085     0.8334    45.6542
10589.0000    24.6142     0.2138    45.4677
10589.5000    23.6564     0.9551    45.7918
10590.0000    23.4822     3.3224    46.0232
10590.5000    22.9812     4.1286    45.7901
10591.0000    22.7496     1.5540    45.7849
10591.5000    22.9176    -0.8737    45.9282
10592.0000    23.4848    -1.6480    46.0669
10592.5000    24.6260    -2.5239    46.1126
10593.0000    25.9845    -1.5924    46.0655
10593.5000    27.8891    -0.6608    45.5078
10594.0000    30.8295    -1.0232    45.9712
10594.5000    32.8700    -2.0547    46.7594
10595.0000    34.5776    -2.4367    45.6450
10595.5000    36.1056    -4.2532    45.2731
10596.0000    36.9357    -2.7746    45.0571
10596.5000    34.8819    -0.1404    44.3435
10597.0000    29.7500    -0.6945    44.8997
10597.5000    27.1430    -2.1223    45.5952
10598.0000    25.3203    -3.6390    45.1303
10598.5000    24.0516    -4.5061    44.6656
10599.0000    23.1054    -8.0506    44.9435
10599.5000    22.8679   -10.8808    44.6130
10600.0000    23.1839    -8.1533    44.8492
10600.5000    24.6067    -4.4844    45.6528
10601.0000    26.9081    -0.8155    45.7759
10601.5000    28.9617     2.3961    44.8934
10602.0000    31.9963     3.4689    45.4960
10602.5000    34.9664     2.3231    47.1194
10603.0000    36.6699    -0.0137    46.1878
10603.5000    38.0910    -2.7521    46.5579
10604.0000    39.0046    -3.7474    46.3712
10604.5000    35.8220    -5.9187    45.5767
10605.0000    27.8904    -8.7565    45.8585
10605.5000    24.6121    -4.6511    44.9290
10606.0000    21.4116    -2.2498    44.7890
10606.5000    19.5654    -2.4093    45.2052
10607.0000    19.0957    -1.0383    45.9929
10607.5000    19.3281    -0.4300    46.5486
10608.0000    20.2047     2.1210    48.4037
10608.5000    21.2735     6.1470    48.9130
10609.0000    22.4981     7.0298    47.2413
10609.5000    24.2444     6.6817    50.2562
10610.0000    25.4350     7.0839    49.0485
10610.5000    26.7699    10.8463    47.0520
10611.0000    27.9750    13.6127    45.2879
10611.5000    28.1798    17.8586    46.1217
10612.0000    27.3694    20.9129    47.1879
10612.5000    27.2664    20.7889    50.2494
10613.0000    27.8734    19.3655    49.3666
10613.5000    28.9361    18.7747    47.2724
10614.0000    29.9220    16.7886    46.9047
10614.5000    30.8750    15.4348    45.7898
10615.0000    31.4302    17.8360    49.3618
10615.5000    31.5842    20.2372    51.8201
10616.0000    31.4429    20.9104    55.7633
10616.5000    31.4513    19.3942    58.4071
10617.0000    31.4575    21.0644    55.3898
10617.5000    31.8053    22.1160    56.4769
10618.0000    32.7089    22.5179    57.2901
10618.5000    33.1462    16.4438    53.0198
10619.0000    33.6492    14.6461    54.4108
10619.5000    32.7301    16.1211    51.5787
