~VERSION INFORMATION
 VERS.               2.10:   CWLS LOG ASCII STANDARD - VERSION 2.10
 WRAP.                 NO:   ONE LINE PER DEPTH STEP
~WELL INFORMATION
#MNEM.UNIT      DATA TYPE    INFORMATION
#----------   ------------   ------------------------------
 STRT.F         8800.0000:   START DEPTH
 STOP.F        13240.0000:   STOP DEPTH
 STEP.F            0.5000:   STEP LENGTH
 NULL.          -999.2500:   NO VALUE
 COMP. Exxon Company, USA:   COMPANY
 WELL.     Howard Deem #1:   WELL
 FLD .            Wildcat:   FIELD
 LOC .        Wood County:   LOCATION
 STAT.      West Virginia:   STATE
 COUN.               Wood:   COUNTY
 CTRY.      Not Specified:   COUNTRY
 SRVC.       Schlumberger:   SERVICE COMPANY
 DATE.         11/22/1976:   LOGDATE
 APIN.             47-107:   API NUMBER
~CURVE INFORMATION
#MNEM.UNIT       API CODE    CURVE DESCRIPTION
#----------   ------------   ------------------------------
 DEPT.F                  :
 GR  .GAPI   60 310 00 00:   Gamma Ray
 DPHI.none   42 890 12 00:   Den. Porosity, Ss [%]
 DT  .us/f   60 520 00 00:   Delta t
~PARAMETER INFORMATION
#MNEM.UNIT          VALUE    DESCRIPTION
#----------   ------------   ------------------------------
 EKB .F          726.0000:   Kelly bushing
 EGL .F          693.0000:   Ground level
 EDF .F          723.0000:   Drilling floor
 EPD .F          693.0000:   Permanent datum
 TD  .F            0.0000:   Total depth
 NRUN.             2.0000:   Number of Runs
#--RUN 1---   ------------   The following are for Run 1---
 RUN .             1.0000:   Run 1
 DATE.mm/dd/yyyy 11/22/1976:   Date Logged
 DD  .ft            12850:   Depth Driller
 DL  .ft            12857:   Depth Logger
 BLI .ft            12857:   Bottom Log Interval
 TLI .ft             8530:   Top Log Interval
 CSS .inch        10  3/4:   Casing Size
 CTD1.ft             8737:   Casing Driller 1
 CTL1.ft             8735:   Casing Logger 1
 BS  .inch         9  1/2:   Bit Size
 DFT .          fresh gel:   Type Fluid In Hole
 DFPH.                 11:   pH
 DFL .mL                4:   Fluid Loss
 WSS .            mud pit:   Source Of Sample
 RM  .ohmm           .512:   Rm
 EMT .F                78:   Rm Meas. Temp.
 RMF .ohmm           .813:   Rmf
 MFT .F                53:   Rmf Meas. Temp.
 RMC .ohmm            .40:   Rmc
 MCST.F                75:   Rmc Meas. Temp.
 MFSS.                  M:   Source Rmf.
 MCSS.                  C:   Source Rmc.
 RMB .ohmm            .23:   Rm. At BHT
 BHT .F               179:   BHT.
 MRT .F               179:   Maximum Recorded Temp.
 ENGI.             Ashton:   Recorded By
 WITN.      Hurley-Fulton:   Witnessed By
 DGBY.   Rutledge & McCoy:   Digitized By
#--RUN 2---   ------------   The following are for Run 2---
 RUN .             2.0000:   Run 2
 DATE.mm/dd/yyyy 11/29/1976:   Date Logged
 DD  .ft            13266:   Depth Driller
 DL  .ft            13271:   Depth Logger
 BLI .ft            13268:   Bottom Log Interval
 TLI .ft            12660:   Top Log Interval
 CSS .inch        10  3/4:   Casing Size
 CTD1.ft             8736:   Casing Driller 1
 CTL1.ft             8736:   Casing Logger 1
 BS  .inch         9  1/2:   Bit Size
 DFT .          fresh gel:   Type Fluid In Hole
 DFPH.               10.7:   pH
 DFL .mL             95.9:   Fluid Loss
 WSS .           flowline:   Source Of Sample
 RM  .ohmm            .43:   Rm
 EMT .F                68:   Rm Meas. Temp.
 RMF .ohmm            .43:   Rmf
 MFT .F                58:   Rmf Meas. Temp.
 RMC .ohmm            .30:   Rmc
 MCST.F                75:   Rmc Meas. Temp.
 MFSS.                  M:   Source Rmf.
 MCSS.                  C:   Source Rmc.
 RMB .ohmm           .155:   Rm. At BHT
 BHT .F               185:   BHT.
 MRT .F               185:   Maximum Recorded Temp.
 ENGI.             Ashton:   Recorded By
 WITN.            Drennen:   Witnessed By
 DGBY.   Rutledge & McCoy:   Digitized By
~OTHER INFORMATION
# Run Two Starts at 12000 ft
~A  DEPTH       GR       DPHI         DT
# ...
 9346.0000    18.9744     4.0390    50.3833
 9346.5000    20.9895     3.5747    50.1208
 9347.0000    20.8017     4.3180    50.4449
 9347.5000    21.3272     4.8754    50.9547
 9348.0000    23.5379     4.0706    51.9749
 9348.5000    27.4020     3.6969    53.0415
 9349.0000    31.2662     2.4136    55.7322
 9349.5000    35.1303     1.4085    56.0564
 9350.0000    38.9944     1.8032    55.6845
 9350.5000    38.7033     2.3376    55.4001
 9351.0000    37.1441     2.6474    55.7295
 9351.5000    37.1447     2.5546    55.9143
 9352.0000    37.0884     3.2494    56.0530
 9352.5000    36.5249     3.8243    55.5417
 9353.0000    34.0749     3.7626    54.8450
 9353.5000    31.4468     3.1435    54.2874
 9354.0000    29.6945     1.8743    53.7299
 9354.5000    28.2562     1.5339    53.6360
 9355.0000    26.8847     1.8746    54.0070
 9355.5000    26.2802     2.8036    53.4029
 9356.0000    25.9702     3.5335    52.8454
 9356.5000    25.9708     5.6212    52.1022
 9357.0000    25.9714     6.8288    51.9161
 9357.5000    26.2826     6.6122    52.4721
 9358.0000    26.5938     6.0242    53.1675
 9358.5000    27.0821     5.3432    53.2258
 9359.0000    27.7273     4.4146    52.9341
 9359.5000    29.0802     4.3218    53.0767
 9360.0000    30.0154     4.4498    53.3502
 9360.5000    31.0386     4.8175    53.5351
 9361.0000    31.8771     5.2511    54.0913
 9361.5000    32.4988     5.8705    54.2763
 9362.0000    31.7945     6.1183    53.9972
 9362.5000    30.0156     5.9104    53.9965
 9363.0000    28.8489     4.7066    53.9494
 9363.5000    27.8349     4.2921    53.5775
 9364.0000    27.3252     3.4150    53.1981
 9364.5000    26.7167     2.1252    52.0910
 9365.0000    25.6708     2.8375    51.1623
 9365.5000    24.6748     3.5497    51.3008
 9366.0000    23.7310     3.2093    51.7642
 9366.5000    22.8777     2.0949    52.0883
 9367.0000    22.0884     1.9712    52.2733
 9367.5000    21.9471     1.7856    51.7158
 9368.0000    21.9479     1.0737    51.4367
 9368.5000    22.2590     0.5475    51.4420
 9369.0000    22.7219     1.9409    51.8992
 9369.5000    25.0554     2.4983    52.3625
 9370.0000    26.6816     1.6626    53.4291
 9370.5000    28.5087     0.9506    54.7278
 9371.0000    30.0262     0.3625    55.1911
 9371.5000    31.1760     2.5918    55.8401
 9372.0000    32.5118     3.3690    56.2570
 9372.5000    27.5936     3.3042    55.4675
 9373.0000    25.0147     3.6759    54.0565
 9373.5000    23.5075     2.5924    52.4283
 9374.0000    22.2189     2.1901    50.8249
 9374.5000    19.5759     2.8095    50.6850
 9375.0000    18.5404     3.4907    50.9628
 9375.5000    19.4797     3.1813    51.0551
 9376.0000    20.5029     2.5313    50.5902
 9376.5000    21.6479     0.5011    50.4967
 9377.0000    22.8588    -1.8028    50.6353
 9377.5000    23.9098    -0.2361    51.1540
 9378.0000    25.3765     1.3864    53.4997
 9378.5000    26.6652     0.8293    54.9022
 9379.0000    28.5012     1.6034    55.1335
 9379.5000    29.4157     1.1082    55.1329
 9380.0000    28.9078     1.4180    54.9466
 9380.5000    27.5534     1.9449    54.7139
 9381.0000    26.5527     1.5111    54.3884
 9381.5000    25.9220     2.6878    53.9701
 9382.0000    25.3814     3.3691    53.5462
 9382.5000    25.3820     3.5859    52.9740
 9383.0000    25.0720     2.6883    52.3901
 9383.5000    24.7622     1.5738    52.0646
 9384.0000    24.7627     2.3790    51.7391
 9384.5000    24.4129     2.0385    51.5992
 9385.0000    23.8324     0.8067    51.5522
 9385.5000    23.2619     0.1813    51.5979
 9386.0000    22.5714     0.4291    52.0148
 9386.5000    21.6604     1.9463    52.2477
 9387.0000    21.2398     2.5347    52.2919
 9387.5000    20.4193     2.0704    51.9198
 9388.0000    19.7078     3.2161    51.8263
 9388.5000    18.3774     3.0305    51.5472
 9389.0000    17.3156     2.1019    50.9897
 9389.5000    15.4030     2.3632    50.4786
 9390.0000    14.3819     3.3096    49.6427
 9390.5000    13.5907     2.9383    49.1315
 9391.0000    12.9592     4.0530    48.6646
 9391.5000    12.3496     4.9509    48.3353
 9392.0000    13.9032     5.6012    48.4333
 9392.5000    15.2578     4.0225    48.6182
 9393.0000    16.4197     3.4344    49.1280
 9393.5000    17.3212     3.1559    51.3083
 9394.0000    18.0637     3.3108    52.3749
 9394.5000    18.8852     2.4441    52.5136
 9395.0000    18.5653     3.0325    51.5847
 9395.5000    16.6070     3.1255    50.4657
 9396.0000    14.8398     1.6087    49.0981
 9396.5000    13.5252    -0.2488    48.3344
 9397.0000    12.5862     0.7731    48.7976
 9397.5000    12.0466    -0.2574    49.1681
 9398.0000    11.5654    -0.4031    49.3532
 9398.5000    11.3658     0.4639    49.1668
 9399.0000    11.1168    -0.8672    49.0269
 9399.5000    10.3455     0.9906    48.9798
 9400.0000    10.1453     1.3313    49.3967
 9400.5000     9.8764     0.3098    49.5353
 9401.0000    10.0088     0.8362    49.3488
 9401.5000    10.1882     1.5197    49.3947
 9402.0000    10.3000     0.6702    48.9762
 9402.5000    10.6119     0.4342    48.5579
 9403.0000    10.8132     0.7440    48.3252
 9403.5000    11.1224    -0.0299    48.1389
 9404.0000    11.3242     0.2489    48.1847
 9404.5000    11.4342    -2.0729    48.3232
 9405.0000    11.9277    -0.5279    48.4201
 9405.5000    12.5124    -0.8194    49.2498
 9406.0000    13.9205    -0.8317    49.7131
 9406.5000    14.7050     1.2147    50.3621
 9407.0000    15.1640     4.1211    51.3361
 9407.5000    15.4752     6.0039    50.9778
 9408.0000    15.4758     7.1310    50.6663
 9408.5000    15.4445     8.7590    50.1065
 9409.0000    14.8560    10.0901    49.4322
 9409.5000    14.5460    10.2448    49.1760
 9410.0000    15.1807     8.9133    49.2670
 9410.5000    16.1001     7.9844    48.7083
 9411.0000    17.0304     8.6344    49.2634
 9411.5000    18.2752     8.2743    49.3075
 9412.0000    19.2824     7.9839    49.6306
 9412.5000    20.2227     7.5193    49.6288
 9413.0000    21.0721     6.1879    49.8193
 9413.5000    21.5559     5.4447    50.1356
 9414.0000    21.6943     6.6798    49.8085
 9414.5000    21.0740     6.2803    49.7139
 9415.0000    20.6102     5.4133    49.6193
 9415.5000    20.1434     4.2925    49.8495
 9416.0000    19.8336     2.9946    51.2398
 9416.5000    19.3902     1.8525    51.8877
 9417.0000    19.1907     1.6356    52.1654
 9417.5000    18.9037     1.2949    51.6252
 9418.0000    18.7915     0.2421    50.8609
 9418.5000    18.2779    -0.9036    50.3023
 9419.0000    16.8512    -1.0585    49.8364
 9419.5000    14.2118    -0.9927    49.6031
 9420.0000    11.4534     0.5873    49.6936
 9420.5000    10.4646     2.2846    49.5990
 9421.0000     9.7540     4.2040    49.2260
 9421.5000     8.9709     5.2255    48.8065
 9422.0000     8.6609     4.9158    48.7579
 9422.5000     8.6615     4.5441    48.8489
 9423.0000     8.9727     5.1012    49.1255
 9423.5000     9.4276     4.1723    49.5413
 9424.0000     9.9395     3.2942    49.9108
 9424.5000    10.5274     2.8097    50.1874
 9425.0000    10.6528     2.4690    50.4640
 9425.5000    11.1637     2.4379    50.6497
 9426.0000    10.2188     2.3595    50.5246
 9426.5000     9.9087     1.3620    49.9013
 9427.0000     9.5988     2.0433    49.6211
 9427.5000     9.5994     2.9327    49.2480
 9428.0000     9.6000     2.0347    48.9678
 9428.5000     9.9112     2.9410    48.8268
 9429.0000    10.0866     4.0467    49.0106
 9429.5000    10.2229     3.2266    49.3336
 9430.0000     9.2920     1.9411    49.6614
 9430.5000     8.2061     1.5695    49.7477
 9431.0000     8.0509     1.6932    49.7918
 9431.5000    10.9789     2.0955    50.1148
 9432.0000    13.6705     2.5288    50.3915
 9432.5000    16.3622     2.4048    50.0648
 9433.0000    19.0538     2.9619    49.7382
 9433.5000    21.7455     2.3898    50.0148
 9434.0000    24.4371     1.5065    49.9135
 9434.5000    27.1288     0.5776    49.9884
 9435.0000    29.8204     1.5372    54.1389
 9435.5000    32.5907     0.5463    55.3436
 9436.0000    30.5454     2.0322    55.0634
 9436.5000    24.9074     2.8999    54.0407
