~VERSION INFORMATION
 VERS.               2.10:   CWLS LOG ASCII STANDARD - VERSION 2.10
 WRAP.                 NO:   ONE LINE PER DEPTH STEP
~WELL INFORMATION
#MNEM.UNIT      DATA TYPE    INFORMATION
#----------   ------------   ------------------------------
 STRT.F         8800.0000:   START DEPTH
 STOP.F        13240.0000:   STOP DEPTH
 STEP.F            0.5000:   STEP LENGTH
 NULL.          -999.2500:   NO VALUE
 COMP. Exxon Company, USA:   COMPANY
 WELL.     Howard Deem #1:   WELL
 FLD .            Wildcat:   FIELD
 LOC .        Wood County:   LOCATION
 STAT.      West Virginia:   STATE
 COUN.               Wood:   COUNTY
 CTRY.      Not Specified:   COUNTRY
 SRVC.       Schlumberger:   SERVICE COMPANY
 DATE.         11/22/1976:   LOGDATE
 APIN.             47-107:   API NUMBER
~CURVE INFORMATION
#MNEM.UNIT       API CODE    CURVE DESCRIPTION
#----------   ------------   ------------------------------
 DEPT.F                  :
 GR  .GAPI   60 310 00 00:   Gamma Ray
 DPHI.none   42 890 12 00:   Den. Porosity, Ss [%]
 DT  .us/f   60 520 00 00:   Delta t
~PARAMETER INFORMATION
#MNEM.UNIT          VALUE    DESCRIPTION
#----------   ------------   ------------------------------
 EKB .F          726.0000:   Kelly bushing
 EGL .F          693.0000:   Ground level
 EDF .F          723.0000:   Drilling floor
 EPD .F          693.0000:   Permanent datum
 TD  .F            0.0000:   Total depth
 NRUN.             2.0000:   Number of Runs
#--RUN 1---   ------------   The following are for Run 1---
 RUN .             1.0000:   Run 1
 DATE.mm/dd/yyyy 11/22/1976:   Date Logged
 DD  .ft            12850:   Depth Driller
 DL  .ft            12857:   Depth Logger
 BLI .ft            12857:   Bottom Log Interval
 TLI .ft             8530:   Top Log Interval
 CSS .inch        10  3/4:   Casing Size
 CTD1.ft             8737:   Casing Driller 1
 CTL1.ft             8735:   Casing Logger 1
 BS  .inch         9  1/2:   Bit Size
 DFT .          fresh gel:   Type Fluid In Hole
 DFPH.                 11:   pH
 DFL .mL                4:   Fluid Loss
 WSS .            mud pit:   Source Of Sample
 RM  .ohmm           .512:   Rm
 EMT .F                78:   Rm Meas. Temp.
 RMF .ohmm           .813:   Rmf
 MFT .F                53:   Rmf Meas. Temp.
 RMC .ohmm            .40:   Rmc
 MCST.F                75:   Rmc Meas. Temp.
 MFSS.                  M:   Source Rmf.
 MCSS.                  C:   Source Rmc.
 RMB .ohmm            .23:   Rm. At BHT
 BHT .F               179:   BHT.
 MRT .F               179:   Maximum Recorded Temp.
 ENGI.             Ashton:   Recorded By
 WITN.      Hurley-Fulton:   Witnessed By
 DGBY.   Rutledge & McCoy:   Digitized By
#--RUN 2---   ------------   The following are for Run 2---
 RUN .             2.0000:   Run 2
 DATE.mm/dd/yyyy 11/29/1976:   Date Logged
 DD  .ft            13266:   Depth Driller
 DL  .ft            13271:   Depth Logger
 BLI .ft            13268:   Bottom Log Interval
 TLI .ft            12660:   Top Log Interval
 CSS .inch        10  3/4:   Casing Size
 CTD1.ft             8736:   Casing Driller 1
 CTL1.ft             8736:   Casing Logger 1
 BS  .inch         9  1/2:   Bit Size
 DFT .          fresh gel:   Type Fluid In Hole
 DFPH.               10.7:   pH
 DFL .mL             95.9:   Fluid Loss
 WSS .           flowline:   Source Of Sample
 RM  .ohmm            .43:   Rm
 EMT .F                68:   Rm Meas. Temp.
 RMF .ohmm            .43:   Rmf
 MFT .F                58:   Rmf Meas. Temp.
 RMC .ohmm            .30:   Rmc
 MCST.F                75:   Rmc Meas. Temp.
 MFSS.                  M:   Source Rmf.
 MCSS.                  C:   Source Rmc.
 RMB .ohmm           .155:   Rm. At BHT
 BHT .F               185:   BHT.
 MRT .F               185:   Maximum Recorded Temp.
 ENGI.             Ashton:   Recorded By
 WITN.            Drennen:   Witnessed By
 DGBY.   Rutledge & McCoy:   Digitized By
~OTHER INFORMATION
# Run Two Starts at 12000 ft
~A  DEPTH       GR       DPHI         DT
# ...
11166.0000    15.3664   -10.1906    46.0585
11166.5000    15.8867    -7.5612    46.1559
11167.0000    15.9327    -7.6541    46.3876
11167.5000    15.9359    -6.8190    46.6556
11168.0000    17.7956    -7.9638    46.0962
11168.5000    19.3120    -8.8302    44.7021
11169.0000    20.4678    -6.2008    44.2365
11169.5000    21.8194    -4.0973    45.1161
11170.0000    23.0428    -4.0605    44.7424
11170.5000    24.6738    -6.5466    44.7314
11171.0000    22.4677    -5.9268    44.5972
11171.5000    23.7637    -3.7909    44.9426
11172.0000    25.6220    -1.4954    45.8474
11172.5000    28.1004     1.0879    45.7062
11173.0000    31.2233     3.9542    44.8224
11173.5000    29.1212     6.8204    44.6348
11174.0000    23.1412     8.1293    43.9831
11174.5000    20.7708     5.5729    44.7699
11175.0000    18.1203     2.8616    45.1003
11175.5000    17.2475     4.5287    44.5338
11176.0000    16.8260     5.2743    44.3926
11176.5000    16.3221     4.9029    47.5146
11177.0000    16.0249     5.3358    46.8474
11177.5000    16.0332     6.3256    43.1336
11178.0000    16.6648     5.2031    44.4304
11178.5000    18.4778     0.9993    44.1499
11179.0000    20.4873    -3.2044    43.2667
11179.5000    22.9206    -6.9465    43.5895
11180.0000    24.5280    -5.3774    42.4733
11180.5000    26.5312    -3.2821    41.6237
11181.0000    28.2418    -1.4404    42.9135
11181.5000    29.9531    -1.2549    46.5068
11182.0000    29.1915    -1.6882    46.9663
11182.5000    28.8901     0.5897    46.2213
11183.0000    28.7714     3.5985    46.3125
11183.5000    26.4988     3.3866    44.5931
11184.0000    16.0457     1.6832    45.2407
11184.5000    16.9829     2.7040    44.8674
11185.0000    18.0271     0.3260    44.4941
11185.5000    19.8704    -1.7511    43.0536
11186.0000    22.8036    -1.4728    43.6447
11186.5000    26.4636    -2.2464    44.1632
11187.0000    24.9297    -1.7516    44.8567
11187.5000    22.1702    -1.3805    44.8083
11188.0000    20.2583    -1.5972    44.8991
11188.5000    18.3985    -2.0923    45.4544
11189.0000    16.4035    -2.2781    44.5702
11189.5000    15.2991    -1.1336    45.0786
11190.0000    15.1716    -0.5460    44.8445
11190.5000    14.6912    -1.3471    44.1000
11191.0000    15.6359    -2.3406    44.3498
11191.5000    16.3807    -7.2286    44.6064
11192.0000    16.9012    -8.7137    44.3723
11192.5000    17.2170    -8.9304    44.8802
11193.0000    17.8484    -7.8478    44.8318
11193.5000    17.8567    -8.3120    44.5977
11194.0000    17.4955    -7.4150    43.7604
11194.5000    16.7904    -7.3842    43.8640
11195.0000    17.2592    -9.4942    43.7998
11195.5000    19.0058   -11.2515    44.8383
11196.0000    20.5526    -9.1790    45.4692
11196.5000    21.0779    -7.6632    44.9098
11197.0000    20.5744    -7.2613    45.3254
11197.5000    19.0381    -8.0657    45.0450
11198.0000    14.1944   -10.6026    45.1358
11198.5000    14.0776   -11.5309    45.6442
11199.0000    13.5865   -11.2172    45.5029
11199.5000    13.2851    -9.1801    45.6865
11200.0000    12.4607    -8.0665    46.0557
11200.5000    12.9887    -7.0148    45.3212
11201.0000    13.1906    -8.7165    43.8701
11201.5000    13.3167    -7.1418    42.5688
11202.0000    13.0139    -5.2211    43.5909
11202.5000    13.1955    -4.7572    41.9651
11203.0000    13.7171    -1.6080    43.3094
11203.5000    14.5968     2.7537    44.5146
11204.0000    15.2234     7.2077    42.5179
11204.5000    15.9880    11.8669    44.5900
11205.0000    18.0489    11.5647    45.2066
11205.5000    19.9703     6.8840    42.0498
11206.0000    18.6644     2.2032    43.5334
11206.5000    18.3842    -0.5172    44.0421
11207.0000    17.9672    -0.1768    45.3868
11207.5000    17.4633     0.2254    45.5707
11208.0000    16.7564     5.0700    46.9674
11208.5000    13.5583    13.6309    47.0994
11209.0000    12.8186    18.2951    45.3807
11209.5000    12.5151    16.4936    43.8020
11210.0000    12.5234    11.3872    43.5683
11210.5000    12.5323     6.2808    44.9126
11211.0000    12.8515     3.3211    43.4728
11211.5000    13.2234     0.1333    43.3786
11212.0000    13.4921    -0.8257    41.7475
11212.5000    14.6953    -4.5688    44.2112
11213.0000    16.4075    -4.1047    43.9314
11213.5000    17.8787    -4.9399    44.6722
11214.0000    19.0659    -2.7978    45.5061
11214.5000    20.4222     0.9091    46.7577
11215.0000    22.2654     4.6814    45.9210
11215.5000    23.5081     1.3867    44.3420
11216.0000    26.0188    -2.4492    44.8511
11216.5000    26.8428    -6.2850    42.0191
11217.0000    26.3147    -0.7252    45.1729
11217.5000    19.8136     5.0220    43.3618
11218.0000    17.5728     5.8365    41.6899
11218.5000    15.9676     9.4739    42.7558
11219.0000    14.8544    13.2203    45.5387
11219.5000    14.0866    11.6117    45.1661
11220.0000    13.6234    10.9312    42.4809
11220.5000    13.9450    10.0810    39.0381
11221.0000    14.2638     8.9425    46.4146
11221.5000    14.6887    10.1221    46.0420
11222.0000    16.4625    13.0970    46.4123
11222.5000    16.7809    14.5820    44.8332
11223.0000    17.1017    16.4382    46.9139
11223.5000    17.2182    14.6749    45.0622
11224.0000    16.0916    13.9326    42.9262
11224.5000    15.5683    16.7133    43.9918
11225.0000    15.5763    22.6838    42.5984
11225.5000    15.5846    23.4448    46.9126
11226.0000    15.9051    18.7050    44.0806
11226.5000    15.9128    13.9652    39.6709
11227.0000    15.9211     9.2254    39.0365
11227.5000    15.9304     8.8824    41.5708
11228.0000    15.4854    14.7416    42.7759
11228.5000    15.0109    20.4298    39.7583
11229.0000    15.0210    15.2014    42.2160
11229.5000    15.1493    18.3454    43.7924
11230.0000    15.0362    24.4061    42.6777
11230.5000    15.6693    24.3846    44.5786
11231.0000    16.1886    19.5571    43.4635
11231.5000    17.2421    14.7296    41.4204
11232.0000    18.4453    10.9627    43.2359
11232.5000    19.3703    10.4363    44.9441
11233.0000    20.3826     4.4256    44.2934
11233.5000    20.0209    -0.4164    45.5910
11234.0000    14.9225    -1.5647    44.9400
11234.5000    13.8658     0.0750    44.5214
11235.0000    13.7125     2.0859    45.8190
11235.5000    13.8816    -3.6270    44.8432
11236.0000    14.2026    -4.7199    44.8418
11236.5000    14.9630    -5.2148    44.4689
11237.0000    16.7701    -2.0469    43.8643
11237.5000    18.5892     1.2164    44.1414
11238.0000    20.5944     4.4796    44.9289
11238.5000    22.3427     6.0462    45.4847
11239.0000    22.4622     1.9377    44.7406
11239.5000    21.5559    -1.1927    44.7856
11240.0000    20.8103     1.1171    44.7274
11240.5000    20.6379     2.6857    44.0405
11241.0000    20.2024     4.6150    45.6629
11241.5000    20.8356     4.1905    45.7547
11242.0000    21.4752     3.8193    45.2426
11242.5000    22.4583     3.5645    44.9628
11243.0000    23.6646     3.5101    44.1726
11243.5000    25.1975     5.0879    38.9718
11244.0000    26.1719     6.4396    43.8926
11244.5000    24.9359     8.5197    44.1685
11245.0000    23.3392    10.5998    43.2852
11245.5000    21.8179    10.5329    44.7223
11246.0000    20.5998     7.7414    46.3451
11246.5000    20.1957     7.9347    45.6941
11247.0000    19.3688     8.6770    44.9967
11247.5000    17.8053     7.3672    44.5658
11248.0000    16.8142     5.0336    43.8803
11248.5000    15.9673     5.3601    45.1315
11249.0000    15.4943     7.1040    44.8982
11249.5000    14.9327    11.3183    45.9641
11250.0000    14.1234    20.6424    46.7984
11250.5000    15.5132    26.8369    42.9455
11251.0000    17.0956    26.9916    47.5378
11251.5000    20.3792    25.6763    45.3829
11252.0000    22.8785    23.3414    43.1734
11252.5000    22.2277    24.6717    39.1811
11253.0000    21.3390    29.3431    45.4439
11253.5000    20.9260    30.7662    50.7326
11254.0000    20.4195    31.6634    51.8916
11254.5000    20.4278    32.8700    49.0129
11255.0000    21.0120    33.1485    46.7378
11255.5000    22.3140    33.1486    45.3443
11256.0000    23.6130    33.0249    52.5820
11256.5000    23.8868    11.4009    46.4550
