~VERSION INFORMATION
 VERS.               2.10:   CWLS LOG ASCII STANDARD - VERSION 2.10
 WRAP.                 NO:   ONE LINE PER DEPTH STEP
~WELL INFORMATION
#MNEM.UNIT      DATA TYPE    INFORMATION
#----------   ------------   ------------------------------
 STRT.F         8800.0000:   START DEPTH
 STOP.F        13240.0000:   STOP DEPTH
 STEP.F            0.5000:   STEP LENGTH
 NULL.          -999.2500:   NO VALUE
 COMP. Exxon Company, USA:   COMPANY
 WELL.     Howard Deem #1:   WELL
 FLD .            Wildcat:   FIELD
 LOC .        Wood County:   LOCATION
 STAT.      West Virginia:   STATE
 COUN.               Wood:   COUNTY
 CTRY.      Not Specified:   COUNTRY
 SRVC.       Schlumberger:   SERVICE COMPANY
 DATE.         11/22/1976:   LOGDATE
 APIN.             47-107:   API NUMBER
~CURVE INFORMATION
#MNEM.UNIT       API CODE    CURVE DESCRIPTION
#----------   ------------   ------------------------------
 DEPT.F                  :
 GR  .GAPI   60 310 00 00:   Gamma Ray
 DPHI.none   42 890 12 00:   Den. Porosity, Ss [%]
 DT  .us/f   60 520 00 00:   Delta t
~PARAMETER INFORMATION
#MNEM.UNIT          VALUE    DESCRIPTION
#----------   ------------   ------------------------------
 EKB .F          726.0000:   Kelly bushing
 EGL .F          693.0000:   Ground level
 EDF .F          723.0000:   Drilling floor
 EPD .F          693.0000:   Permanent datum
 TD  .F            0.0000:   Total depth
 NRUN.             2.0000:   Number of Runs
#--RUN 1---   ------------   The following are for Run 1---
 RUN .             1.0000:   Run 1
 DATE.mm/dd/yyyy 11/22/1976:   Date Logged
 DD  .ft            12850:   Depth Driller
 DL  .ft            12857:   Depth Logger
 BLI .ft            12857:   Bottom Log Interval
 TLI .ft             8530:   Top Log Interval
 CSS .inch        10  3/4:   Casing Size
 CTD1.ft             8737:   Casing Driller 1
 CTL1.ft             8735:   Casing Logger 1
 BS  .inch         9  1/2:   Bit Size
 DFT .          fresh gel:   Type Fluid In Hole
 DFPH.                 11:   pH
 DFL .mL                4:   Fluid Loss
 WSS .            mud pit:   Source Of Sample
 RM  .ohmm           .512:   Rm
 EMT .F                78:   Rm Meas. Temp.
 RMF .ohmm           .813:   Rmf
 MFT .F                53:   Rmf Meas. Temp.
 RMC .ohmm            .40:   Rmc
 MCST.F                75:   Rmc Meas. Temp.
 MFSS.                  M:   Source Rmf.
 MCSS.                  C:   Source Rmc.
 RMB .ohmm            .23:   Rm. At BHT
 BHT .F               179:   BHT.
 MRT .F               179:   Maximum Recorded Temp.
 ENGI.             Ashton:   Recorded By
 WITN.      Hurley-Fulton:   Witnessed By
 DGBY.   Rutledge & McCoy:   Digitized By
#--RUN 2---   ------------   The following are for Run 2---
 RUN .             2.0000:   Run 2
 DATE.mm/dd/yyyy 11/29/1976:   Date Logged
 DD  .ft            13266:   Depth Driller
 DL  .ft            13271:   Depth Logger
 BLI .ft            13268:   Bottom Log Interval
 TLI .ft            12660:   Top Log Interval
 CSS .inch        10  3/4:   Casing Size
 CTD1.ft             8736:   Casing Driller 1
 CTL1.ft             8736:   Casing Logger 1
 BS  .inch         9  1/2:   Bit Size
 DFT .          fresh gel:   Type Fluid In Hole
 DFPH.               10.7:   pH
 DFL .mL             95.9:   Fluid Loss
 WSS .           flowline:   Source Of Sample
 RM  .ohmm            .43:   Rm
 EMT .F                68:   Rm Meas. Temp.
 RMF .ohmm            .43:   Rmf
 MFT .F                58:   Rmf Meas. Temp.
 RMC .ohmm            .30:   Rmc
 MCST.F                75:   Rmc Meas. Temp.
 MFSS.                  M:   Source Rmf.
 MCSS.                  C:   Source Rmc.
 RMB .ohmm           .155:   Rm. At BHT
 BHT .F               185:   BHT.
 MRT .F               185:   Maximum Recorded Temp.
 ENGI.             Ashton:   Recorded By
 WITN.            Drennen:   Witnessed By
 DGBY.   Rutledge & McCoy:   Digitized By
~OTHER INFORMATION
# Run Two Starts at 12000 ft
~A  DEPTH       GR       DPHI         DT
# ...
12622.0000   128.3875     4.8087    53.2176
12622.5000   117.2643     3.9645    53.3555
12623.0000   100.9206     3.1275    52.8405
12623.5000    84.5769     1.6198    52.2283
12624.0000    72.9587     2.3321    51.6705
12624.5000    75.9980     3.6641    51.0157
12625.0000    88.4382     3.2300    51.8062
12625.5000   100.8783     3.3846    51.4778
12626.0000   113.3185     4.0040    51.4297
12626.5000   125.7586     4.3445    51.9866
12627.0000   132.9691     4.5301    51.8447
12627.5000   135.8630     4.0030    51.0948
12628.0000   142.3000     3.1352    51.3307
12628.5000   148.5364     1.7716    51.5122
12629.0000   150.7224     1.0278    51.8360
12629.5000   151.9767     2.2358    52.2069
12630.0000   151.9888     2.4009    52.3919
12630.5000   151.0692     2.6070    52.3427
12631.0000   149.5285     3.4298    52.4339
12631.5000   147.6772     4.4964    52.5718
12632.0000   145.1799     2.4216    52.5697
12632.5000   143.2594     0.1890    52.3792
12633.0000   142.4340    -0.8648    51.7263
12633.5000   142.4491    -1.3608    52.1434
12634.0000   139.6662    -0.3696    52.2351
12634.5000   134.3988     0.5596    52.2797
12635.0000   130.9947     0.1831    50.9584
12635.5000   127.9012    -1.5170    45.1423
12636.0000   122.3232    -1.7652    52.3202
12636.5000   113.6100    -2.2302    50.9191
12637.0000   108.2831    -2.9432    50.0745
12637.5000   105.5923    -2.6956    50.3327
12638.0000   105.9150    -1.2397    50.2597
12638.5000   107.4799     0.1853    50.4908
12639.0000   108.1131     0.7502    51.1881
12639.5000   107.1935    -0.9730    51.3264
12640.0000   107.8267    -3.2995    50.9975
12640.5000   109.0810    -5.1761    50.2029
12641.0000   111.2819    -1.1463    50.9002
12641.5000   114.1545     2.1974    50.5252
12642.0000   110.0520     0.1102    51.1903
12642.5000   108.5113    -1.6270    51.3602
12643.0000   106.9706    -1.5109    50.7988
12643.5000   104.4982    -0.7163    51.2629
12644.0000   103.8861     0.5226    50.6543
12644.5000   105.4541     1.0801    50.3259
12645.0000   118.9348     1.2966    51.2568
12645.5000   133.1669     3.4963    51.1144
12646.0000   143.6901    -1.4885    51.3454
12646.5000   142.7705    -4.4363    52.3825
12647.0000   139.9876    -4.5295    52.7394
12647.5000   133.7145    -2.8546    52.3644
12648.0000   131.6266    -1.2149    51.5232
12648.5000   131.6418    -1.0293    50.9618
12649.0000   132.2750    -3.6597    50.6334
12649.5000   133.5293    -5.3366    51.0509
12650.0000   134.1595    -3.5955    51.4684
12650.5000   130.1941    -1.4938    50.9536
12651.0000   125.7961     0.0846    50.8583
12651.5000   123.6290    -0.7523    50.9029
12652.0000   113.1744    -4.8781    50.6206
12652.5000   101.7112    -7.5073    51.4111
12653.0000    90.2479    -6.4110    51.4562
12653.5000    79.2576    -2.6306    51.3138
12654.0000    80.9688     1.1499    50.2395
12654.5000    85.7975     0.5581    50.4705
12655.0000    83.6350    -0.3826    51.3076
12655.5000    75.2824     1.1803    51.3555
12656.0000    65.0083     2.6222    52.2133
12656.5000    55.3955     1.6613    53.0260
12657.0000    54.1674    -0.0474    53.4906
12657.5000    55.1105    -0.2518    53.6279
12658.0000    58.5357     0.4690    53.8124
12658.5000    61.9609    -0.9425    52.6453
12659.0000    68.8023     0.6965    57.1744
12659.5000    71.9170     2.1552    62.1982
12660.0000    79.6900     4.4167    51.8617
12660.5000    76.9041     4.9741    44.7203
12661.0000    63.5591     5.5005    49.6506
12661.5000    62.0154     6.2129    51.7931
12662.0000    63.9351     2.3547    53.1896
12662.5000    62.3464    -2.1224    53.0011
12663.0000    61.4216    -0.6217    53.2345
12663.5000    66.0913     1.9563    53.7231
12664.0000    70.4482     4.5344    53.9274
12664.5000    78.2213     6.6138    53.6456
12665.0000    77.9198     4.5375    53.8301
12665.5000    74.8233     4.4443    53.5012
12666.0000    74.5144     3.7004    52.7532
12666.5000    80.9907     3.3840    53.1707
12667.0000    92.6251     3.3129    53.6350
12667.5000   104.2595     3.2037    53.4464
12668.0000   115.8940     4.1019    53.5842
12668.5000   127.6743     4.5664    53.0692
12669.0000   126.1306     4.2562    50.5493
12669.5000   116.5437     3.7292    47.3776
12670.0000   104.3951     1.4039    53.7620
12670.5000    95.4133    -0.9809    55.7646
12671.0000    93.2484    -1.2563    51.1477
12671.5000    96.1573    -0.5776    51.6113
12672.0000   103.5173     1.8583    51.1897
12672.5000   110.3587     4.2231    51.1877
12673.0000   112.2311     3.4650    51.2789
12673.5000   116.5880     1.1858    50.2041
12674.0000   118.4605     0.4989    50.8081
12674.5000   119.4012     0.6277    50.2937
12675.0000   120.0832    -0.8000    49.5452
12675.5000   119.4194    -1.6695    50.0094
12676.0000   118.1738     0.7162    50.8004
12676.5000   115.2663     2.6714    50.9843
12677.0000   113.5460     2.9190    52.0546
12677.5000   116.6630     3.4022    51.0341
12678.0000   125.6696     4.2143    51.1642
12678.5000   136.3688     5.0263    51.4424
12679.0000   147.0680     5.8093    51.2533
12679.5000   157.7672     5.7369    51.9506
12680.0000   160.0891     4.1564    52.5546
12680.5000   152.3768     3.7533    52.5059
12681.0000   144.6646     3.3193    51.9911
12681.5000   136.9523     2.7613    51.1965
12682.0000   129.7905     4.4973    51.2123
12682.5000   130.7312     5.9787    51.9378
12683.0000   134.4670     7.1911    52.4486
12683.5000   138.5134     6.9428    53.0060
12684.0000   146.9075     6.4359    53.0040
12684.5000   144.7427     8.0537    53.4681
12685.0000   129.5014     8.8010    54.1654
12685.5000   108.8191     7.4917    54.6296
12686.0000    88.1368     6.4137    54.6260
12686.5000    67.4545     5.2368    54.8156
12687.0000    46.6522     4.9887    54.2499
12687.5000    60.6618     3.9659    53.8283
12688.0000    74.7531     3.4699    53.5932
12688.5000    88.8444     3.2452    52.7053
12689.0000   102.9357     3.5312    52.8437
12689.5000   117.0270     3.2211    51.8621
12690.0000   131.1183     4.4601    52.2330
12690.5000   138.2515     3.9640    51.9979
12691.0000   131.5103     5.1100    51.5762
12691.5000   124.7690     7.7412    52.1317
12692.0000   118.0277    10.3724    52.7377
12692.5000   112.7922    10.3393    51.5230
12693.0000   111.9809     7.8032    50.9149
12693.5000   120.1658     5.6043    50.2602
12694.0000   138.8008     4.8294    50.6777
12694.5000   157.4358     4.3334    51.3750
12695.0000   173.5101     4.5987    52.3519
12695.5000   174.7592     5.4505    53.2401
12696.0000   171.0439     5.2929    53.9329
12696.5000   165.6245     4.7350    53.6507
12697.0000   158.7479     5.1684    53.8351
12697.5000   151.9854     4.2696    54.2526
12698.0000   148.1011     5.6635    53.1783
12698.5000   149.6630     5.1984    52.6168
12699.0000   155.5726     4.4774    52.3351
12699.5000   161.7929     4.7020    51.0277
12700.0000   165.5287     4.9187    51.6317
12700.5000   168.9643     2.4324    52.4737
12701.0000   166.1933     2.7292    52.2798
12701.5000   164.0390     4.1121    53.3034
12702.0000   153.1891     4.0607    53.5350
12702.5000   145.7554     4.6073    53.0196
12703.0000   142.3589     6.0164    52.3182
12703.5000   142.9996     6.3108    51.9432
12704.0000   145.5038     5.1330    51.1487
12704.5000   150.4924     4.4821    51.4263
12705.0000   153.6431     3.6452    52.1273
12705.5000   154.2633     5.2870    52.6805
12706.0000   153.6569     6.2782    53.1912
12706.5000   152.4343     5.4720    53.7020
12707.0000   151.2167     4.8238    54.0268
12707.5000   148.4413     4.6444    53.7917
12708.0000   141.9392     4.3601    54.3486
12708.5000   136.6794     2.8455    54.1134
12709.0000   136.0776     1.3308    52.8993
12709.5000   136.4603    -0.1839    51.3379
12710.0000   139.2736     0.7581    50.9838
12710.5000   141.1107     4.1506    51.7271
12711.0000   140.1987     4.8691    52.0053
12711.5000   139.2867     3.8674    51.5366
12712.0000   136.5113     2.6953    50.6021
12712.5000   129.5241     1.9520    50.5068
