~VERSION INFORMATION
 VERS.               2.10:   CWLS LOG ASCII STANDARD - VERSION 2.10
 WRAP.                 NO:   ONE LINE PER DEPTH STEP
~WELL INFORMATION
#MNEM.UNIT      DATA TYPE    INFORMATION
#----------   ------------   ------------------------------
 STRT.F         8800.0000:   START DEPTH
 STOP.F        13240.0000:   STOP DEPTH
 STEP.F            0.5000:   STEP LENGTH
 NULL.          -999.2500:   NO VALUE
 COMP. Exxon Company, USA:   COMPANY
 WELL.     Howard Deem #1:   WELL
 FLD .            Wildcat:   FIELD
 LOC .        Wood County:   LOCATION
 STAT.      West Virginia:   STATE
 COUN.               Wood:   COUNTY
 CTRY.      Not Specified:   COUNTRY
 SRVC.       Schlumberger:   SERVICE COMPANY
 DATE.         11/22/1976:   LOGDATE
 APIN.             47-107:   API NUMBER
~CURVE INFORMATION
#MNEM.UNIT       API CODE    CURVE DESCRIPTION
#----------   ------------   ------------------------------
 DEPT.F                  :
 GR  .GAPI   60 310 00 00:   Gamma Ray
 DPHI.none   42 890 12 00:   Den. Porosity, Ss [%]
 DT  .us/f   60 520 00 00:   Delta t
~PARAMETER INFORMATION
#MNEM.UNIT          VALUE    DESCRIPTION
#----------   ------------   ------------------------------
 EKB .F          726.0000:   Kelly bushing
 EGL .F          693.0000:   Ground level
 EDF .F          723.0000:   Drilling floor
 EPD .F          693.0000:   Permanent datum
 TD  .F            0.0000:   Total depth
 NRUN.             2.0000:   Number of Runs
#--RUN 1---   ------------   The following are for Run 1---
 RUN .             1.0000:   Run 1
 DATE.mm/dd/yyyy 11/22/1976:   Date Logged
 DD  .ft            12850:   Depth Driller
 DL  .ft            12857:   Depth Logger
 BLI .ft            12857:   Bottom Log Interval
 TLI .ft             8530:   Top Log Interval
 CSS .inch        10  3/4:   Casing Size
 CTD1.ft             8737:   Casing Driller 1
 CTL1.ft             8735:   Casing Logger 1
 BS  .inch         9  1/2:   Bit Size
 DFT .          fresh gel:   Type Fluid In Hole
 DFPH.                 11:   pH
 DFL .mL                4:   Fluid Loss
 WSS .            mud pit:   Source Of Sample
 RM  .ohmm           .512:   Rm
 EMT .F                78:   Rm Meas. Temp.
 RMF .ohmm           .813:   Rmf
 MFT .F                53:   Rmf Meas. Temp.
 RMC .ohmm            .40:   Rmc
 MCST.F                75:   Rmc Meas. Temp.
 MFSS.                  M:   Source Rmf.
 MCSS.                  C:   Source Rmc.
 RMB .ohmm            .23:   Rm. At BHT
 BHT .F               179:   BHT.
 MRT .F               179:   Maximum Recorded Temp.
 ENGI.             Ashton:   Recorded By
 WITN.      Hurley-Fulton:   Witnessed By
 DGBY.   Rutledge & McCoy:   Digitized By
#--RUN 2---   ------------   The following are for Run 2---
 RUN .             2.0000:   Run 2
 DATE.mm/dd/yyyy 11/29/1976:   Date Logged
 DD  .ft            13266:   Depth Driller
 DL  .ft            13271:   Depth Logger
 BLI .ft            13268:   Bottom Log Interval
 TLI .ft            12660:   Top Log Interval
 CSS .inch        10  3/4:   Casing Size
 CTD1.ft             8736:   Casing Driller 1
 CTL1.ft             8736:   Casing Logger 1
 BS  .inch         9  1/2:   Bit Size
 DFT .          fresh gel:   Type Fluid In Hole
 DFPH.               10.7:   pH
 DFL .mL             95.9:   Fluid Loss
 WSS .           flowline:   Source Of Sample
 RM  .ohmm            .43:   Rm
 EMT .F                68:   Rm Meas. Temp.
 RMF .ohmm            .43:   Rmf
 MFT .F                58:   Rmf Meas. Temp.
 RMC .ohmm            .30:   Rmc
 MCST.F                75:   Rmc Meas. Temp.
 MFSS.                  M:   Source Rmf.
 MCSS.                  C:   Source Rmc.
 RMB .ohmm           .155:   Rm. At BHT
 BHT .F               185:   BHT.
 MRT .F               185:   Maximum Recorded Temp.
 ENGI.             Ashton:   Recorded By
 WITN.            Drennen:   Witnessed By
 DGBY.   Rutledge & McCoy:   Digitized By
~OTHER INFORMATION
# Run Two Starts at 12000 ft
~A  DEPTH       GR       DPHI         DT
 8800.0000    15.5280  -999.2500    51.7633
 8800.5000    15.8458     1.3407    51.4376
 8801.0000    16.1636     2.8691    51.5757
 8801.5000    16.1709     2.8072    51.8070
 8802.0000    16.6876     2.9927    51.1562
 8802.5000    17.3025     4.2301    50.7841
 8803.0000    18.6772     3.4566    51.0152
 8803.5000    19.8830     3.2090    53.8913
 8804.0000    22.0595     4.0036    55.4682
 8804.5000    23.3574     5.3435    56.2097
 8805.0000    23.1778     4.1059    56.7611
 8805.5000    22.6694     2.7877    55.0837
 8806.0000    21.5159    -0.6892    53.1329
 8806.5000    15.8561    -0.4418    52.2959
 8807.0000    15.0087     0.4008    51.3196
 8807.5000    14.7050     2.5278    50.4825
 8808.0000    14.6416     3.0846    50.3788
 8808.5000    14.7200     5.0025    51.2798
 8809.0000    14.5856     4.9715    51.7764
 8809.5000    14.3591     4.5067    51.0781
 8810.0000    14.1201     3.0433    50.2874
 8810.5000    13.6530     3.9813    49.7288
 8811.0000    12.8348     4.3216    49.3094
 8811.5000    12.2791     4.5999    48.9363
 8812.0000    12.1324     4.8164    48.8380
 8812.5000    12.6549     6.5797    49.1692
 8813.0000    13.2326     5.6170    49.6495
 8813.5000    13.7009     5.3111    50.2280
 8814.0000    14.8445     6.8578    50.5046
 8814.5000    15.4284     6.4556    50.4564
 8815.0000    15.8905     6.1462    50.2226
 8815.5000    16.1023     3.4547    50.0352
 8816.0000    16.6924     3.5943    50.0334
 8816.5000    17.1485     3.4545    50.3579
 8817.0000    17.6699     3.4235    50.7976
 8817.5000    18.2671     4.1349    51.4665
 8818.0000    19.1597     4.5680    49.7009
 8818.5000    20.5593     3.5780    50.2095
 8819.0000    22.6367     2.7736    54.1557
 8819.5000    23.5161     3.9082    62.9093
 8820.0000    24.5557     4.8749    71.6628
 8820.5000    25.4536     5.0935    74.6572
 8821.0000    25.2197     5.7493    73.9125
 8821.5000    23.8690     6.8863    73.0290
 8822.0000    22.9896     7.4753    65.8713
 8822.5000    23.2249    10.6839    48.8025
 8823.0000    23.9358    14.6236    50.6105
 8823.5000    23.6339    18.5634    51.4904
 8824.0000    23.2213    22.6954    51.9063
 8824.5000    22.7153    10.8027    51.9508
 8825.0000    22.9296     0.2162    52.6488
 8825.5000    23.1419    -1.6157    52.1788
 8826.0000    23.6688    -3.1672    51.9449
 8826.5000    27.1476    -2.4558    51.8967
 8827.0000    29.1523    -3.0746    52.1734
 8827.5000    30.0418    -3.0437    52.9140
 8828.0000    30.9187    -5.6837    54.5827
 8828.5000    31.5577    -8.7360    54.6798
 8829.0000    32.0975    -8.1174    54.2955
 8829.5000    32.4151    -5.2336    53.9272
 8830.0000    32.1106    -2.1469    53.9718
 8830.5000    32.1194    -3.2298    54.8053
 8831.0000    32.1263    -3.5083    55.4068
 8831.5000    32.0572    -1.9616    55.6370
 8832.0000    31.0107    -1.9926    55.4032
 8832.5000    29.5143    -3.1582    54.8445
 8833.0000    28.0178    -4.5604    54.5164
 8833.5000    26.5214    -4.8080    54.5160
 8834.0000    25.0249    -3.2091    54.4674
 8834.5000    23.5285    -1.7146    54.3264
 8835.0000    22.0321    -3.3325    54.1390
 8835.5000    20.5214    -4.2205    53.6732
 8836.0000    19.4076    -3.7875    53.0681
 8836.5000    18.5421    -2.1823    52.3238
 8837.0000    18.2381    -1.1271    51.4404
 8837.5000    17.9341    -1.9316    50.6259
 8838.0000    17.9428    -0.3386    50.1834
 8838.5000    18.4111     1.6259    50.2744
 8839.0000    19.2441     2.5011    50.3193
 8839.5000    19.8280     3.5438    50.8277
 8840.0000    20.4352     4.0696    51.1971
 8840.5000    21.4337     5.6163    51.4273
 8841.0000    22.0237     5.0476    51.5183
 8841.5000    22.0300     3.4156    51.7111
 8842.0000    22.0705     3.1103    51.7467
 8842.5000    22.9772     3.2151    51.6981
 8843.0000    23.4260     3.7907    51.9747
 8843.5000    23.9769     4.8564    52.2455
 8844.0000    24.8624     6.7604    52.6207
 8844.5000    25.3051     4.1912    52.5725
 8845.0000    25.8496     2.0384    52.8956
 8845.5000    27.0581     3.3572    53.5037
 8846.0000    27.4947     3.8521    53.5876
 8846.5000    27.6923     3.8211    54.2818
 8847.0000    26.7694     2.8731    54.7441
 8847.5000    25.0787     0.0410    54.9283
 8848.0000    23.3584    -2.1188    54.7405
 8848.5000    22.7540    -1.5912    54.2282
 8849.0000    23.0704     0.1394    53.8552
 8849.5000    23.3923     0.3868    54.0446
 8850.0000    24.2236    -0.8198    54.2228
 8850.5000    24.8479     0.2516    53.5709
 8851.0000    25.5839     2.1190    53.1051
 8851.5000    26.1023     0.3411    52.7784
 8852.0000    26.9361     0.0152    52.8694
 8852.5000    27.7797     2.1187    53.1461
 8853.0000    28.6025     3.4179    53.4691
 8853.5000    29.1257     2.9538    53.4673
 8854.0000    29.6648     2.5516    53.5710
 8854.5000    29.8604     2.4278    54.2521
 8855.0000    30.3829     1.3968    54.8535
 8855.5000    30.6183     1.8725    54.5733
 8856.0000    30.3147     0.8807    54.4787
 8856.5000    30.6325     1.0044    54.5697
 8857.0000    30.6402     0.0144    54.9391
 8857.5000    29.8102    -0.8210    54.9374
 8858.0000    27.9579    -0.6664    54.2289
 8858.5000    27.2453     0.2926    53.6804
 8859.0000    27.2526     0.6637    53.8642
 8859.5000    27.5704     0.2924    53.9557
 8860.0000    27.8888    -1.6876    53.7214
 8860.5000    27.2582    -1.4711    53.6736
 8861.0000    26.6022    -1.2855    54.1818
 8861.5000    26.0473    -1.7187    53.8088
 8862.0000    25.8965    -1.8116    53.1874
 8862.5000    25.7498    -1.3672    51.7166
 8863.0000    26.0691    -0.8837    50.9723
 8863.5000    27.4611    -1.1931    50.6457
 8864.0000    28.9685    -0.8777    50.8759
 8864.5000    30.1282     1.9931    51.8486
 8865.0000    30.7557     1.9066    53.0069
 8865.5000    31.1522     1.0753    53.7939
 8866.0000    32.0134    -0.3273    54.4032
 8866.5000    32.6077     0.7863    53.9755
 8867.0000    33.3023     1.0956    53.8809
 8867.5000    33.5880    -0.5750    54.1575
 8868.0000    34.3484    -0.7916    54.6662
 8868.5000    35.1805    -0.4514    55.2676
 8869.0000    35.7837    -1.1012    55.9619
 8869.5000    35.9165    -0.5105    56.1921
 8870.0000    36.4182    -1.0913    56.7007
 8870.5000    36.4267    -1.6273    56.4327
 8871.0000    35.8822    -0.5137    56.3718
 8871.5000    34.5625     0.0121    56.7413
 8872.0000    33.9640     0.6617    57.2499
 8872.5000    31.9964     1.9919    57.5265
 8873.0000    29.6034     2.9904    57.1999
 8873.5000    27.2103     4.1263    56.2236
 8874.0000    24.8172     3.0744    54.7795
 8874.5000    22.4241     2.1772    52.7847
 8875.0000    20.0311     2.5793    51.1598
 8875.5000    19.2125     2.9504    50.5083
 8876.0000    19.1125     3.0122    51.1562
 8876.5000    19.4318     4.0640    52.0824
 8877.0000    20.1468     2.0840    53.0551
 8877.5000    21.9005     2.2386    54.1206
 8878.0000    23.4909     3.4759    55.1397
 8878.5000    23.8085     3.0428    54.0880
 8879.0000    23.5040     1.8053    53.0010
 8879.5000    23.5127     0.9262    52.5816
 8880.0000    22.8360     1.2483    51.9766
 8880.5000    22.5941     0.8770    51.4179
 8881.0000    22.9134     3.3517    51.1381
 8881.5000    23.4107     5.4244    51.8783
 8882.0000    24.0832     3.7228    52.4798
 8882.5000    24.5178     2.9803    53.2669
 8883.0000    24.6683     3.4442    52.7542
 8883.5000    26.3645     3.0729    53.0772
 8884.0000    24.7081     2.5961    53.6322
 8884.5000    23.2459     2.0209    54.4657
 8885.0000    21.7838     3.0727    54.9748
 8885.5000    20.3216     2.5776    53.4876
 8886.0000    18.8594     1.5257    52.7898
 8886.5000    17.3972     2.5205    52.3149
 8887.0000    15.9350     4.0576    51.5176
 8887.5000    14.5176     5.4234    50.6957
 8888.0000    13.6985     3.0103    49.8123
 8888.5000    13.2432     3.5671    49.1144
 8889.0000    13.0905     3.4742    48.9270
 8889.5000    13.0992     3.1648    48.8792
 8890.0000    13.4161     2.4994    49.2482
 8890.5000    13.4234     3.8452    49.5723
