~VERSION INFORMATION
 VERS.               2.10:   CWLS LOG ASCII STANDARD - VERSION 2.10
 WRAP.                 NO:   ONE LINE PER DEPTH STEP
~WELL INFORMATION
#MNEM.UNIT      DATA TYPE    INFORMATION
#----------   ------------   ------------------------------
 STRT.F         8800.0000:   START DEPTH
 STOP.F        13240.0000:   STOP DEPTH
 STEP.F            0.5000:   STEP LENGTH
 NULL.          -999.2500:   NO VALUE
 COMP. Exxon Company, USA:   COMPANY
 WELL.     Howard Deem #1:   WELL
 FLD .            Wildcat:   FIELD
 LOC .        Wood County:   LOCATION
 STAT.      West Virginia:   STATE
 COUN.               Wood:   COUNTY
 CTRY.      Not Specified:   COUNTRY
 SRVC.       Schlumberger:   SERVICE COMPANY
 DATE.         11/22/1976:   LOGDATE
 APIN.             47-107:   API NUMBER
~CURVE INFORMATION
#MNEM.UNIT       API CODE    CURVE DESCRIPTION
#----------   ------------   ------------------------------
 DEPT.F                  :
 GR  .GAPI   60 310 00 00:   Gamma Ray
 DPHI.none   42 890 12 00:   Den. Porosity, Ss [%]
 DT  .us/f   60 520 00 00:   Delta t
~PARAMETER INFORMATION
#MNEM.UNIT          VALUE    DESCRIPTION
#----------   ------------   ------------------------------
 EKB .F          726.0000:   Kelly bushing
 EGL .F          693.0000:   Ground level
 EDF .F          723.0000:   Drilling floor
 EPD .F          693.0000:   Permanent datum
 TD  .F            0.0000:   Total depth
 NRUN.             2.0000:   Number of Runs
#--RUN 1---   ------------   The following are for Run 1---
 RUN .             1.0000:   Run 1
 DATE.mm/dd/yyyy 11/22/1976:   Date Logged
 DD  .ft            12850:   Depth Driller
 DL  .ft            12857:   Depth Logger
 BLI .ft            12857:   Bottom Log Interval
 TLI .ft             8530:   Top Log Interval
 CSS .inch        10  3/4:   Casing Size
 CTD1.ft             8737:   Casing Driller 1
 CTL1.ft             8735:   Casing Logger 1
 BS  .inch         9  1/2:   Bit Size
 DFT .          fresh gel:   Type Fluid In Hole
 DFPH.                 11:   pH
 DFL .mL                4:   Fluid Loss
 WSS .            mud pit:   Source Of Sample
 RM  .ohmm           .512:   Rm
 EMT .F                78:   Rm Meas. Temp.
 RMF .ohmm           .813:   Rmf
 MFT .F                53:   Rmf Meas. Temp.
 RMC .ohmm            .40:   Rmc
 MCST.F                75:   Rmc Meas. Temp.
 MFSS.                  M:   Source Rmf.
 MCSS.                  C:   Source Rmc.
 RMB .ohmm            .23:   Rm. At BHT
 BHT .F               179:   BHT.
 MRT .F               179:   Maximum Recorded Temp.
 ENGI.             Ashton:   Recorded By
 WITN.      Hurley-Fulton:   Witnessed By
 DGBY.   Rutledge & McCoy:   Digitized By
#--RUN 2---   ------------   The following are for Run 2---
 RUN .             2.0000:   Run 2
 DATE.mm/dd/yyyy 11/29/1976:   Date Logged
 DD  .ft            13266:   Depth Driller
 DL  .ft            13271:   Depth Logger
 BLI .ft            13268:   Bottom Log Interval
 TLI .ft            12660:   Top Log Interval
 CSS .inch        10  3/4:   Casing Size
 CTD1.ft             8736:   Casing Driller 1
 CTL1.ft             8736:   Casing Logger 1
 BS  .inch         9  1/2:   Bit Size
 DFT .          fresh gel:   Type Fluid In Hole
 DFPH.               10.7:   pH
 DFL .mL             95.9:   Fluid Loss
 WSS .           flowline:   Source Of Sample
 RM  .ohmm            .43:   Rm
 EMT .F                68:   Rm Meas. Temp.
 RMF .ohmm            .43:   Rmf
 MFT .F                58:   Rmf Meas. Temp.
 RMC .ohmm            .30:   Rmc
 MCST.F                75:   Rmc Meas. Temp.
 MFSS.                  M:   Source Rmf.
 MCSS.                  C:   Source Rmc.
 RMB .ohmm           .155:   Rm. At BHT
 BHT .F               185:   BHT.
 MRT .F               185:   Maximum Recorded Temp.
 ENGI.             Ashton:   Recorded By
 WITN.            Drennen:   Witnessed By
 DGBY.   Rutledge & McCoy:   Digitized By
~OTHER INFORMATION
# Run Two Starts at 12000 ft
~A  DEPTH       GR       DPHI         DT
# ...
 9073.0000    16.3140     2.4374    50.5629
 9073.5000    16.9167     2.2516    51.2926
 9074.0000    17.6546     2.4987    50.9194
 9074.5000    18.4812     1.6820    50.4074
 9075.0000    18.9955     0.3944    49.7562
 9075.5000    19.9200     0.2394    50.1722
 9076.0000    21.5901    -0.2247    51.7484
 9076.5000    23.9835    -1.9275    52.9069
 9077.0000    27.2034    -1.8529    54.1118
 9077.5000    29.3635    -0.4065    53.8782
 9078.0000    30.6889     1.0399    54.0619
 9078.5000    32.2948     1.7245    54.5711
 9079.0000    32.5214     0.0516    52.5738
 9079.5000    31.7014     1.0023    52.0154
 9080.0000    31.2419     2.0619    51.5498
 9080.5000    32.7985     1.2793    51.7802
 9081.0000    33.8752     2.5382    59.6921
 9081.5000    34.7356     3.3897    68.0451
 9082.0000    35.6029     2.6484    76.1374
 9082.5000    36.1005     4.4932    73.3307
 9083.0000    35.2980     9.2376    63.7961
 9083.5000    35.3018    14.4269    53.0696
 9084.0000    35.4145    20.9611    51.2123
 9084.5000    36.5507    28.2926    54.7834
 9085.0000    36.6607    26.3818    55.2673
 9085.5000    36.0576    23.4360    53.7130
 9086.0000    35.3169    17.0378    53.4229
 9086.5000    35.3199    -0.0700    52.2709
 9087.0000    35.6335    -1.5462    53.6059
 9087.5000    39.9847    -4.1866    65.3596
 9088.0000    41.9129    -2.6453    76.5819
 9088.5000    43.0959    -0.1831    77.9724
 9089.0000    40.2064     1.6851    66.3645
 9089.5000    37.6247     3.9749    52.5396
 9090.0000    35.0429     6.5690    51.2851
 9090.5000    32.4612     9.6346    50.2627
 9091.0000    31.6209    11.7846    51.8388
 9091.5000    31.6247    14.6147    52.9509
 9092.0000    31.6273    10.2524    53.9238
 9092.5000    31.6124     1.7757    54.4791
 9093.0000    30.3918    -1.0707    53.9147
 9093.5000    26.1334    -1.0710    53.2487
 9094.0000    25.1160    -1.3498    52.4786
 9094.5000    24.8106    -1.3501    51.4561
 9095.0000    24.8137    -2.4331    50.8049
 9095.5000    24.8169    -3.6090    51.2674
 9096.0000    25.3182    -4.1352    51.8690
 9096.5000    28.7079    -3.6510    52.5171
 9097.0000    29.1741    -1.7229    53.2116
 9097.5000    28.8343    -1.8469    52.5880
 9098.0000    28.1854    -1.6306    51.8623
 9098.5000    27.6307    -0.4128    51.9076
 9099.0000    27.1672     0.5330    52.0912
 9099.5000    26.6580    -1.5191    52.4608
 9100.0000    26.3975    -4.2924    52.8773
 9100.5000    26.4006    -4.9113    52.4577
 9101.0000    26.3737    -2.4684    52.7345
 9101.5000    26.3287    -0.7665    52.8722
 9102.0000    26.7205    -1.4784    52.5205
 9102.5000    27.0341    -0.7363    51.8477
 9103.0000    26.4167    -1.6112    51.4285
 9103.5000    26.0015    -1.2319    51.1949
 9104.0000    25.4907    -0.6135    51.0077
 9104.5000    24.9835    -0.1188    50.7277
 9105.0000    24.4740     0.9836    50.4941
 9105.5000    24.2578     2.8386    51.1422
 9106.0000    24.2609     4.6935    51.8950
 9106.5000    24.2640     3.4399    52.6236
 9107.0000    24.2673     1.3749    52.8544
 9107.5000    23.9596    -1.0085    52.4473
 9108.0000    23.5344    -0.8535    52.0675
 9108.5000    21.7922    -2.4000    51.4491
 9109.0000    19.1673    -2.2103    51.0759
 9109.5000    17.9873    -1.9258    50.7954
 9110.0000    17.1433    -1.7803    50.9790
 9110.5000    17.1460    -0.4398    51.1162
 9111.0000    17.1643     1.1942    51.1141
 9111.5000    17.4673     2.9847    50.9729
 9112.0000    17.7703     2.0281    51.4808
 9112.5000    18.0732     0.8817    51.8500
 9113.0000    18.3762    -0.2936    52.1733
 9113.5000    18.6792    -0.4480    51.8923
 9114.0000    18.9821     0.0878    51.4727
 9114.5000    19.2851     0.3024    51.5170
 9115.0000    19.5881     1.9311    51.6542
 9115.5000    18.6487     3.8844    51.7914
 9116.0000    18.1120     2.6467    51.9764
 9116.5000    18.1149     0.8121    52.1585
 9117.0000    18.4286    -0.7551    52.5736
 9117.5000    18.7425    -1.5022    52.7577
 9118.0000    19.2142    -1.1243    52.6165
 9118.5000    19.8275    -0.7464    53.0785
 9119.0000    21.2364    -0.3684    52.7975
 9119.5000    21.6919     0.0095    52.8419
 9120.0000    21.8634     0.3874    52.8926
 9120.5000    21.8669     0.7653    52.2346
 9121.0000    21.8696     1.1654    52.2473
 9121.5000    22.2002    -0.0429    52.9724
 9122.0000    23.1186    -1.1233    53.4814
 9122.5000    24.2724    -0.9373    53.2468
 9123.0000    24.9876    -1.1536    53.1055
 9123.5000    24.9907    -1.3080    52.5931
 9124.0000    25.0869    -0.8175    52.4518
 9124.5000    27.1709    -0.3261    52.7746
 9125.0000    28.7884    -1.0588    53.6542
 9125.5000    29.4281    -0.7375    53.8875
 9126.0000    30.2859    -0.6203    54.5078
 9126.5000    31.1650    -1.1225    55.5038
 9127.0000    31.8447    -0.2920    55.9194
 9127.5000    32.1587     1.8755    55.7317
 9128.0000    32.6264     4.3560    53.9664
 9128.5000    31.2435     2.4074    53.0826
 9129.0000    27.8305     1.2113    51.5957
 9129.5000    25.0620    -2.4184    51.0832
 9130.0000    24.6916    -3.3117    51.6380
 9130.5000    24.4130    -1.7640    52.1962
 9131.0000    24.4161     0.3054    52.1825
 9131.5000    24.4582     0.5841    51.9098
 9132.0000    25.9757     2.7400    52.2790
 9132.5000    26.7052     4.3588    52.6482
 9133.0000    27.2236     4.6412    52.7854
 9133.5000    28.0462     5.9681    53.5722
 9134.0000    28.4720     5.4735    53.7563
 9134.5000    28.4753     6.5391    53.6610
 9135.0000    27.9856     6.3403    53.2382
 9135.5000    27.1660     5.7468    52.7634
 9136.0000    26.6213     4.9748    53.0047
 9136.5000    25.6716     4.7326    53.4208
 9137.0000    24.5926     5.9533    53.0935
 9137.5000    22.9040     7.7238    52.3490
 9138.0000    21.8249     7.3976    51.4188
 9138.5000    21.3162     5.4687    50.8600
 9139.0000    21.0497     2.6424    50.9971
 9139.5000    20.9185    -0.9268    51.5055
 9140.0000    20.7452    -1.3287    52.2560
 9140.5000    20.4384    -1.2974    52.2903
 9141.0000    20.2270    -0.6784    51.6381
 9141.5000    19.5124    -0.4228    51.0329
 9142.0000    21.6900     1.8589    51.5877
 9142.5000    23.0359     1.1787    52.3745
 9143.0000    22.2149     1.1080    53.1149
 9143.5000    20.4714     0.3131    53.8554
 9144.0000    18.7280     2.7574    52.9716
 9144.5000    16.9846     3.8095    51.8076
 9145.0000    15.1975     2.2011    50.9444
 9145.5000    12.7052     1.2733    49.5312
 9146.0000    11.7523     1.4593    48.3690
 9146.5000    11.4109     3.7797    48.2747
 9147.0000    10.8512     3.9043    48.9218
 9147.5000    10.7033     3.4240    49.1518
 9148.0000    10.2358     2.7288    49.3359
 9148.5000     9.9290     4.3997    49.1477
 9149.0000     9.9317     6.1634    48.8673
 9149.5000     9.9348     6.8443    48.7260
 9150.0000     9.9384     6.4011    49.2568
 9150.5000     9.9410     5.9787    49.6500
 9151.0000     9.9441     5.2023    49.1834
 9151.5000     9.9478     2.7619    49.5990
 9152.0000     9.9503     1.1227    49.8759
 9152.5000     9.9535     0.0093    49.7342
 9153.0000    10.1519    -1.7847    49.5001
 9153.5000    10.3574    -1.5216    49.2661
 9154.0000    10.8945    -0.6772    49.1244
 9154.5000    11.5668     0.1673    48.9835
 9155.0000    12.2137    -0.1098    48.9346
 9155.5000    12.1462    -1.0141    49.2574
 9156.0000    11.3647    -1.8410    49.3951
 9156.5000    11.2202    -1.7165    49.0677
 9157.0000    11.5345    -2.3346    48.8801
 9157.5000    11.8478    -2.0247    48.9250
 9158.0000    12.1615    -1.1580    48.7368
 9158.5000    12.1650    -0.9717    48.6420
 9159.0000    12.1026     1.4259    48.8307
 9159.5000    11.8601     1.5355    49.3029
 9160.0000    11.8639     1.6596    49.4711
 9160.5000    11.7516     0.9489    49.5155
 9161.0000    11.2484     1.8157    49.4202
 9161.5000    11.2516     0.7954    49.2325
 9162.0000    10.7463     1.3260    49.0913
 9162.5000    10.0156     2.4054    49.3212
 9163.0000     9.7081     1.8799    49.5512
 9163.5000    10.0217     0.3029    49.1780
