~VERSION INFORMATION
 VERS.               2.10:   CWLS LOG ASCII STANDARD - VERSION 2.10
 WRAP.                 NO:   ONE LINE PER DEPTH STEP
~WELL INFORMATION
#MNEM.UNIT      DATA TYPE    INFORMATION
#----------   ------------   ------------------------------
 STRT.F         8800.0000:   START DEPTH
 STOP.F        13240.0000:   STOP DEPTH
 STEP.F            0.5000:   STEP LENGTH
 NULL.          -999.2500:   NO VALUE
 COMP. Exxon Company, USA:   COMPANY
 WELL.     Howard Deem #1:   WELL
 FLD .            Wildcat:   FIELD
 LOC .        Wood County:   LOCATION
 STAT.      West Virginia:   STATE
 COUN.               Wood:   COUNTY
 CTRY.      Not Specified:   COUNTRY
 SRVC.       Schlumberger:   SERVICE COMPANY
 DATE.         11/22/1976:   LOGDATE
 APIN.             47-107:   API NUMBER
~CURVE INFORMATION
#MNEM.UNIT       API CODE    CURVE DESCRIPTION
#----------   ------------   ------------------------------
 DEPT.F                  :
 GR  .GAPI   60 310 00 00:   Gamma Ray
 DPHI.none   42 890 12 00:   Den. Porosity, Ss [%]
 DT  .us/f   60 520 00 00:   Delta t
~PARAMETER INFORMATION
#MNEM.UNIT          VALUE    DESCRIPTION
#----------   ------------   ------------------------------
 EKB .F          726.0000:   Kelly bushing
 EGL .F          693.0000:   Ground level
 EDF .F          723.0000:   Drilling floor
 EPD .F          693.0000:   Permanent datum
 TD  .F            0.0000:   Total depth
 NRUN.             2.0000:   Number of Runs
#--RUN 1---   ------------   The following are for Run 1---
 RUN .             1.0000:   Run 1
 DATE.mm/dd/yyyy 11/22/1976:   Date Logged
 DD  .ft            12850:   Depth Driller
 DL  .ft            12857:   Depth Logger
 BLI .ft            12857:   Bottom Log Interval
 TLI .ft             8530:   Top Log Interval
 CSS .inch        10  3/4:   Casing Size
 CTD1.ft             8737:   Casing Driller 1
 CTL1.ft             8735:   Casing Logger 1
 BS  .inch         9  1/2:   Bit Size
 DFT .          fresh gel:   Type Fluid In Hole
 DFPH.                 11:   pH
 DFL .mL                4:   Fluid Loss
 WSS .            mud pit:   Source Of Sample
 RM  .ohmm           .512:   Rm
 EMT .F                78:   Rm Meas. Temp.
 RMF .ohmm           .813:   Rmf
 MFT .F                53:   Rmf Meas. Temp.
 RMC .ohmm            .40:   Rmc
 MCST.F                75:   Rmc Meas. Temp.
 MFSS.                  M:   Source Rmf.
 MCSS.                  C:   Source Rmc.
 RMB .ohmm            .23:   Rm. At BHT
 BHT .F               179:   BHT.
 MRT .F               179:   Maximum Recorded Temp.
 ENGI.             Ashton:   Recorded By
 WITN.      Hurley-Fulton:   Witnessed By
 DGBY.   Rutledge & McCoy:   Digitized By
#--RUN 2---   ------------   The following are for Run 2---
 RUN .             2.0000:   Run 2
 DATE.mm/dd/yyyy 11/29/1976:   Date Logged
 DD  .ft            13266:   Depth Driller
 DL  .ft            13271:   Depth Logger
 BLI .ft            13268:   Bottom Log Interval
 TLI .ft            12660:   Top Log Interval
 CSS .inch        10  3/4:   Casing Size
 CTD1.ft             8736:   Casing Driller 1
 CTL1.ft             8736:   Casing Logger 1
 BS  .inch         9  1/2:   Bit Size
 DFT .          fresh gel:   Type Fluid In Hole
 DFPH.               10.7:   pH
 DFL .mL             95.9:   Fluid Loss
 WSS .           flowline:   Source Of Sample
 RM  .ohmm            .43:   Rm
 EMT .F                68:   Rm Meas. Temp.
 RMF .ohmm            .43:   Rmf
 MFT .F                58:   Rmf Meas. Temp.
 RMC .ohmm            .30:   Rmc
 MCST.F                75:   Rmc Meas. Temp.
 MFSS.                  M:   Source Rmf.
 MCSS.                  C:   Source Rmc.
 RMB .ohmm           .155:   Rm. At BHT
 BHT .F               185:   BHT.
 MRT .F               185:   Maximum Recorded Temp.
 ENGI.             Ashton:   Recorded By
 WITN.            Drennen:   Witnessed By
 DGBY.   Rutledge & McCoy:   Digitized By
~OTHER INFORMATION
# Run Two Starts at 12000 ft
~A  DEPTH       GR       DPHI         DT
# ...
11985.0000    36.4230    -3.1093    44.8600
11985.5000    35.0671    -2.0257    44.5325
11986.0000    34.3258    -1.7478    43.7391
11986.5000    35.2340    -0.7801    44.7736
11987.0000    36.3274     0.5122    44.6194
11987.5000    37.4352    -2.5254    45.0987
11988.0000    38.5752    -3.0530    45.8322
11988.5000    39.7684    -4.8206    45.6446
11989.0000    35.0212    -6.7727    41.2147
11989.5000    22.8986    -5.3173    44.5446
11990.0000    25.2645    -7.8281    43.8695
11990.5000    26.3917    -6.5588    44.0548
11991.0000    25.4072    -6.6526    43.8206
11991.5000    24.2087    -7.1493    45.8704
11992.0000    23.6021    -3.6082    44.7504
11992.5000    22.8817    -0.6136    44.2368
11993.0000    22.3646     0.1293    44.7018
11993.5000    21.2426    -0.4605    44.2808
11994.0000    20.0309    -0.8640    43.2857
11994.5000    19.8563     1.7569    44.5583
11995.0000    21.6524     3.9856    43.9510
11995.5000    23.1937     3.0809    44.2760
11996.0000    24.8852     1.6965    44.0418
11996.5000    26.5893     1.9030    43.8542
11997.0000    28.1698     3.7642    44.5057
11997.5000    30.5069     5.6254    44.1316
11998.0000    31.8378     5.4845    44.2237
11998.5000    33.0478     3.5582    43.9429
11999.0000    34.2594     4.7364    43.6105
11999.5000    35.6718     4.7028    44.0336
12000.0000    35.5717     5.3214    44.5922
12000.5000    33.4967     6.1880    45.4299
12001.0000    32.5768     5.2454    45.2889
12001.5000    31.6549     5.1440    44.5885
12002.0000    28.5624     7.5714    43.2357
12002.5000    27.3284     9.9987    44.8659
12003.0000    26.7186    12.1324    44.5702
12003.5000    25.1765    10.8708    44.9716
12004.0000    24.2546     9.4608    45.3455
12004.5000    23.3326     3.9178    45.2065
12005.0000    22.7208    -2.0506    44.2750
12005.5000    23.0941    -7.6555    44.7422
12006.0000    27.4709    -9.1052    43.4379
12006.5000    35.6816    -8.9512    42.1801
12007.0000    43.8924    -6.4571    44.5586
12007.5000    52.1031    -3.8117    43.8136
12008.0000    60.3139    -4.4310    45.3064
12008.5000    68.5246    -3.3093    47.6849
12009.0000    62.3430    -1.6725    50.1567
12009.5000    52.4045    -2.3226    49.2041
12010.0000    42.4659    -3.0658    44.9837
12010.5000    31.4978    -1.0908    44.1456
12011.0000    29.6435     1.2665    43.3538
12011.5000    29.9640     3.0084    44.6134
12012.0000    30.2824     1.3041    44.5211
12012.5000    30.6008    -0.1510    43.5896
12013.0000    31.5395     1.3271    44.4299
12013.5000    31.5497     2.9482    44.3563
12014.0000    29.0774     2.1432    43.9655
12014.5000    26.6051     1.1832    44.1618
12015.0000    24.4428     1.9272    44.6202
12015.5000    24.7612     2.5164    44.9475
12016.0000    26.0098     3.1055    44.2491
12016.5000    26.6383     4.6550    44.2500
12017.0000    26.9567     6.3112    43.9246
12017.5000    26.9453     7.9674    43.3192
12018.0000    26.3010     9.6235    44.4467
12018.5000    25.7413    11.2797    43.9273
12019.0000    26.9920    11.0781    44.0681
12019.5000    33.1976     9.2126    44.0223
12020.0000    40.4846     8.3454    43.7904
12020.5000    47.7716    10.5458    44.3041
12021.0000    55.0586    10.2365    45.1442
12021.5000    59.9031     9.7102    45.3316
12022.0000    58.0509     7.5133    45.7052
12022.5000    55.5765     4.3262    44.5875
12023.0000    58.3776     1.1391    45.9870
12023.5000    53.4179    -2.0481    45.5648
12024.0000    48.0942    -2.6218    44.8177
12024.5000    42.7704    -0.9076    43.9850
12025.0000    38.2572    -0.1548    44.7787
12025.5000    37.9534    -0.1080    43.8938
12026.0000    39.8242    -0.6342    45.9460
12026.5000    42.9333    -1.5632    46.1800
12027.0000    46.3524    -0.1375    47.2066
12027.5000    48.8414    -0.3540    48.4962
12028.0000    49.1597    -1.4689    45.9963
12028.5000    47.9030    -1.8113    45.2326
12029.0000    42.4519    -0.7606    45.4855
12029.5000    34.4705     0.3296    43.6682
12030.0000    30.5668    -1.4360    45.2542
12030.5000    30.6523     1.7198    46.3272
12031.0000    32.7782     7.3642    42.2255
12031.5000    34.3369     4.4360    44.6509
12032.0000    35.2755     1.4314    44.9259
12032.5000    34.9737    -1.5732    44.1865
12033.0000    35.2921    -4.0670    45.1387
12033.5000    37.1609    -4.7087    45.5869
12034.0000    39.3397    -7.2883    44.5624
12034.5000    42.0744    -4.6120    45.0295
12035.0000    45.3641    -0.1611    45.1237
12035.5000    48.6539    -1.8648    45.8705
12036.0000    51.9436    -4.7575    46.1511
12036.5000    55.2333    -7.0071    46.1520
12037.0000    58.5230    -6.7277    45.3925
12037.5000    62.3463    -6.6343    43.6065
12038.0000    65.1454    -5.9832    35.8649
12038.5000    65.1537    -5.1463    42.7992
12039.0000    65.1620    -5.5177    45.5062
12039.5000    56.3673    -5.6101    43.4870
12040.0000    48.8118    -5.6406    45.3801
12040.5000    41.2563    -4.7281    47.2783
12041.0000    33.7008    -4.5243    44.9482
12041.5000    29.8567    -4.1519    45.6484
12042.0000    26.7643    -2.7572    44.7638
12042.5000    27.0826    -1.1146    42.0351
12043.0000    29.8816    -1.1762    34.9286
12043.5000    37.3976    -0.3081    43.6011
12044.0000    45.9308     0.0951    46.3060
12044.5000    54.4639     2.2980    47.1460
12045.0000    62.9970     7.2746    49.0117
12045.5000    72.0951     7.8734    49.6185
12046.0000    72.7236     5.2057    48.6870
12046.5000    70.8714     2.5391    49.6672
12047.0000    68.0266     0.0670    49.5238
12047.5000    64.1410    -0.4904    49.0629
12048.0000    60.2554    -1.6362    48.8776
12048.5000    56.3698    -0.7897    48.3190
12049.0000    52.8539     0.6349    48.1332
12049.5000    52.6267     1.4635    49.4863
12050.0000    54.8076     0.2866    49.0677
12050.5000    56.6764    -1.0452    48.1362
12051.0000    59.4754    -1.0138    48.7431
12051.5000    61.3441    -0.8894    49.1636
12052.0000    59.8020    -1.3537    47.4218
12052.5000    50.1445     0.0102    45.7624
12053.0000    36.5635    -0.1443    45.0174
12053.5000    30.6804    -1.1663    44.0393
12054.0000    29.1383    -2.2291    43.3873
12054.5000    27.9063    -4.5658    43.9943
12055.0000    24.4643    -5.7791    42.4569
12055.5000    23.5818    -2.5322    41.8051
12056.0000    27.0030     0.6679    42.1324
12056.5000    30.1121     1.1603    44.6094
12057.0000    33.2212     2.9578    45.1330
12057.5000    38.8109     5.3348    45.8650
12058.0000    39.7494     8.1219    46.2386
12058.5000    38.8275     6.5931    42.0436
12059.0000    34.8048     1.7062    44.1426
12059.5000    33.5728    -3.1807    45.4025
12060.0000    35.4419    -8.0676    43.7251
12060.5000    34.5217   -13.2125    46.6162
12061.0000    32.9797   -11.5933    44.9390
12061.5000    32.3657    -9.3349    43.7742
12062.0000    32.0640    -7.0765    44.6145
12062.5000    32.3844    -6.4077    44.5688
12063.0000    32.0806    -5.6383    45.1757
12063.5000    31.1607    -5.3399    43.4053
12064.0000    31.1690    -5.6183    43.5927
12064.5000    33.3778    -4.2854    44.1064
12065.0000    34.2885    -2.8907    44.3404
12065.5000    31.5061    -2.2706    45.4134
12066.0000    30.5842     0.0892    44.1558
12066.5000    27.8018     4.5815    43.5972
12067.0000    26.2597     5.7066    43.7380
12067.5000    27.1982     3.1768    43.8821
12068.0000    29.6872     2.3096    44.2060
12068.5000    31.2458    -3.1511    44.9531
12069.0000    30.3239    -5.9544    44.4878
12069.5000    30.3821    -6.4497    44.4418
12070.0000    32.5131    -5.7366    44.6759
12070.5000    33.7618    -1.9110    43.6511
12071.0000    35.0104     0.4610    45.7033
12071.5000    38.7396     1.9313    45.1374
12072.0000    40.6084     5.3262    45.3324
12072.5000    39.9965     8.7212    44.4475
12073.0000    38.4544    12.6396    46.2668
12073.5000    39.4032    13.4146    49.0183
12074.0000    44.1508    16.2836    50.3712
12074.5000    52.1249    17.2465    47.4817
12075.0000    53.0634    13.6178    47.0630
12075.5000    47.8004     9.9891    45.2457
