~VERSION INFORMATION
 VERS.               2.10:   CWLS LOG ASCII STANDARD - VERSION 2.10
 WRAP.                 NO:   ONE LINE PER DEPTH STEP
~WELL INFORMATION
#MNEM.UNIT      DATA TYPE    INFORMATION
#----------   ------------   ------------------------------
 STRT.F         8800.0000:   START DEPTH
 STOP.F        13240.0000:   STOP DEPTH
 STEP.F            0.5000:   STEP LENGTH
 NULL.          -999.2500:   NO VALUE
 COMP. Exxon Company, USA:   COMPANY
 WELL.     Howard Deem #1:   WELL
 FLD .            Wildcat:   FIELD
 LOC .        Wood County:   LOCATION
 STAT.      West Virginia:   STATE
 COUN.               Wood:   COUNTY
 CTRY.      Not Specified:   COUNTRY
 SRVC.       Schlumberger:   SERVICE COMPANY
 DATE.         11/22/1976:   LOGDATE
 APIN.             47-107:   API NUMBER
~CURVE INFORMATION
#MNEM.UNIT       API CODE    CURVE DESCRIPTION
#----------   ------------   ------------------------------
 DEPT.F                  :
 GR  .GAPI   60 310 00 00:   Gamma Ray
 DPHI.none   42 890 12 00:   Den. Porosity, Ss [%]
 DT  .us/f   60 520 00 00:   Delta t
~PARAMETER INFORMATION
#MNEM.UNIT          VALUE    DESCRIPTION
#----------   ------------   ------------------------------
 EKB .F          726.0000:   Kelly bushing
 EGL .F          693.0000:   Ground level
 EDF .F          723.0000:   Drilling floor
 EPD .F          693.0000:   Permanent datum
 TD  .F            0.0000:   Total depth
 NRUN.             2.0000:   Number of Runs
#--RUN 1---   ------------   The following are for Run 1---
 RUN .             1.0000:   Run 1
 DATE.mm/dd/yyyy 11/22/1976:   Date Logged
 DD  .ft            12850:   Depth Driller
 DL  .ft            12857:   Depth Logger
 BLI .ft            12857:   Bottom Log Interval
 TLI .ft             8530:   Top Log Interval
 CSS .inch        10  3/4:   Casing Size
 CTD1.ft             8737:   Casing Driller 1
 CTL1.ft             8735:   Casing Logger 1
 BS  .inch         9  1/2:   Bit Size
 DFT .          fresh gel:   Type Fluid In Hole
 DFPH.                 11:   pH
 DFL .mL                4:   Fluid Loss
 WSS .            mud pit:   Source Of Sample
 RM  .ohmm           .512:   Rm
 EMT .F                78:   Rm Meas. Temp.
 RMF .ohmm           .813:   Rmf
 MFT .F                53:   Rmf Meas. Temp.
 RMC .ohmm            .40:   Rmc
 MCST.F                75:   Rmc Meas. Temp.
 MFSS.                  M:   Source Rmf.
 MCSS.                  C:   Source Rmc.
 RMB .ohmm            .23:   Rm. At BHT
 BHT .F               179:   BHT.
 MRT .F               179:   Maximum Recorded Temp.
 ENGI.             Ashton:   Recorded By
 WITN.      Hurley-Fulton:   Witnessed By
 DGBY.   Rutledge & McCoy:   Digitized By
#--RUN 2---   ------------   The following are for Run 2---
 RUN .             2.0000:   Run 2
 DATE.mm/dd/yyyy 11/29/1976:   Date Logged
 DD  .ft            13266:   Depth Driller
 DL  .ft            13271:   Depth Logger
 BLI .ft            13268:   Bottom Log Interval
 TLI .ft            12660:   Top Log Interval
 CSS .inch        10  3/4:   Casing Size
 CTD1.ft             8736:   Casing Driller 1
 CTL1.ft             8736:   Casing Logger 1
 BS  .inch         9  1/2:   Bit Size
 DFT .          fresh gel:   Type Fluid In Hole
 DFPH.               10.7:   pH
 DFL .mL             95.9:   Fluid Loss
 WSS .           flowline:   Source Of Sample
 RM  .ohmm            .43:   Rm
 EMT .F                68:   Rm Meas. Temp.
 RMF .ohmm            .43:   Rmf
 MFT .F                58:   Rmf Meas. Temp.
 RMC .ohmm            .30:   Rmc
 MCST.F                75:   Rmc Meas. Temp.
 MFSS.                  M:   Source Rmf.
 MCSS.                  C:   Source Rmc.
 RMB .ohmm           .155:   Rm. At BHT
 BHT .F               185:   BHT.
 MRT .F               185:   Maximum Recorded Temp.
 ENGI.             Ashton:   Recorded By
 WITN.            Drennen:   Witnessed By
 DGBY.   Rutledge & McCoy:   Digitized By
~OTHER INFORMATION
# Run Two Starts at 12000 ft
~A  DEPTH       GR       DPHI         DT
# ...
10256.0000    14.6299     5.0220    45.8069
10256.5000    13.5478     6.0308    45.6663
10257.0000    12.7827     4.5159    46.6925
10257.5000    14.8256     3.4331    46.3132
10258.0000    16.6933     2.5674    47.1468
10258.5000    18.5610     2.4441    46.9134
10259.0000    20.4287     2.9309    46.1232
10259.5000    20.8408     3.7753    44.7301
10260.0000    20.1628     3.9305    45.0068
10260.5000    19.2170     7.1977    45.0522
10261.0000    18.2712    16.2747    45.0505
10261.5000    17.4564    11.3360    45.3276
10262.0000    23.5788     8.1395    46.1638
10262.5000    28.9559     9.3465    46.6360
10263.0000    34.3331     6.9951    46.9009
10263.5000    39.7102     3.3492    47.0855
10264.0000    45.0873     1.0261    46.8982
10264.5000    50.4644     2.8455    46.1544
10265.0000    55.8416     5.9459    45.4106
10265.5000    60.1476     7.7407    44.8988
10266.0000    47.1438     7.4008    45.0830
10266.5000    36.3001     7.0300    45.1760
10267.0000    28.7186     6.4427    44.5699
10267.5000    27.3977     7.2784    45.1962
10268.0000    27.0936     7.7503    45.6805
10268.5000    27.2479     8.5478    45.7719
10269.0000    27.4106     9.2288    46.0954
10269.5000    27.7245    11.4876    46.0013
10270.0000    31.5632    11.4691    46.0463
10270.5000    46.0068     8.6122    46.1842
10271.0000    49.5521     5.7553    46.1364
10271.5000    46.3381     3.6317    46.1814
10272.0000    43.1240     2.4566    46.2265
10272.5000    39.9099     2.0841    45.9931
10273.0000    36.6959     2.1791    46.3630
10273.5000    33.4818     3.0768    45.8973
10274.0000    30.2678     4.0672    45.5711
10274.5000    27.0537     3.9439    45.4769
10275.0000    23.7485     2.5832    45.5223
10275.5000    21.5129     1.5009    45.8522
10276.0000    21.0469     2.8625    45.5192
10276.5000    20.9809     4.7191    45.2335
10277.0000    21.4986     6.9469    45.3002
10277.5000    21.9158     6.1741    45.5612
10278.0000    19.7570     5.9888    45.6066
10278.5000    18.2985     3.4526    45.2337
10279.0000    16.6733     3.1746    44.8147
10279.5000    17.2966     3.9795    44.3493
10280.0000    17.3213     4.4105    44.0695
10280.5000    15.0220     3.1760    44.5322
10281.0000    13.5998     3.3920    45.0436
10281.5000    11.9936     4.1979    45.4216
10282.0000    11.1344     2.7753    46.0127
10282.5000    11.1394     0.3009    46.7538
10283.0000    11.4518    -1.7095    47.0773
10283.5000    11.4561    -1.1522    47.1227
10284.0000    12.3179     2.2512    46.5641
10284.5000    14.2926     2.8822    46.0988
10285.0000    16.4146     3.9059    45.7262
10285.5000    17.3486     4.4491    45.4000
10286.0000    18.0117     4.9755    45.5496
10286.5000    18.5910     6.6155    46.6261
10287.0000    19.4715    10.0498    46.7880
10287.5000    19.8519    11.0093    46.2759
10288.0000    20.7674    10.5767    45.6249
10288.5000    21.4917    11.2373    45.6703
10289.0000    22.0114     8.5668    45.4366
10289.5000    22.8213     5.6903    44.7859
10290.0000    22.1029     3.5252    46.1299
10290.5000    20.4784     1.7314    46.0357
10291.0000    16.3481    -0.5574    46.6376
10291.5000    11.7826    -1.3924    46.4967
10292.0000    11.5260    -2.0931    45.7529
10292.5000    11.7987    -3.9765    45.7051
10293.0000    12.8142    -3.7708    45.6574
10293.5000    14.0121    -1.9302    46.0737
10294.0000    14.2175    -0.8950    46.2118
10294.5000    14.3287    -0.4907    45.8853
10295.0000    15.7214     1.1923    45.6984
10295.5000    17.5989     2.9426    45.2793
10296.0000    21.4511     3.6855    45.3782
10296.5000    23.1892     4.3355    45.6475
10297.0000    22.8447     3.8409    45.7393
10297.5000    21.4636     6.9351    45.6448
10298.0000    20.1239     7.3377    45.3187
10298.5000    17.6961     4.7086    45.2712
10299.0000    12.5118     3.6724    45.6872
10299.5000    11.8970     3.2555    45.3146
10300.0000    11.5920     3.8748    45.4524
10300.5000    11.5961     4.3083    44.9870
10301.0000    11.6539     4.4635    45.1246
10301.5000    11.7270     2.4057    45.4480
10302.0000    11.8001    -0.6267    45.2611
10302.5000    11.8732    -2.4648    45.1669
10303.0000    12.0610    -1.7528    45.4907
10303.5000    13.1814    -0.1127    45.3498
10304.0000    14.1064     1.8758    45.1628
10304.5000    14.8200     2.6105    45.3007
10305.0000    15.6732     1.6211    44.9235
10305.5000    16.1174     1.2502    44.8803
10306.0000    16.6314     2.9523    45.9923
10306.5000    20.0196     3.7261    46.5014
10307.0000    23.8609     3.4791    47.1033
10307.5000    25.5951     2.0874    47.1676
10308.0000    27.6288     0.7643    46.8541
10308.5000    29.4485    -0.2936    46.8288
10309.0000    28.0868    -0.5097    46.0852
10309.5000    23.5829    -2.0561    45.1098
10310.0000    20.4138    -3.2312    44.7377
10310.5000    18.5229    -2.3255    44.7832
10311.0000    17.7538    -0.7004    45.0143
10311.5000    19.4729     0.9247    45.4775
10312.0000    22.5603     0.3394    46.2654
10312.5000    24.0725    -0.5877    46.4984
10313.0000    24.7357     0.1556    46.3392
10313.5000    24.1247     0.3731    45.1488
10314.0000    22.7453    -1.9151    45.7047
10314.5000    20.7278    -3.2753    45.5646
10315.0000    19.5123    -3.0888    45.1461
10315.5000    18.6140    -2.1908    44.6811
10316.0000    17.6633    -0.3337    44.5410
10316.5000    17.4863     0.6262    44.5360
10317.0000    18.4383    -0.6722    45.2375
10317.5000    19.5368    -1.1533    46.3205
10318.0000    20.8068    -2.4028    47.3216
10318.5000    23.1041    -1.0096    47.0885
10319.0000    22.9559    -0.3590    46.2987
10319.5000    21.7526    -0.6984    45.4625
10320.0000    20.7404    -0.6047    45.2760
10320.5000    19.8835    -0.5152    45.4143
10321.0000    19.1506    -0.6957    45.5527
10321.5000    18.0202    -0.4783    45.5981
10322.0000    17.1202    -3.2923    45.6526
10322.5000    16.4075    -2.8895    45.7819
10323.0000    15.5859    -3.5380    45.5952
10323.5000    15.0946    -3.0424    45.2231
10324.0000    14.9790    -2.3916    44.3405
10324.5000    14.9865    -1.7062    44.3396
10325.0000    14.9923    -1.6858    44.5707
10325.5000    14.9985    -0.3110    45.4051
10326.0000    15.0053     1.2007    46.0538
10326.5000    15.0108     1.8203    46.7490
10327.0000    15.0170     3.3565    45.8198
10327.5000    15.3332     6.0293    45.6799
10328.0000    15.4641     6.1542    45.7718
10328.5000    15.9788     7.9803    45.3066
10329.0000    16.5885     9.5589    45.1665
10329.5000    17.0073    10.1785    45.8617
10330.0000    17.5271    10.0866    45.8530
10330.5000    18.0361     6.3575    46.2311
10331.0000    21.0516     3.9324    47.0349
10331.5000    22.8009     2.4484    47.2037
10332.0000    23.7709     1.5522    46.5532
10332.5000    24.0487     3.7805    47.9906
10333.0000    21.8924     5.3900    47.1080
10333.5000    20.3624     5.7621    46.8751
10334.0000    18.3760     5.3609    45.8069
10334.5000    16.9653     5.0215    45.2491
10335.0000    16.3979     5.3938    46.2227
10335.5000    15.7401     2.2797    47.6603
10336.0000    15.4385    -0.5010    47.8639
10336.5000    14.8015    -0.9455    48.4008
10337.0000    13.2859    -0.2949    47.6574
10337.5000    13.3826    -1.5621    46.2180
10338.0000    15.1519    -3.0771    45.4282
10338.5000    14.2321    -2.8596    44.8241
10339.0000    13.4404    -1.7141    44.1273
10339.5000    12.8705     0.8877    44.6830
10340.0000    12.0871     1.6287    44.9606
10340.5000    11.7836     4.6925    44.0780
10341.0000    12.5512     6.6114    45.1905
10341.5000    13.6514     8.7160    45.1432
10342.0000    12.6270     9.4593    45.7456
10342.5000    11.8080    11.2236    45.9769
10343.0000    13.6702    12.2144    45.0477
10343.5000    14.8734    13.0506    45.1860
10344.0000    17.0999    10.0962    45.2843
10344.5000    18.4269     7.8349    44.8130
10345.0000    18.9490     4.2677    44.9977
10345.5000    19.2645     1.8246    44.8576
10346.0000    19.7639     2.7226    45.0887
10346.5000    20.5874     1.9501    44.9950
