~VERSION INFORMATION
 VERS.               2.10:   CWLS LOG ASCII STANDARD - VERSION 2.10
 WRAP.                 NO:   ONE LINE PER DEPTH STEP
~WELL INFORMATION
#MNEM.UNIT      DATA TYPE    INFORMATION
#----------   ------------   ------------------------------
 STRT.F         8800.0000:   START DEPTH
 STOP.F        13240.0000:   STOP DEPTH
 STEP.F            0.5000:   STEP LENGTH
 NULL.          -999.2500:   NO VALUE
 COMP. Exxon Company, USA:   COMPANY
 WELL.     Howard Deem #1:   WELL
 FLD .            Wildcat:   FIELD
 LOC .        Wood County:   LOCATION
 STAT.      West Virginia:   STATE
 COUN.               Wood:   COUNTY
 CTRY.      Not Specified:   COUNTRY
 SRVC.       Schlumberger:   SERVICE COMPANY
 DATE.         11/22/1976:   LOGDATE
 APIN.             47-107:   API NUMBER
~CURVE INFORMATION
#MNEM.UNIT       API CODE    CURVE DESCRIPTION
#----------   ------------   ------------------------------
 DEPT.F                  :
 GR  .GAPI   60 310 00 00:   Gamma Ray
 DPHI.none   42 890 12 00:   Den. Porosity, Ss [%]
 DT  .us/f   60 520 00 00:   Delta t
~PARAMETER INFORMATION
#MNEM.UNIT          VALUE    DESCRIPTION
#----------   ------------   ------------------------------
 EKB .F          726.0000:   Kelly bushing
 EGL .F          693.0000:   Ground level
 EDF .F          723.0000:   Drilling floor
 EPD .F          693.0000:   Permanent datum
 TD  .F            0.0000:   Total depth
 NRUN.             2.0000:   Number of Runs
#--RUN 1---   ------------   The following are for Run 1---
 RUN .             1.0000:   Run 1
 DATE.mm/dd/yyyy 11/22/1976:   Date Logged
 DD  .ft            12850:   Depth Driller
 DL  .ft            12857:   Depth Logger
 BLI .ft            12857:   Bottom Log Interval
 TLI .ft             8530:   Top Log Interval
 CSS .inch        10  3/4:   Casing Size
 CTD1.ft             8737:   Casing Driller 1
 CTL1.ft             8735:   Casing Logger 1
 BS  .inch         9  1/2:   Bit Size
 DFT .          fresh gel:   Type Fluid In Hole
 DFPH.                 11:   pH
 DFL .mL                4:   Fluid Loss
 WSS .            mud pit:   Source Of Sample
 RM  .ohmm           .512:   Rm
 EMT .F                78:   Rm Meas. Temp.
 RMF .ohmm           .813:   Rmf
 MFT .F                53:   Rmf Meas. Temp.
 RMC .ohmm            .40:   Rmc
 MCST.F                75:   Rmc Meas. Temp.
 MFSS.                  M:   Source Rmf.
 MCSS.                  C:   Source Rmc.
 RMB .ohmm            .23:   Rm. At BHT
 BHT .F               179:   BHT.
 MRT .F               179:   Maximum Recorded Temp.
 ENGI.             Ashton:   Recorded By
 WITN.      Hurley-Fulton:   Witnessed By
 DGBY.   Rutledge & McCoy:   Digitized By
#--RUN 2---   ------------   The following are for Run 2---
 RUN .             2.0000:   Run 2
 DATE.mm/dd/yyyy 11/29/1976:   Date Logged
 DD  .ft            13266:   Depth Driller
 DL  .ft            13271:   Depth Logger
 BLI .ft            13268:   Bottom Log Interval
 TLI .ft            12660:   Top Log Interval
 CSS .inch        10  3/4:   Casing Size
 CTD1.ft             8736:   Casing Driller 1
 CTL1.ft             8736:   Casing Logger 1
 BS  .inch         9  1/2:   Bit Size
 DFT .          fresh gel:   Type Fluid In Hole
 DFPH.               10.7:   pH
 DFL .mL             95.9:   Fluid Loss
 WSS .           flowline:   Source Of Sample
 RM  .ohmm            .43:   Rm
 EMT .F                68:   Rm Meas. Temp.
 RMF .ohmm            .43:   Rmf
 MFT .F                58:   Rmf Meas. Temp.
 RMC .ohmm            .30:   Rmc
 MCST.F                75:   Rmc Meas. Temp.
 MFSS.                  M:   Source Rmf.
 MCSS.                  C:   Source Rmc.
 RMB .ohmm           .155:   Rm. At BHT
 BHT .F               185:   BHT.
 MRT .F               185:   Maximum Recorded Temp.
 ENGI.             Ashton:   Recorded By
 WITN.            Drennen:   Witnessed By
 DGBY.   Rutledge & McCoy:   Digitized By
~OTHER INFORMATION
# Run Two Starts at 12000 ft
~A  DEPTH       GR       DPHI         DT
# ...
10802.0000    36.9524     5.7025    44.6570
10802.5000    41.4579     7.9150    44.6465
10803.0000    34.7375     8.8632    45.2403
10803.5000    32.3448     7.5004    45.8996
10804.0000    29.9521     6.6637    46.1820
10804.5000    29.1246     7.2989    44.8343
10805.0000    30.7185     7.3904    43.9973
10805.5000    32.3125     8.0699    44.4578
10806.0000    33.9064     8.7494    44.1311
10806.5000    35.5003     8.3964    47.3307
10807.0000    35.7862     6.2951    47.5106
10807.5000    33.3945     4.1939    46.5383
10808.0000    31.0028     4.5877    45.7910
10808.5000    28.6111     8.7494    45.9859
10809.0000    26.2195    11.2181    44.4447
10809.5000    23.8278     7.9904    44.8605
10810.0000    21.4361     5.4055    44.4406
10810.5000    19.1316     3.1542    44.2536
10811.0000    17.1416     1.6855    44.4838
10811.5000    16.8524     2.1173    45.1722
10812.0000    16.8594     2.7968    43.9229
10812.5000    18.1029     3.2907    45.1853
10813.0000    19.5397     2.3616    45.4042
10813.5000    19.9714     1.7077    44.1955
10814.0000    20.2878     4.1527    43.6368
10814.5000    19.4635     2.8841    45.1664
10815.0000    17.5184     0.8538    45.3502
10815.5000    17.5269    -3.7691    45.8128
10816.0000    17.2241    -6.8637    46.0426
10816.5000    17.2311    -4.1735    45.4375
10817.0000    17.8571    -5.5107    44.7861
10817.5000    18.1723    -6.2173    45.2661
10818.0000    17.5095    -6.9608    43.6683
10818.5000    16.3327    -4.7657    44.3162
10819.0000    16.3385    -5.3473    44.7789
10819.5000    16.3514    -8.7201    43.9882
10820.0000    16.8679    -6.3247    45.0073
10820.5000    17.3831     0.0481    43.7057
10821.0000    18.2212     5.4093    44.8640
10821.5000    18.4149     4.3850    45.4654
10822.0000    18.9305     3.2200    45.6028
10822.5000    19.4788     3.8877    44.2089
10823.0000    23.3188     5.1550    45.0424
10823.5000    27.4153     3.4525    45.2721
10824.0000    31.5118     5.1838    46.1984
10824.5000    35.6083     5.7396    47.0319
10825.0000    40.2250     6.1465    46.4737
10825.5000    38.9370     6.5418    46.0538
10826.0000    36.7860     8.0975    44.6134
10826.5000    36.2264     8.6431    44.7609
10827.0000    37.0063     6.1053    45.6767
10827.5000    38.4042     3.1640    45.3964
10828.0000    37.9990    -5.1266    45.1631
10828.5000    36.6797    -7.0144    44.9752
10829.0000    35.6431    -8.1294    45.2982
10829.5000    34.0397    -8.2540    45.1108
10830.0000    33.4162    -5.9660    45.1554
10830.5000    32.5731    -5.1937    45.4320
10831.0000    32.2705    -6.1538    45.3815
10831.5000    32.2774    -8.2241    45.4895
10832.0000    32.2851    -6.4964    45.2405
10832.5000    35.8974    -4.0535    45.1923
10833.0000    41.1863    -2.6931    46.1650
10833.5000    45.5983    -4.1484    47.3697
10834.0000    41.8943    -5.8819    47.7395
10834.5000    37.5943    -5.9448    46.4380
10835.0000    33.2943    -6.2552    45.2761
10835.5000    28.9943    -6.5347    44.6246
10836.0000    24.6944    -4.3086    45.3189
10836.5000    21.1216    -2.8248    44.5277
10837.0000    20.9165    -4.1870    45.4540
10837.5000    20.8006    -4.4974    46.7515
10838.0000    21.3171    -3.6632    46.4249
10838.5000    22.1743    -2.0246    47.3975
10839.0000    22.9925    -0.4789    48.0918
10839.5000    24.1594    -1.8306    48.5540
10840.0000    25.5958    -3.3583    49.7123
10840.5000    26.5164    -4.3493    50.7314
10841.0000    27.6188    -4.4119    51.2396
10841.5000    29.6354    -1.4125    52.1194
10842.0000    30.3889    -0.5473    49.6582
10842.5000    29.9196    -1.2290    49.0068
10843.0000    28.4201    -0.4257    47.5664
10843.5000    27.6983     0.6257    46.5437
10844.0000    27.1963     0.9024    44.0361
10844.5000    27.0034     0.5302    44.3128
10845.0000    26.5015     1.4572    44.6358
10845.5000    26.2898    -0.5240    44.2159
10846.0000    25.8068    -2.6700    44.3997
10846.5000    25.3058    -3.2951    44.6299
10847.0000    24.7656    -5.3287    44.9998
10847.5000    24.3019    -2.3014    44.5339
10848.0000    23.7486    -0.8021    45.4138
10848.5000    22.9320     0.7379    44.9011
10849.0000    21.7533     2.8261    44.3888
10849.5000    18.9261     5.5926    44.4902
10850.0000    22.8864    12.1189    44.2998
10850.5000    26.6140    10.7463    43.6874
10851.0000    30.3416     9.5401    45.2164
10851.5000    34.0692     6.9837    45.1218
10852.0000    37.7968     3.2670    45.0741
10852.5000    41.5244     1.7811    45.1651
10853.0000    42.1980     3.4582    45.9517
10853.5000    40.4913     5.5530    45.9465
10854.0000    38.4626     6.3254    46.5064
10854.5000    40.3258     5.7056    46.8876
10855.0000    43.1659     4.1344    47.2897
10855.5000    41.4803     1.8010    48.8192
10856.0000    37.8740     1.8979    49.2350
10856.5000    31.8400     3.0716    48.7232
10857.0000    26.6831     3.3490    49.6954
10857.5000    25.8395     4.4527    51.6890
10858.0000    25.8454     4.2001    53.1257
10858.5000    26.5699     1.3658    53.5415
10859.0000    29.2609    -0.1511    53.1926
10859.5000    30.7224     1.0853    51.6813
10860.0000    31.1283     1.4867    49.9162
10860.5000    30.9354     1.1715    46.8517
10861.0000    30.5227     1.8336    45.5970
10861.5000    30.5312     2.9281    46.1056
10862.0000    30.3808     2.0697    44.4338
10862.5000    29.0695     0.2125    44.7159
10863.0000    27.7582    -0.9022    44.4297
10863.5000    26.4468     1.7986    44.8455
10864.0000    25.0023     3.4270    44.1008
10864.5000    24.5513     3.1054    44.7486
10865.0000    24.0493     4.5093    45.0717
10865.5000    23.4778     5.4390    44.6063
10866.0000    23.3033     6.7637    45.0216
10866.5000    23.1223     5.0299    44.6950
10867.0000    21.6442     4.9683    44.6932
10867.5000    21.6499     6.1415    44.7842
10868.0000    21.6569     5.2089    45.0144
10868.5000    20.9564     5.2730    44.5950
10869.0000    19.9442     5.1791    45.3352
10869.5000    20.5161     4.8690    45.3802
10870.0000    22.2800     7.4168    44.1251
10870.5000    24.0440     9.7015    44.7729
10871.0000    25.8079     8.7634    45.2815
10871.5000    27.5719     7.0142    46.3470
10872.0000    29.3358     4.5231    46.1132
10872.5000    31.3030     1.1035    45.9107
10873.0000    30.1225    -2.5289    44.8889
10873.5000    27.3381    -6.3386    43.9263
10874.0000    23.0409    -6.6206    43.8322
10874.5000    18.0390    -6.1489    44.3868
10875.0000    17.7762    -2.4129    44.1529
10875.5000    17.4619    -5.2604    44.6152
10876.0000    17.1476    -5.7913    44.2421
10876.5000    16.8333    -7.3870    43.8691
10877.0000    16.5190    -6.7175    44.0529
10877.5000    16.2047    -6.1823    43.9523
10878.0000    15.8903    -4.1528    43.5384
10878.5000    15.6196    -2.1232    43.3974
10879.0000    16.8645    -1.8338    43.5348
10879.5000    17.6502    -4.3526    44.0898
10880.0000    17.8053    -6.0741    44.0880
10880.5000    17.8130    -5.1164    44.1790
10881.0000    17.8192    -6.3076    43.8524
10881.5000    18.1352    -7.6538    44.3614
10882.0000    18.1432    -8.0893    44.3592
10882.5000    18.4583    -5.3062    44.3570
10883.0000    18.4652    -6.1428    43.8447
10883.5000    19.0917    -7.1647    43.7965
10884.0000    20.1252    -7.5058    44.1659
10884.5000    21.5774    -7.4159    44.5817
10885.0000    22.8979    -4.9094    45.4616
10885.5000    24.3154    -7.4542    45.2742
10886.0000    25.9262    -9.8924    45.2724
10886.5000    27.8650    -6.7844    45.8307
10887.0000    29.8406    -4.2021    45.6859
10887.5000    29.3476    -6.4309    45.4062
10888.0000    27.5011    -6.6794    45.9143
10888.5000    25.4693    -7.7942    46.0058
10889.0000    23.4955    -7.4549    45.6323
10889.5000    22.1687    -7.3941    45.4913
10890.0000    20.6230    -7.8904    44.9326
10890.5000    18.2616    -8.1699    44.4642
10891.0000    17.4178    -7.6141    44.2262
10891.5000    16.4058    -7.1818    43.8135
10892.0000    15.3969    -8.1730    44.2289
10892.5000    14.4817    -8.6378    44.3204
