~VERSION INFORMATION
 VERS.               2.10:   CWLS LOG ASCII STANDARD - VERSION 2.10
 WRAP.                 NO:   ONE LINE PER DEPTH STEP
~WELL INFORMATION
#MNEM.UNIT      DATA TYPE    INFORMATION
#----------   ------------   ------------------------------
 STRT.F         8800.0000:   START DEPTH
 STOP.F        13240.0000:   STOP DEPTH
 STEP.F            0.5000:   STEP LENGTH
 NULL.          -999.2500:   NO VALUE
 COMP. Exxon Company, USA:   COMPANY
 WELL.     Howard Deem #1:   WELL
 FLD .            Wildcat:   FIELD
 LOC .        Wood County:   LOCATION
 STAT.      West Virginia:   STATE
 COUN.               Wood:   COUNTY
 CTRY.      Not Specified:   COUNTRY
 SRVC.       Schlumberger:   SERVICE COMPANY
 DATE.         11/22/1976:   LOGDATE
 APIN.             47-107:   API NUMBER
~CURVE INFORMATION
#MNEM.UNIT       API CODE    CURVE DESCRIPTION
#----------   ------------   ------------------------------
 DEPT.F                  :
 GR  .GAPI   60 310 00 00:   Gamma Ray
 DPHI.none   42 890 12 00:   Den. Porosity, Ss [%]
 DT  .us/f   60 520 00 00:   Delta t
~PARAMETER INFORMATION
#MNEM.UNIT          VALUE    DESCRIPTION
#----------   ------------   ------------------------------
 EKB .F          726.0000:   Kelly bushing
 EGL .F          693.0000:   Ground level
 EDF .F          723.0000:   Drilling floor
 EPD .F          693.0000:   Permanent datum
 TD  .F            0.0000:   Total depth
 NRUN.             2.0000:   Number of Runs
#--RUN 1---   ------------   The following are for Run 1---
 RUN .             1.0000:   Run 1
 DATE.mm/dd/yyyy 11/22/1976:   Date Logged
 DD  .ft            12850:   Depth Driller
 DL  .ft            12857:   Depth Logger
 BLI .ft            12857:   Bottom Log Interval
 TLI .ft             8530:   Top Log Interval
 CSS .inch        10  3/4:   Casing Size
 CTD1.ft             8737:   Casing Driller 1
 CTL1.ft             8735:   Casing Logger 1
 BS  .inch         9  1/2:   Bit Size
 DFT .          fresh gel:   Type Fluid In Hole
 DFPH.                 11:   pH
 DFL .mL                4:   Fluid Loss
 WSS .            mud pit:   Source Of Sample
 RM  .ohmm           .512:   Rm
 EMT .F                78:   Rm Meas. Temp.
 RMF .ohmm           .813:   Rmf
 MFT .F                53:   Rmf Meas. Temp.
 RMC .ohmm            .40:   Rmc
 MCST.F                75:   Rmc Meas. Temp.
 MFSS.                  M:   Source Rmf.
 MCSS.                  C:   Source Rmc.
 RMB .ohmm            .23:   Rm. At BHT
 BHT .F               179:   BHT.
 MRT .F               179:   Maximum Recorded Temp.
 ENGI.             Ashton:   Recorded By
 WITN.      Hurley-Fulton:   Witnessed By
 DGBY.   Rutledge & McCoy:   Digitized By
#--RUN 2---   ------------   The following are for Run 2---
 RUN .             2.0000:   Run 2
 DATE.mm/dd/yyyy 11/29/1976:   Date Logged
 DD  .ft            13266:   Depth Driller
 DL  .ft            13271:   Depth Logger
 BLI .ft            13268:   Bottom Log Interval
 TLI .ft            12660:   Top Log Interval
 CSS .inch        10  3/4:   Casing Size
 CTD1.ft             8736:   Casing Driller 1
 CTL1.ft             8736:   Casing Logger 1
 BS  .inch         9  1/2:   Bit Size
 DFT .          fresh gel:   Type Fluid In Hole
 DFPH.               10.7:   pH
 DFL .mL             95.9:   Fluid Loss
 WSS .           flowline:   Source Of Sample
 RM  .ohmm            .43:   Rm
 EMT .F                68:   Rm Meas. Temp.
 RMF .ohmm            .43:   Rmf
 MFT .F                58:   Rmf Meas. Temp.
 RMC .ohmm            .30:   Rmc
 MCST.F                75:   Rmc Meas. Temp.
 MFSS.                  M:   Source Rmf.
 MCSS.                  C:   Source Rmc.
 RMB .ohmm           .155:   Rm. At BHT
 BHT .F               185:   BHT.
 MRT .F               185:   Maximum Recorded Temp.
 ENGI.             Ashton:   Recorded By
 WITN.            Drennen:   Witnessed By
 DGBY.   Rutledge & McCoy:   Digitized By
~OTHER INFORMATION
# Run Two Starts at 12000 ft
~A  DEPTH       GR       DPHI         DT
# ...
 9983.0000    20.7593    13.6695    45.2371
 9983.5000    22.8171    16.1836    45.3281
 9984.0000    30.5514    14.0913    45.7952
 9984.5000    38.2856     9.2832    46.2521
 9985.0000    46.0199     8.7880    46.1575
 9985.5000    49.8111     8.3237    46.5733
 9986.0000    46.2425     6.7139    47.0360
 9986.5000    42.2266     3.3365    46.8481
 9987.0000    38.2107    -1.3899    46.5215
 9987.5000    34.1948    -4.9574    45.7772
 9988.0000    30.1790    -5.5145    45.4356
 9988.5000    27.4390    -6.3176    44.7987
 9989.0000    27.3197    -8.3775    45.2145
 9989.5000    27.9450   -10.3438    45.3988
 9990.0000    28.7668   -11.5511    45.0253
 9990.5000    30.7327   -12.6867    44.7915
 9991.0000    33.8361   -13.0368    44.8361
 9991.5000    36.3024   -11.2410    45.2519
 9992.0000    36.9385   -10.4359    45.7606
 9992.5000    36.9451    -8.0828    45.2479
 9993.0000    37.0874    -6.3489    45.5245
 9993.5000    40.8760    -7.4324    45.6624
 9994.0000    46.3347   -10.1370    45.5678
 9994.5000    51.7933    -6.5651    46.0295
 9995.0000    57.2520    -5.6362    47.3270
 9995.5000    62.6364    -6.4410    47.8821
 9996.0000    56.9836    -6.5957    48.2537
 9996.5000    51.4067    -7.1528    48.2961
 9997.0000    45.8298    -6.9978    47.8762
 9997.5000    40.2528    -5.4807    48.2921
 9998.0000    34.6759    -4.4818    48.7079
 9998.5000    29.0990    -4.0562    48.6133
 9999.0000    23.5220    -5.9122    48.2867
 9999.5000    17.5525    -6.5225    48.3777
10000.0000    20.2152    -4.3448    47.4478
10000.5000    22.6963    -3.0339    46.5179
10001.0000    25.1775    -3.9626    47.7226
10001.5000    27.6586    -4.2101    47.0243
10002.0000    30.4668    -4.5894    47.2550
10002.5000    35.8261    -1.8128    45.5358
10003.0000    39.0120     0.9637    45.1628
10003.5000    39.2724     3.5614    45.3466
10004.0000    36.9693    -0.8000    45.7160
10004.5000    34.6662    -4.8976    46.0479
10005.0000    32.3630    -7.0580    46.7797
10005.5000    30.0599    -4.4985    46.5845
10006.0000    27.7568    -3.1623    46.3991
10006.5000    25.4536    -1.6319    45.6880
10007.0000    23.1505     1.6020    44.7766
10007.5000    20.8474     0.3647    44.2644
10008.0000    18.5442    -0.0065    44.0306
10008.5000    16.6866     0.2411    44.4932
10009.0000    15.6032     2.9016    44.3922
10009.5000    14.5788     3.7268    44.2567
10010.0000    14.1146     8.2479    44.5334
10010.5000    13.9713    11.5948    44.8564
10011.0000    13.9784    12.6776    45.7826
10011.5000    17.3043    13.2036    45.8277
10012.0000    20.2454    10.4814    45.3614
10012.5000    21.1059     5.7483    44.9420
10013.0000    21.4201     6.6045    44.5655
10013.5000    21.4260     7.7902    44.7523
10014.0000    21.4329     9.6464    44.8902
10014.5000    14.6918     9.3062    44.4239
10015.0000    12.7803     7.1098    44.5613
10015.5000    11.7658     8.0380    44.7451
10016.0000    11.2533     9.8942    44.6041
10016.5000    10.9513    10.6986    44.6487
10017.0000    11.1455    11.6082    44.6933
10017.5000    12.4409    12.8333    43.9355
10018.0000    14.0603    10.2039    43.6683
10018.5000    15.0299     9.3687    43.8522
10019.0000    15.6166    11.9674    44.7784
10019.5000    15.0055    13.2656    44.6374
10020.0000    13.9214    17.1725    44.6825
10020.5000    12.8050    18.8663    44.9586
10021.0000    12.2412    17.2439    45.5137
10021.5000    12.8367    16.4955    45.7480
10022.0000    14.0209    15.6801    45.7885
10022.5000    17.5140    14.9068    45.5078
10023.0000    22.1621    14.3875    45.4601
10023.5000    28.6850    12.5619    45.2722
10024.0000    29.2783    10.4832    45.0848
10024.5000    28.5566     9.4092    45.2686
10025.0000    27.7434     6.9119    45.6380
10025.5000    27.2394     6.3579    46.1040
10026.0000    26.5176     6.1467    46.5161
10026.5000    29.3068     4.4633    46.1890
10027.0000    32.5248     2.8425    45.7696
10027.5000    33.4130     4.6310    45.6750
10028.0000    33.6523     6.9572    45.3947
10028.5000    31.7752     4.4904    45.0217
10029.0000    31.1900     1.8220    45.0199
10029.5000    30.8880     0.1769    44.8325
10030.0000    30.5792    -3.0039    44.4497
10030.5000    32.0500    -0.9930    44.5500
10031.0000    34.6153    -0.7454    44.9194
10031.5000    35.3753    -1.4112    45.2425
10032.0000    36.5646    -1.5217    45.4731
10032.5000    38.3425    -2.0216    45.0068
10033.0000    39.3258    -1.3947    45.1442
10033.5000    42.5386    -1.1472    45.3744
10034.0000    45.6206    -2.1680    45.6997
10034.5000    43.0188    -4.1478    46.0438
10035.0000    40.4170    -6.0657    46.9004
10035.5000    37.8152    -6.9628    45.8308
10036.0000    35.2133    -5.5397    44.9937
10036.5000    32.6115    -4.0073    44.1567
10037.0000    30.0097    -2.9409    43.6444
10037.5000    27.4079    -3.1264    43.6426
10038.0000    24.8061    -4.4875    44.3369
10038.5000    24.1091     0.7546    45.0623
10039.0000    27.0102     5.5111    46.0962
10039.5000    30.0219    11.9272    46.0480
10040.0000    32.5571    17.3534    45.9070
10040.5000    34.0850    18.0341    45.5803
10041.0000    28.7543    16.1471    44.8825
10041.5000    27.3199    15.5336    44.7419
10042.0000    26.8885    12.1766    44.9717
10042.5000    27.0576     8.8196    44.8744
10043.0000    28.5741     5.7530    44.8288
10043.5000    28.6897     4.9487    44.8266
10044.0000    28.5848     8.3208    44.9640
10044.5000    28.3873    11.0767    45.1014
10045.0000    27.9773    12.2887    44.9604
10045.5000    27.9844    11.3528    44.8658
10046.0000    27.4935     8.5686    44.9104
10046.5000    27.3768     7.6715    44.6766
10047.0000    28.6204     9.0947    44.8140
10047.5000    29.9282    11.2293    44.6261
10048.0000    31.6651    12.0956    44.5779
10048.5000    33.8933    11.3223    44.4833
10049.0000    36.5284    10.6799    44.9919
10049.5000    38.3702     8.1361    45.3618
10050.0000    40.4026     7.5174    46.2412
10050.5000    42.4757     7.0535    46.8891
10051.0000    41.0076     6.8060    47.0265
10051.5000    37.2640     7.1464    46.5138
10052.0000    33.5203     5.9400    46.6052
10052.5000    29.7766     5.0429    45.5821
10053.0000    26.0330     3.7059    45.0699
10053.5000    22.2893     3.3311    44.9753
10054.0000    23.5273     2.9395    45.2983
10054.5000    32.2253     5.0432    45.5894
10055.0000    40.9233     5.3527    45.2011
10055.5000    49.6212     8.0132    45.5086
10056.0000    58.7106     9.8385    46.3115
10056.5000    55.8601     8.8796    46.9129
10057.0000    52.8752     6.2501    47.4216
10057.5000    49.8904     8.6248    46.4917
10058.0000    46.9055    11.5712    46.7219
10058.5000    43.9207    11.7879    46.3953
10059.0000    40.9358     8.2303    45.9294
10059.5000    37.9510     4.4969    45.7420
10060.0000    34.9661    -0.8578    45.4150
10060.5000    31.5616    -4.4841    44.7171
10061.0000    31.4370    -5.5667    45.1329
10061.5000    30.9334    -1.6997    45.0847
10062.0000    30.6510    -3.0917    44.9901
10062.5000    30.6569    -4.5766    45.2672
10063.0000    30.6727    -6.8039    45.2145
10063.5000    31.9031    -8.5671    45.3095
10064.0000    33.0331    -2.8667    45.4469
10064.5000    34.0808    -1.3848    45.2591
10065.0000    34.7753     0.4045    45.4429
10065.5000    35.7188     1.6420    45.4879
10066.0000    36.2625     0.2190    45.5325
10066.5000    35.9201    -1.9155    45.4839
10067.0000    34.9078    -1.2657    45.7141
10067.5000    34.1164    -0.3066    45.4339
10068.0000    32.7217     0.8071    45.2928
10068.5000    31.2478     1.4731    45.4303
10069.0000    30.1157     2.8490    44.9176
10069.5000    29.5294     6.2521    44.4981
10070.0000    28.7916     6.7780    44.6819
10070.5000    27.3514     9.2993    45.0978
10071.0000    29.7663    13.1108    45.3280
10071.5000    39.5685    16.4612    45.6974
10072.0000    49.3707    12.7692    45.9740
10072.5000    59.1728     9.4757    45.5323
10073.0000    68.9750     6.1822    45.2744
10073.5000    78.7772     4.6749    45.2257
