~VERSION INFORMATION
 VERS.               2.10:   CWLS LOG ASCII STANDARD - VERSION 2.10
 WRAP.                 NO:   ONE LINE PER DEPTH STEP
~WELL INFORMATION
#MNEM.UNIT      DATA TYPE    INFORMATION
#----------   ------------   ------------------------------
 STRT.F         8800.0000:   START DEPTH
 STOP.F        13240.0000:   STOP DEPTH
 STEP.F            0.5000:   STEP LENGTH
 NULL.          -999.2500:   NO VALUE
 COMP. Exxon Company, USA:   COMPANY
 WELL.     Howard Deem #1:   WELL
 FLD .            Wildcat:   FIELD
 LOC .        Wood County:   LOCATION
 STAT.      West Virginia:   STATE
 COUN.               Wood:   COUNTY
 CTRY.      Not Specified:   COUNTRY
 SRVC.       Schlumberger:   SERVICE COMPANY
 DATE.         11/22/1976:   LOGDATE
 APIN.             47-107:   API NUMBER
~CURVE INFORMATION
#MNEM.UNIT       API CODE    CURVE DESCRIPTION
#----------   ------------   ------------------------------
 DEPT.F                  :
 GR  .GAPI   60 310 00 00:   Gamma Ray
 DPHI.none   42 890 12 00:   Den. Porosity, Ss [%]
 DT  .us/f   60 520 00 00:   Delta t
~PARAMETER INFORMATION
#MNEM.UNIT          VALUE    DESCRIPTION
#----------   ------------   ------------------------------
 EKB .F          726.0000:   Kelly bushing
 EGL .F          693.0000:   Ground level
 EDF .F          723.0000:   Drilling floor
 EPD .F          693.0000:   Permanent datum
 TD  .F            0.0000:   Total depth
 NRUN.             2.0000:   Number of Runs
#--RUN 1---   ------------   The following are for Run 1---
 RUN .             1.0000:   Run 1
 DATE.mm/dd/yyyy 11/22/1976:   Date Logged
 DD  .ft            12850:   Depth Driller
 DL  .ft            12857:   Depth Logger
 BLI .ft            12857:   Bottom Log Interval
 TLI .ft             8530:   Top Log Interval
 CSS .inch        10  3/4:   Casing Size
 CTD1.ft             8737:   Casing Driller 1
 CTL1.ft             8735:   Casing Logger 1
 BS  .inch         9  1/2:   Bit Size
 DFT .          fresh gel:   Type Fluid In Hole
 DFPH.                 11:   pH
 DFL .mL                4:   Fluid Loss
 WSS .            mud pit:   Source Of Sample
 RM  .ohmm           .512:   Rm
 EMT .F                78:   Rm Meas. Temp.
 RMF .ohmm           .813:   Rmf
 MFT .F                53:   Rmf Meas. Temp.
 RMC .ohmm            .40:   Rmc
 MCST.F                75:   Rmc Meas. Temp.
 MFSS.                  M:   Source Rmf.
 MCSS.                  C:   Source Rmc.
 RMB .ohmm            .23:   Rm. At BHT
 BHT .F               179:   BHT.
 MRT .F               179:   Maximum Recorded Temp.
 ENGI.             Ashton:   Recorded By
 WITN.      Hurley-Fulton:   Witnessed By
 DGBY.   Rutledge & McCoy:   Digitized By
#--RUN 2---   ------------   The following are for Run 2---
 RUN .             2.0000:   Run 2
 DATE.mm/dd/yyyy 11/29/1976:   Date Logged
 DD  .ft            13266:   Depth Driller
 DL  .ft            13271:   Depth Logger
 BLI .ft            13268:   Bottom Log Interval
 TLI .ft            12660:   Top Log Interval
 CSS .inch        10  3/4:   Casing Size
 CTD1.ft             8736:   Casing Driller 1
 CTL1.ft             8736:   Casing Logger 1
 BS  .inch         9  1/2:   Bit Size
 DFT .          fresh gel:   Type Fluid In Hole
 DFPH.               10.7:   pH
 DFL .mL             95.9:   Fluid Loss
 WSS .           flowline:   Source Of Sample
 RM  .ohmm            .43:   Rm
 EMT .F                68:   Rm Meas. Temp.
 RMF .ohmm            .43:   Rmf
 MFT .F                58:   Rmf Meas. Temp.
 RMC .ohmm            .30:   Rmc
 MCST.F                75:   Rmc Meas. Temp.
 MFSS.                  M:   Source Rmf.
 MCSS.                  C:   Source Rmc.
 RMB .ohmm           .155:   Rm. At BHT
 BHT .F               185:   BHT.
 MRT .F               185:   Maximum Recorded Temp.
 ENGI.             Ashton:   Recorded By
 WITN.            Drennen:   Witnessed By
 DGBY.   Rutledge & McCoy:   Digitized By
~OTHER INFORMATION
# Run Two Starts at 12000 ft
~A  DEPTH       GR       DPHI         DT
# ...
 9710.0000    54.7437    31.2384    45.9725
 9710.5000    37.6731    30.6192    47.5016
 9711.0000    29.5031    16.8731    48.0566
 9711.5000    30.4882     2.6447    48.7657
 9712.0000    32.7026    -2.8663    50.8368
 9712.5000    34.9169    -3.3714    53.3871
 9713.0000    37.1313    -1.9677    53.8494
 9713.5000    36.9066    -1.5170    54.2188
 9714.0000    36.0170    -2.8483    54.4026
 9714.5000    35.2957    -4.7988    53.4727
 9715.0000    34.5744    -5.3251    52.7285
 9715.5000    33.8530    -4.5511    51.5666
 9716.0000    33.1317    -3.7152    50.4017
 9716.5000    32.4104    -3.0949    50.2112
 9717.0000    31.6890    -3.4545    51.2359
 9717.5000    35.2846    -3.7771    51.4201
 9718.0000    42.8571    -3.2817    50.9074
 9718.5000    39.2237    -2.9412    49.9311
 9719.0000    35.3234    -2.5077    47.5627
 9719.5000    31.4231    -2.3220    46.0760
 9720.0000    27.5228    -3.8700    45.2389
 9720.5000    25.7075    -4.2797    46.8148
 9721.0000    27.1035    -6.0681    48.4556
 9721.5000    29.0287    -5.9133    49.3630
 9722.0000    31.9876    -5.6966    49.5936
 9722.5000    31.5655    -5.6347    48.4777
 9723.0000    31.0559    -4.7059    47.6870
 9723.5000    32.5928    -4.2307    48.6133
 9724.0000    37.8656    -5.0777    50.2820
 9724.5000    44.0994    -5.2941    51.9971
 9725.0000    43.0644    -5.2012    53.7587
 9725.5000    41.9255    -4.6749    53.4243
 9726.0000    42.8571    -3.4675    52.0805
 9726.5000    44.9031    -2.3529    51.2010
 9727.0000    46.7875    -1.4241    51.8020
 9727.5000    48.1366    -0.8978    52.0791
 9728.0000    48.1366    -1.9667    52.1232
 9728.5000    48.1984    -2.9002    52.8175
 9729.0000    49.6894    -2.6935    52.7229
 9729.5000    51.1046    -3.4056    52.0714
 9730.0000    53.1357    -4.4892    51.4963
 9730.5000    55.5901    -4.2724    53.1553
 9731.0000    57.7458    -4.2105    54.0394
 9731.5000    59.9379    -4.0557    54.5695
 9732.0000    56.0746    -3.9229    53.6396
 9732.5000    52.1340    -3.1889    51.6889
 9733.0000    48.1935    -2.5077    50.9450
 9733.5000    44.2529    -3.2198    51.8709
 9734.0000    45.8319    -2.4687    52.1475
 9734.5000    47.2050     0.4954    52.2385
 9735.0000    47.8151    -2.5471    52.4702
 9735.5000    48.7578    -4.6775    52.7917
 9736.0000    49.0683    -5.0200    52.4182
 9736.5000    48.6279    -4.3034    51.9988
 9737.0000    48.1366    -3.8700    52.0438
 9737.5000    48.4472    -3.1889    52.0884
 9738.0000    49.7084    -3.4985    53.4783
 9738.5000    51.2422    -4.9226    53.8941
 9739.0000    52.7950    -5.3870    54.0843
 9739.5000    47.9128    -4.8473    51.9415
 9740.0000    41.6792    -4.7059    50.1065
 9740.5000    35.4455    -5.0464    48.4958
 9741.0000    33.8509    -5.8204    47.9918
 9741.5000    35.7143    -4.0867    49.7064
 9742.0000    36.8351    -3.1889    50.3543
 9742.5000    38.0534    -4.6076    50.7701
 9743.0000    39.2717    -5.0789    51.0467
 9743.5000    40.4899    -4.4272    51.3233
 9744.0000    41.7082    -5.2941    52.0176
 9744.5000    42.9265    -5.0155    53.3630
 9745.0000    44.1448    -5.9752    53.7773
 9745.5000    45.3416    -5.8514    53.3574
 9746.0000    41.1827    -5.1703    52.4275
 9746.5000    37.0957    -4.9226    51.3120
 9747.0000    36.0879    -3.5491    50.0109
 9747.5000    37.2554    -2.1981    49.7311
 9748.0000    38.4229    -1.8576    50.8426
 9748.5000    39.5904    -3.7292    50.7944
 9749.0000    40.2039    -3.9409    50.5141
 9749.5000    39.5586    -4.9586    49.7116
 9750.0000    38.8618    -5.4599    49.2576
 9750.5000    39.6454    -4.7678    49.9050
 9751.0000    41.9443    -4.9226    50.1821
 9751.5000    44.2432    -5.6037    50.5510
 9752.0000    45.6986    -6.6873    51.1525
 9752.5000    44.6504    -6.5015    51.0579
 9753.0000    43.6022    -6.1610    50.3136
 9753.5000    42.5540    -4.1604    50.5438
 9754.0000    43.0655    -3.1889    50.7744
 9754.5000    45.9126    -2.9412    51.3434
 9755.0000    48.7598    -4.5511    51.8377
 9755.5000    49.1343    -5.3251    51.5570
 9756.0000    48.7578    -4.3963    51.2768
 9756.5000    48.8257    -3.7771    51.4142
 9757.0000    49.3789    -3.5279    51.8300
 9757.5000    49.8372    -3.8792    52.0602
 9758.0000    47.9932    -3.7771    51.9656
 9758.5000    47.2050    -3.1889    52.0566
 9759.0000    47.6534    -4.1176    52.2121
 9759.5000    48.2716    -4.6749    52.8418
 9760.0000    51.2422    -3.9009    52.5611
 9760.5000    51.0816    -3.0031    52.3737
 9761.0000    49.3580    -2.4768    51.8615
 9761.5000    48.0318    -3.0960    51.4884
 9762.0000    47.3204    -3.5913    51.5330
 9762.5000    46.8944    -2.7245    51.7168
 9763.0000    47.0822    -3.9082    51.9935
 9763.5000    47.5924    -4.9732    52.2701
 9764.0000    48.1366    -6.1610    52.0729
 9764.5000    48.6145    -5.3251    51.6628
 9765.0000    49.5498    -6.3158    51.5217
 9765.5000    51.5528    -7.0078    52.4944
 9766.0000    52.9418    -6.1300    53.1887
 9766.5000    51.0946    -6.5325    53.5121
 9767.0000    49.0683    -5.9443    52.9994
 9767.5000    48.1936    -5.6037    52.3480
 9768.0000    47.4479    -5.9133    51.8357
 9768.5000    46.2733    -4.3963    52.1191
 9769.0000    46.7976    -4.4112    52.4353
 9769.5000    47.8261    -3.8390    52.2939
 9770.0000    48.3334    -4.0557    52.5709
 9770.5000    48.9310    -3.1579    52.2443
 9771.0000    50.0000    -2.6935    52.6597
 9771.5000    50.3106    -2.2910    53.4003
 9772.0000    49.4916    -2.5077    53.0737
 9772.5000    46.8944    -3.7152    52.3758
 9773.0000    43.6287    -3.6141    51.5387
 9773.5000    40.4996    -3.7152    50.4967
 9774.0000    38.8199    -3.1889    50.2818
 9774.5000    39.7126    -3.6842    50.7904
 9775.0000    41.4082    -4.0557    52.2271
 9775.5000    43.4783    -4.7059    52.9214
 9776.0000    44.7575    -5.6828    53.7084
 9776.5000    46.6139    -6.5635    53.6138
 9777.0000    49.7826    -5.4227    52.9623
 9777.5000    55.5438    -4.4698    51.9396
 9778.0000    54.9689    -4.8829    50.1258
 9778.5000    50.7523    -5.9752    50.3260
 9779.0000    45.7520    -3.3467    48.9639
 9779.5000    42.2360    -1.6099    47.8948
 9780.0000    41.9255    -3.2508    46.5009
 9780.5000    41.4477    -3.9009    45.4318
 9781.0000    39.1304    -4.1796    46.3117
 9781.5000    45.9572    -4.5201    48.6765
 9782.0000    54.3520    -5.5418    50.7164
 9782.5000    55.6538    -6.7925    53.9165
 9783.0000    53.0997    -7.4303    54.7963
 9783.5000    49.9254    -8.7616    54.0980
 9784.0000    47.2050    -7.9876    54.0038
 9784.5000    46.1685    -5.8866    54.1877
 9785.0000    45.6522    -3.4365    52.9789
 9785.5000    44.9515    -4.6749    51.3994
 9786.0000    43.7599    -4.4272    49.4486
 9786.5000    36.9565    -5.6865    47.9464
 9787.0000    35.1900    -5.7895    48.6097
 9787.5000    35.6635    -5.0774    49.3559
 9788.0000    38.1988    -4.5511    49.9652
 9788.5000    40.0603    -6.1920    50.5992
 9789.0000    41.8387    -5.7895    50.8294
 9789.5000    45.3416    -4.9226    50.3172
 9790.0000    45.3826    -4.4582    49.6193
 9790.5000    44.3621    -5.0464    48.7822
 9791.0000    43.4783    -5.5418    49.4301
 9791.5000    43.4783    -4.7988    50.0018
 9792.0000    43.1557    -4.0557    49.1480
 9792.5000    41.4171    -3.6842    48.2140
 9793.0000    40.6832    -3.3437    48.0771
 9793.5000    40.6832    -3.7461    48.8173
 9794.0000    44.0858    -3.7051    50.2076
 9794.5000    47.5979    -3.2508    50.9947
 9795.0000    51.1100    -2.9721    51.6889
 9795.5000    54.6221    -3.2198    52.5688
 9796.0000    57.7640    -3.9319    52.8918
 9796.5000    55.2539    -3.6223    52.2403
 9797.0000    52.9831    -3.6842    51.3958
 9797.5000    50.7124    -4.6145    50.4863
 9798.0000    48.4416    -4.9536    49.8679
 9798.5000    46.1709    -4.2724    49.9589
 9799.0000    46.5432    -4.1486    50.3283
 9799.5000    48.4361    -4.5511    51.4866
 9800.0000    50.3290    -4.0795    52.0880
 9800.5000    52.0359    -2.9075    52.6431
