~VERSION INFORMATION
VERS.      2.0   :CWLS LOG ASCII STANDARD--VERSION 2.0
WRAP.      NO    :ONE LINE PER DEPTH STEP
~WELL INFORMATION
#MNEM.UNIT              DATA          DESCRIPTION
#================================================
STRT.FT                          0.50000 :START DEPTH
STOP.FT                      11450.00000 :STOP DEPTH
STEP.FT                          0.50000 :STEP
NULL.                         -999.00000 :NULL VALUE
COMP.                                            : COMPANY
WELL.   AMOCO 1 ULLMAN, R                        : WELL NAME
UWI.    3412121278                               : WELL UWI
API.    3412121278                               : WELL API
LOC.    ELK TWP                                  : WELL LOCATION
DATE.   NOBLE CO, OH                             : WELL DATE
FLD.    No Project Selected                      : Project NAME
~CURVE INFORMATION
#================================================
Depth   .FT                  :Depth
GR      .GAPI                :GR
RHOB    .G/CC                :RHOB
DT      .US/F                :DT
NPHI    .V/V                 :Neutron porosity units
CAL     .IN                  :CAL
NAPI    .API                 :Neutron API units
~PARAMETER INFORMATION
#================================================
EKB     .ft         1035.00000   : KB Elevation
LONG    .degW         81.34713   : LONG
LAT     .degN         39.61085   : LAT
~OTHER INFORMATION
#================================================
~A
# ...
   11421.50000      53.99999       2.81000      64.50000       0.00191       7.87000    2080.00000
   11422.00000      52.19999       2.80500      64.70000       0.00249       7.96000    2004.00000
   11422.50000      50.59999       2.79500      64.89999       0.00325       8.04000    1928.00000
   11423.00000      48.80000       2.78800      65.09999       0.00423       8.04000    1852.00000
   11423.50000      47.20000       2.77000      64.70000       0.00466       8.03000    1824.00000
   11424.00000      45.59999       2.76400      65.09999       0.00514       8.03000    1796.00000
   11424.50000      43.99999       2.77000      65.50000       0.00353       8.03000    1904.00000
   11425.00000      43.80000       2.77700      64.39999       0.00246       8.03000    2008.00000
   11425.50000      43.80000       2.76400      64.30000       0.00141       8.02000    2168.00000
   11426.00000      44.80000       2.79500      64.20000       0.00130       8.02000    2192.00000
   11426.50000      45.59999       2.80900      64.09999       0.00118       8.05000    2220.00000
   11427.00000      45.80000       2.80100      64.50000       0.00108       8.07000    2244.00000
   11427.50000      45.80000       2.79300      64.89999       0.00100       8.10000    2268.00000
   11428.00000      47.80000       2.78500      64.30000       0.00094       8.12000    2284.00000
   11428.50000      46.80000       2.77900      63.70000       0.00089       8.15000    2300.00000
   11429.00000      45.99999       2.78600      64.70000       0.00075       8.17000    2348.00000
   11429.50000      44.99999       2.79700      64.50000       0.00064       8.12000    2396.00000
   11430.00000      44.20000       2.81000      64.30000       0.00055       8.06000    2440.00000
   11430.50000      44.80000       2.81700      64.59999       0.00048       8.01000    2476.00000
   11431.00000      45.20000       2.74500      64.30000       0.00043       8.01000    2512.00000
   11431.50000      45.80000       2.68600      65.09999       0.00051       8.01000    2460.00000
   11432.00000      44.99999       2.61900      64.30000       0.00061       8.01000    2408.00000
   11432.50000      44.20000       2.56100      63.60000       0.00073       8.01000    2356.00000
   11433.00000      43.59999       2.50100      64.89999       0.00084       8.01000    2316.00000
   11433.50000      42.80000       2.44300      64.30000       0.00097       8.01000    2276.00000
   11434.00000      42.20000       2.38300      63.80000       0.00111       8.01000    2236.00000
   11434.50000      42.59999       2.33500      65.09999       0.00098       8.01000    2272.00000
   11435.00000      43.99999       2.31300      64.09999       0.00087       8.01000    2308.00000
   11435.50000      45.20000       2.30600      64.70000       0.00078       8.01000    2340.00000
   11436.00000      44.80000       2.29900      65.30000       0.00069       8.01000    2372.00000
   11436.50000      44.39999       2.29400      65.20000       0.00062       8.01000    2404.00000
   11437.00000      44.20000       2.29100      65.09999       0.00066       8.01000    2388.00000
   11437.50000      43.80000       2.28800      65.20000       0.00068       8.01000    2376.00000
   11438.00000      43.59999       2.27600      65.20000       0.00075       8.01000    2348.00000
   11438.50000      45.59999       2.26900      65.30000       0.00075       8.01000    2348.00000
   11439.00000      47.20000       2.26800      65.30000       0.00094       8.01000    2284.00000
   11439.50000      48.59999       2.26200      64.20000       0.00095       8.01000    2280.00000
   11440.00000      48.59999       2.26000      64.20000       0.00095       8.01000    2280.00000
   11440.50000    -999.00000       2.26000    -999.00000    -999.00000    -999.00000    -999.00000
   11441.00000    -999.00000       2.25900    -999.00000    -999.00000    -999.00000    -999.00000
   11441.50000    -999.00000       2.26000    -999.00000    -999.00000    -999.00000    -999.00000
   11442.00000    -999.00000       2.26300    -999.00000    -999.00000    -999.00000    -999.00000
   11442.50000    -999.00000       2.25800    -999.00000    -999.00000    -999.00000    -999.00000
   11443.00000    -999.00000       2.25300    -999.00000    -999.00000    -999.00000    -999.00000
   11443.50000    -999.00000       2.24800    -999.00000    -999.00000    -999.00000    -999.00000
   11444.00000    -999.00000       2.22500    -999.00000    -999.00000    -999.00000    -999.00000
   11444.50000    -999.00000       2.24100    -999.00000    -999.00000    -999.00000    -999.00000
   11445.00000    -999.00000       2.22700    -999.00000    -999.00000    -999.00000    -999.00000
   11445.50000    -999.00000       2.21600    -999.00000    -999.00000    -999.00000    -999.00000
   11446.00000    -999.00000       2.19700    -999.00000    -999.00000    -999.00000    -999.00000
   11446.50000    -999.00000       2.40400    -999.00000    -999.00000    -999.00000    -999.00000
   11447.00000    -999.00000       2.47100    -999.00000    -999.00000    -999.00000    -999.00000
   11447.50000    -999.00000       2.49700    -999.00000    -999.00000    -999.00000    -999.00000
   11448.00000    -999.00000       2.50500    -999.00000    -999.00000    -999.00000    -999.00000
   11448.50000    -999.00000       2.50300    -999.00000    -999.00000    -999.00000    -999.00000
   11449.00000    -999.00000       2.50200    -999.00000    -999.00000    -999.00000    -999.00000
   11449.50000    -999.00000       2.50100    -999.00000    -999.00000    -999.00000    -999.00000
   11450.00000    -999.00000       2.50000    -999.00000    -999.00000    -999.00000    -999.00000
