~VERSION INFORMATION
VERS.      2.0   :CWLS LOG ASCII STANDARD--VERSION 2.0
WRAP.      NO    :ONE LINE PER DEPTH STEP
~WELL INFORMATION
#MNEM.UNIT              DATA          DESCRIPTION
#================================================
STRT.FT                          0.50000 :START DEPTH
STOP.FT                      11450.00000 :STOP DEPTH
STEP.FT                          0.50000 :STEP
NULL.                         -999.00000 :NULL VALUE
COMP.                                            : COMPANY
WELL.   AMOCO 1 ULLMAN, R                        : WELL NAME
UWI.    3412121278                               : WELL UWI
API.    3412121278                               : WELL API
LOC.    ELK TWP                                  : WELL LOCATION
DATE.   NOBLE CO, OH                             : WELL DATE
FLD.    No Project Selected                      : Project NAME
~CURVE INFORMATION
#================================================
Depth   .FT                  :Depth
GR      .GAPI                :GR
RHOB    .G/CC                :RHOB
DT      .US/F                :DT
NPHI    .V/V                 :Neutron porosity units
CAL     .IN                  :CAL
NAPI    .API                 :Neutron API units
~PARAMETER INFORMATION
#================================================
EKB     .ft         1035.00000   : KB Elevation
LONG    .degW         81.34713   : LONG
LAT     .degN         39.61085   : LAT
~OTHER INFORMATION
#================================================
~A
# ...
    5346.50000      14.40000    -999.00000      51.60000       0.00707      14.97000    1704.00000
    5347.00000      12.40000    -999.00000      52.30000       0.00543      14.83000    1780.00000
    5347.50000      10.60000    -999.00000      51.90000       0.00423      14.83000    1852.00000
    5348.00000       8.60000    -999.00000      51.60000       0.00329      14.83000    1924.00000
    5348.50000       9.00000    -999.00000      51.10000       0.00472      14.84000    1820.00000
    5349.00000       9.20000    -999.00000      50.60000       0.00660      14.84000    1724.00000
    5349.50000       9.60000    -999.00000      50.60000       0.00813      14.84000    1664.00000
    5350.00000       9.80000    -999.00000      50.70000       0.01001      14.84000    1604.00000
    5350.50000      10.00000    -999.00000      50.70000       0.01233      14.84000    1544.00000
    5351.00000      10.00000    -999.00000      50.70000       0.01166      14.84000    1560.00000
    5351.50000      10.20000    -999.00000      50.80000       0.01088      14.85000    1580.00000
    5352.00000      10.20000    -999.00000      50.80000       0.01029      14.85000    1596.00000
    5352.50000      10.20000    -999.00000      50.80000       0.01044      14.85000    1592.00000
    5353.00000      10.40000    -999.00000      50.70000       0.01044      14.85000    1592.00000
    5353.50000      10.40000    -999.00000      50.60000       0.01058      14.85000    1588.00000
    5354.00000      10.20000    -999.00000      50.50000       0.01150      14.86000    1564.00000
    5354.50000      10.20000    -999.00000      50.90000       0.01233      14.86000    1544.00000
    5355.00000      10.20000    -999.00000      51.20000       0.01341      14.86000    1520.00000
    5355.50000      10.20000    -999.00000      51.40000       0.01417      14.86000    1504.00000
    5356.00000      10.20000    -999.00000      51.50000       0.01519      14.86000    1484.00000
    5356.50000       9.20000    -999.00000      51.50000       0.01606      14.86000    1468.00000
    5357.00000       8.20000    -999.00000      51.30000       0.01606      14.87000    1468.00000
    5357.50000       7.20000    -999.00000      51.30000       0.01606      14.87000    1468.00000
    5358.00000       8.00000    -999.00000      51.20000       0.01746      14.87000    1444.00000
    5358.50000       8.60000    -999.00000      51.20000       0.01898      14.86000    1420.00000
    5359.00000       9.40000    -999.00000      51.20000       0.02063      14.85000    1396.00000
    5359.50000      10.00000    -999.00000      51.10000       0.02242      14.83000    1372.00000
    5360.00000      10.80000    -999.00000      51.10000       0.02437      14.82000    1348.00000
    5360.50000      11.00000    -999.00000      51.00000       0.01979      14.81000    1408.00000
    5361.00000      11.00000    -999.00000      51.00000       0.01629      14.81000    1464.00000
    5361.50000      11.20000    -999.00000      51.20000       0.01322      14.81000    1524.00000
    5362.00000      10.00000    -999.00000      51.30000       0.01073      14.81000    1584.00000
    5362.50000       9.00000    -999.00000      51.20000       0.00871      14.81000    1644.00000
    5363.00000       7.40000    -999.00000      50.20000       0.00717      14.81000    1700.00000
    5363.50000       8.60000    -999.00000      50.50000       0.00582      14.81000    1760.00000
    5364.00000       9.60000    -999.00000      50.20000       0.00660      14.81000    1724.00000
    5364.50000      10.80000    -999.00000      50.30000       0.00748      14.81000    1688.00000
    5365.00000      11.80000    -999.00000      50.10000       0.00758      14.81000    1684.00000
    5365.50000       8.80000    -999.00000      49.90000       0.00769      14.81000    1680.00000
    5366.00000       7.80000    -999.00000      49.70000       0.00790      14.82000    1672.00000
    5366.50000       7.00000    -999.00000      50.60000       0.00801      14.82000    1668.00000
    5367.00000       5.80000    -999.00000      50.80000       0.00883      14.82000    1640.00000
    5367.50000       7.00000    -999.00000      50.70000       0.00974      14.82000    1612.00000
    5368.00000       8.20000    -999.00000      50.70000       0.01029      14.82000    1596.00000
    5368.50000       9.40000    -999.00000      50.50000       0.01073      14.82000    1584.00000
    5369.00000      10.60000    -999.00000      50.40000       0.01058      14.82000    1588.00000
    5369.50000      10.40000    -999.00000      50.20000       0.01058      14.82000    1588.00000
    5370.00000      10.20000    -999.00000      50.30000       0.01088      14.82000    1580.00000
    5370.50000      10.00000    -999.00000      50.30000       0.01134      14.82000    1568.00000
    5371.00000       9.80000    -999.00000      51.10000       0.01166      14.82000    1560.00000
    5371.50000       9.60000    -999.00000      50.70000       0.01134      14.82000    1568.00000
    5372.00000      10.20000    -999.00000      50.30000       0.01088      14.81000    1580.00000
    5372.50000      10.80000    -999.00000      49.50000       0.01058      14.81000    1588.00000
    5373.00000      11.40000    -999.00000      48.70000       0.01457      14.81000    1496.00000
    5373.50000      12.00000    -999.00000      48.90000       0.02006      14.81000    1404.00000
    5374.00000      12.40000    -999.00000      49.10000       0.02006      14.80000    1404.00000
    5374.50000      14.20000    -999.00000      49.40000       0.01979      14.80000    1408.00000
    5375.00000      13.40000    -999.00000      49.60000       0.01979      14.79000    1408.00000
    5375.50000      12.80000    -999.00000      49.80000       0.02801      14.79000    1308.00000
    5376.00000      13.60000    -999.00000      49.70000       0.03965      14.78000    1208.00000
    5376.50000      15.80000    -999.00000      48.90000       0.05614      14.78000    1108.00000
    5377.00000      17.80000    -999.00000      50.60000       0.07947      14.79000    1008.00000
    5377.50000      22.60000    -999.00000      51.90000       0.08286      14.80000     996.00000
    5378.00000      20.20000    -999.00000      52.30000       0.08760      14.82000     980.00000
    5378.50000      18.40000    -999.00000      52.60000       0.09133      14.83000     968.00000
    5379.00000      16.40000    -999.00000      52.30000       0.10495      14.84000     928.00000
    5379.50000      15.40000    -999.00000      51.80000       0.11894      14.81000     892.00000
    5380.00000      14.40000    -999.00000      51.30000       0.13669      14.77000     852.00000
    5380.50000      13.40000    -999.00000      50.80000       0.12751      14.74000     872.00000
    5381.00000      13.60000    -999.00000      50.80000       0.11894      14.74000     892.00000
    5381.50000      13.60000    -999.00000      50.80000       0.11251      14.74000     908.00000
    5382.00000      14.40000    -999.00000      50.80000       0.10791      14.74000     920.00000
    5382.50000      15.20000    -999.00000      51.00000       0.10208      14.74000     936.00000
    5383.00000      16.00000    -999.00000      50.70000       0.09007      14.74000     972.00000
    5383.50000      15.40000    -999.00000      49.70000       0.07947      14.80000    1008.00000
    5384.00000      14.60000    -999.00000      48.80000       0.07013      14.86000    1044.00000
    5384.50000      14.00000    -999.00000      48.70000       0.07517      14.85000    1024.00000
    5385.00000      13.40000    -999.00000      48.40000       0.07947      14.85000    1008.00000
    5385.50000      14.00000    -999.00000      49.10000       0.07838      14.84000    1012.00000
    5386.00000      14.40000    -999.00000      49.70000       0.07838      14.83000    1012.00000
    5386.50000      15.00000    -999.00000      50.40000       0.07838      14.83000    1012.00000
