~VERSION INFORMATION
VERS.      2.0   :CWLS LOG ASCII STANDARD--VERSION 2.0
WRAP.      NO    :ONE LINE PER DEPTH STEP
~WELL INFORMATION
#MNEM.UNIT              DATA          DESCRIPTION
#================================================
STRT.FT                          0.50000 :START DEPTH
STOP.FT                      11450.00000 :STOP DEPTH
STEP.FT                          0.50000 :STEP
NULL.                         -999.00000 :NULL VALUE
COMP.                                            : COMPANY
WELL.   AMOCO 1 ULLMAN, R                        : WELL NAME
UWI.    3412121278                               : WELL UWI
API.    3412121278                               : WELL API
LOC.    ELK TWP                                  : WELL LOCATION
DATE.   NOBLE CO, OH                             : WELL DATE
FLD.    No Project Selected                      : Project NAME
~CURVE INFORMATION
#================================================
Depth   .FT                  :Depth
GR      .GAPI                :GR
RHOB    .G/CC                :RHOB
DT      .US/F                :DT
NPHI    .V/V                 :Neutron porosity units
CAL     .IN                  :CAL
NAPI    .API                 :Neutron API units
~PARAMETER INFORMATION
#================================================
EKB     .ft         1035.00000   : KB Elevation
LONG    .degW         81.34713   : LONG
LAT     .degN         39.61085   : LAT
~OTHER INFORMATION
#================================================
~A
# ...
    3038.00000      64.19998    -999.00000      69.09999       0.21930      15.05000     716.00000
    3038.50000      63.99999    -999.00000      68.20000       0.23509      14.96000     696.00000
    3039.00000      66.59999    -999.00000      66.59999       0.24854      14.94000     680.00000
    3039.50000      68.99998    -999.00000      66.39999       0.26643      14.92000     660.00000
    3040.00000      71.59999    -999.00000      68.00000       0.28167      14.90000     644.00000
    3040.50000      71.19998    -999.00000      69.30000       0.30195      14.99000     624.00000
    3041.00000      67.59999    -999.00000      70.59999       0.32822      15.09000     600.00000
    3041.50000      64.19998    -999.00000      70.39999       0.35678      15.18000     576.00000
    3042.00000      68.59999    -999.00000      72.59999       0.38782      14.94000     552.00000
    3042.50000      68.99998    -999.00000      72.50000       0.38247      15.12000     556.00000
    3043.00000      69.39999    -999.00000      72.50000       0.36684      15.42000     568.00000
    3043.50000      69.59999    -999.00000      73.20000       0.34700      15.38000     584.00000
    3044.00000      69.99998    -999.00000      73.89999       0.33282      15.49000     596.00000
    3044.50000      70.19998    -999.00000      71.89999       0.31922      15.60000     608.00000
    3045.00000      67.79999    -999.00000      72.89999       0.31047      15.38000     616.00000
    3045.50000      65.39999    -999.00000      73.80000       0.29778      15.16000     628.00000
    3046.00000      66.19998    -999.00000      71.59999       0.31481      15.13000     612.00000
    3046.50000      65.99998    -999.00000      71.50000       0.32822      15.10000     600.00000
    3047.00000      65.99998    -999.00000      71.59999       0.34700      15.07000     584.00000
    3047.50000      65.79999    -999.00000      71.70000       0.35186      15.50000     580.00000
    3048.00000      67.19998    -999.00000      73.39999       0.35678      15.62000     576.00000
    3048.50000      69.59999    -999.00000      74.20000       0.35678      15.72000     576.00000
    3049.00000      71.99998    -999.00000      74.39999       0.36178      15.71000     572.00000
    3049.50000      68.19998    -999.00000      75.39999       0.36684      16.15000     568.00000
    3050.00000      64.59999    -999.00000      75.50000       0.37198      15.78000     564.00000
    3050.50000      64.59999    -999.00000      75.39999       0.34221      15.58000     588.00000
    3051.00000      66.39999    -999.00000      74.89999       0.31922      15.56000     608.00000
    3051.50000      68.39999    -999.00000      74.50000       0.29367      15.52000     632.00000
    3052.00000      70.19998    -999.00000      74.80000       0.25555      15.64000     672.00000
    3052.50000      72.39999    -999.00000      75.70000       0.22549      16.09000     708.00000
    3053.00000      74.39999    -999.00000      75.50000       0.25555      15.84000     672.00000
    3053.50000      73.79999    -999.00000      75.00000       0.27778      15.52000     648.00000
    3054.00000      73.59999    -999.00000      74.59999       0.28962      15.76000     636.00000
    3054.50000      73.59999    -999.00000      74.09999       0.30618      15.47000     620.00000
    3055.00000      73.39999    -999.00000      73.89999       0.31922      15.33000     608.00000
    3055.50000      72.59999    -999.00000      74.09999       0.31047      15.33000     616.00000
    3056.00000      71.59999    -999.00000      73.20000       0.30618      15.62000     620.00000
    3056.50000      70.99998    -999.00000      72.89999       0.29778      15.88000     628.00000
    3057.00000      70.39999    -999.00000      71.70000       0.29778      15.49000     628.00000
    3057.50000      69.79999    -999.00000      70.50000       0.29778      15.21000     628.00000
    3058.00000      69.99998    -999.00000      70.80000       0.28167      15.41000     644.00000
    3058.50000      68.19998    -999.00000      71.20000       0.28962      15.65000     636.00000
    3059.00000      67.99998    -999.00000      71.50000       0.29778      15.53000     628.00000
    3059.50000      67.59999    -999.00000      70.70000       0.30195      15.41000     624.00000
    3060.00000      67.39999    -999.00000      71.39999       0.31047      15.31000     616.00000
    3060.50000      67.19998    -999.00000      71.00000       0.30618      15.18000     620.00000
    3061.00000      69.39999    -999.00000      71.30000       0.27778      15.80000     648.00000
    3061.50000      71.39999    -999.00000      71.39999       0.28562      15.81000     640.00000
    3062.00000      71.59999    -999.00000      71.50000       0.29778      15.35000     628.00000
    3062.50000      71.59999    -999.00000      70.80000       0.30618      15.26000     620.00000
    3063.00000      73.79999    -999.00000      70.20000       0.27395      15.30000     652.00000
    3063.50000      73.99998    -999.00000      70.89999       0.27778      15.18000     648.00000
    3064.00000      74.19998    -999.00000      71.50000       0.27778      15.16000     648.00000
    3064.50000      71.39999    -999.00000      71.59999       0.28562      15.24000     640.00000
    3065.00000      72.59999    -999.00000      71.59999       0.29367      15.41000     632.00000
    3065.50000      73.79999    -999.00000      72.20000       0.30195      15.57000     624.00000
    3066.00000      74.99998    -999.00000      72.80000       0.31047      15.38000     616.00000
    3066.50000      69.79999    -999.00000      72.89999       0.29367      15.30000     632.00000
    3067.00000      69.99998    -999.00000      72.70000       0.27778      15.44000     648.00000
    3067.50000      69.99998    -999.00000      72.50000       0.26276      15.42000     664.00000
    3068.00000      69.79999    -999.00000      73.39999       0.27778      15.41000     648.00000
    3068.50000      65.99998    -999.00000      74.20000       0.28962      15.85000     636.00000
    3069.00000      66.59999    -999.00000      74.80000       0.30618      15.86000     620.00000
    3069.50000      67.19998    -999.00000      75.50000       0.32369      15.87000     604.00000
    3070.00000      67.59999    -999.00000      75.59999       0.38247      15.64000     556.00000
    3070.50000      70.19998    -999.00000      75.70000       0.38782      15.77000     552.00000
    3071.00000      72.59999    -999.00000      75.80000       0.39876      15.89000     544.00000
    3071.50000      72.39999    -999.00000      74.80000       0.40434      15.85000     540.00000
    3072.00000      72.39999    -999.00000      73.70000       0.37198      15.60000     564.00000
    3072.50000      72.19998    -999.00000      72.70000       0.34700      15.66000     584.00000
    3073.00000      69.79999    -999.00000      72.80000       0.35186      15.72000     580.00000
    3073.50000      67.59999    -999.00000      72.80000       0.35678      15.40000     576.00000
    3074.00000      67.79999    -999.00000      72.39999       0.31922      15.40000     608.00000
    3074.50000      69.99998    -999.00000      72.09999       0.28562      15.28000     640.00000
    3075.00000      72.19998    -999.00000      71.70000       0.27778      15.17000     648.00000
    3075.50000      71.79999    -999.00000      72.50000       0.26643      15.46000     660.00000
    3076.00000      71.19998    -999.00000      73.30000       0.25555      15.45000     672.00000
    3076.50000      70.79999    -999.00000      72.50000       0.29367      15.17000     632.00000
    3077.00000      73.39999    -999.00000      71.80000       0.33748      15.17000     592.00000
    3077.50000      72.99998    -999.00000      72.00000       0.31047      15.17000     616.00000
    3078.00000      72.39999    -999.00000      71.30000       0.28962      15.17000     636.00000
