~VERSION INFORMATION
VERS.      2.0   :CWLS LOG ASCII STANDARD--VERSION 2.0
WRAP.      NO    :ONE LINE PER DEPTH STEP
~WELL INFORMATION
#MNEM.UNIT              DATA          DESCRIPTION
#================================================
STRT.FT                          0.50000 :START DEPTH
STOP.FT                      11450.00000 :STOP DEPTH
STEP.FT                          0.50000 :STEP
NULL.                         -999.00000 :NULL VALUE
COMP.                                            : COMPANY
WELL.   AMOCO 1 ULLMAN, R                        : WELL NAME
UWI.    3412121278                               : WELL UWI
API.    3412121278                               : WELL API
LOC.    ELK TWP                                  : WELL LOCATION
DATE.   NOBLE CO, OH                             : WELL DATE
FLD.    No Project Selected                      : Project NAME
~CURVE INFORMATION
#================================================
Depth   .FT                  :Depth
GR      .GAPI                :GR
RHOB    .G/CC                :RHOB
DT      .US/F                :DT
NPHI    .V/V                 :Neutron porosity units
CAL     .IN                  :CAL
NAPI    .API                 :Neutron API units
~PARAMETER INFORMATION
#================================================
EKB     .ft         1035.00000   : KB Elevation
LONG    .degW         81.34713   : LONG
LAT     .degN         39.61085   : LAT
~OTHER INFORMATION
#================================================
~A
# ...
    8384.00000      56.39999       2.63200      83.59999       0.01606       9.50000    1468.00000
    8384.50000      56.39999       2.61100      80.30000       0.01304       9.52000    1528.00000
    8385.00000      47.59999       2.59300      82.20000       0.01058       9.50000    1588.00000
    8385.50000      44.99999       2.60400      84.00000       0.00790       9.47000    1672.00000
    8386.00000      42.20000       2.62000      86.39999       0.00590       9.45000    1756.00000
    8386.50000      39.59999       2.60900      88.80000       0.00660       9.45000    1724.00000
    8387.00000      36.99999       2.63300      83.59999       0.00727       9.45000    1696.00000
    8387.50000      36.99999       2.65400      81.89999       0.00813       9.37000    1664.00000
    8388.00000      36.99999       2.65500      80.30000       0.00896       9.29000    1636.00000
    8388.50000      35.99999       2.64200      85.80000       0.00987       9.37000    1608.00000
    8389.00000      35.20000       2.62800      87.70000       0.00836       9.47000    1656.00000
    8389.50000      34.20000       2.64900      89.50000       0.00824       9.35000    1660.00000
    8390.00000      33.39999       2.65300      92.59999       0.00737       9.23000    1692.00000
    8390.50000      34.59999       2.63400      91.79999       0.00859       9.28000    1648.00000
    8391.00000      35.99999       2.59900      89.50000       0.00987       9.34000    1608.00000
    8391.50000      37.20000       2.57300      91.79999       0.01015       9.39000    1600.00000
    8392.00000      38.20000       2.56400      94.09999       0.01286       9.61000    1532.00000
    8392.50000      39.80000       2.55300     103.00000       0.01437       9.55000    1500.00000
    8393.00000      41.39999       2.53700     111.89999       0.01629       9.49000    1464.00000
    8393.50000      42.99999       2.50200     129.00000       0.01820       9.56000    1432.00000
    8394.00000      50.99999       2.48600     129.19998       0.02034       9.63000    1400.00000
    8394.50000      58.80000       2.51400     132.39999       0.04134       9.61000    1196.00000
    8395.00000      61.59999       2.52600     135.50000       0.05692       9.59000    1104.00000
    8395.50000      64.19998       2.55500     128.79999       0.07729       9.54000    1016.00000
    8396.00000      59.99999       2.58900     112.39999       0.05692       9.35000    1104.00000
    8396.50000      55.99999       2.60900     104.59999       0.04251       9.26000    1188.00000
    8397.00000      51.80000       2.60300      96.79999       0.03264       9.18000    1264.00000
    8397.50000      46.99999       2.59300      90.89999       0.02541       9.20000    1336.00000
    8398.00000      42.59999       2.58500      98.50000       0.01951       9.10000    1412.00000
    8398.50000      38.39999       2.58700     103.70000       0.01519       9.04000    1484.00000
    8399.00000      33.99999       2.61300     108.79999       0.01166       8.99000    1560.00000
    8399.50000      37.20000       2.63000     109.39999       0.01872       8.93000    1424.00000
    8400.00000      40.20000       2.64400     109.89999       0.03003       8.94000    1288.00000
    8400.50000      43.39999       2.65700     112.00000       0.03045       8.96000    1284.00000
    8401.00000      43.20000       2.64800     110.70000       0.03045       8.97000    1284.00000
    8401.50000      42.99999       2.64000     108.00000       0.02724       9.00000    1316.00000
    8402.00000      42.80000       2.65500     104.89999       0.02437       9.03000    1348.00000
    8402.50000      42.80000       2.66600     109.89999       0.02181       9.06000    1380.00000
    8403.00000      42.99999       2.64600     114.50000       0.02034       9.04000    1400.00000
    8403.50000      43.20000       2.62800     115.89999       0.01872       9.03000    1424.00000
    8404.00000      43.39999       2.61700     117.29999       0.01746       9.03000    1444.00000
    8404.50000      46.20000       2.63800     117.09999       0.02092       9.04000    1392.00000
    8405.00000      48.99999       2.63500     119.39999       0.02472       9.04000    1344.00000
    8405.50000      49.99999       2.61500     121.70000       0.02506       9.03000    1340.00000
    8406.00000      50.99999       2.58100     126.50000       0.02506       9.02000    1340.00000
    8406.50000      52.39999       2.56000     130.19998       0.02577       9.01000    1332.00000
    8407.00000      53.80000       2.59100     126.89999       0.03174       8.95000    1272.00000
    8407.50000      54.59999       2.65000     123.70000       0.03911       8.89000    1212.00000
    8408.00000      55.39999       2.66600     120.39999       0.04818       8.91000    1152.00000
    8408.50000      55.99999       2.65800     112.89999       0.04953       8.92000    1144.00000
    8409.00000      56.80000       2.61200     109.20000       0.05093       8.94000    1136.00000
    8409.50000      53.80000       2.58100     111.39999       0.04751       8.95000    1156.00000
    8410.00000      50.80000       2.56300     120.09999       0.04494       9.03000    1172.00000
    8410.50000      47.80000       2.55300     122.70000       0.04021       9.11000    1204.00000
    8411.00000      49.20000       2.61600     124.70000       0.04134       9.09000    1196.00000
    8411.50000      50.59999       2.63600     121.70000       0.04077       9.20000    1200.00000
    8412.00000      50.80000       2.61600     118.70000       0.04077       9.30000    1200.00000
    8412.50000      50.80000       2.62300      99.79999       0.03003       9.31000    1288.00000
    8413.00000      46.39999       2.63400      89.59999       0.02274       9.31000    1368.00000
    8413.50000      41.80000       2.63800      88.30000       0.01722       9.52000    1448.00000
    8414.00000      37.39999       2.62100      87.09999       0.01322       9.49000    1524.00000
    8414.50000      34.39999       2.59600      86.59999       0.01001       9.45000    1604.00000
    8415.00000      31.40000       2.60200      85.80000       0.00642       9.42000    1732.00000
    8415.50000      28.40000       2.58600      81.39999       0.00642       9.37000    1732.00000
    8416.00000      29.40000       2.58900      84.39999       0.00651       9.33000    1728.00000
    8416.50000      27.80000       2.58300      87.30000       0.00651       9.28000    1728.00000
    8417.00000      26.59999       2.56800      84.50000       0.00642       9.39000    1732.00000
    8417.50000      28.80000       2.56300      83.20000       0.00607       9.50000    1748.00000
    8418.00000      31.00000       2.54200      87.09999       0.00660       9.56000    1724.00000
    8418.50000      31.59999       2.52800      87.80000       0.00717       9.62000    1700.00000
    8419.00000      32.39999       2.57600      88.39999       0.00717       9.54000    1700.00000
    8419.50000      32.99999       2.64400      85.80000       0.00717       9.46000    1700.00000
    8420.00000      33.39999       2.66300      83.30000       0.00707       9.38000    1704.00000
    8420.50000      33.80000       2.64200      77.50000       0.00669       9.35000    1720.00000
    8421.00000      30.59999       2.62700      74.50000       0.00642       9.33000    1732.00000
    8421.50000      27.20000       2.61300      76.59999       0.00466       9.30000    1824.00000
    8422.00000      24.00000       2.60900      78.89999       0.00343       9.29000    1912.00000
    8422.50000      20.80000       2.62700      80.30000       0.00249       9.27000    2004.00000
    8423.00000      22.60000       2.64300      81.39999       0.00214       9.26000    2048.00000
    8423.50000      24.20000       2.65700      78.30000       0.00263       9.25000    1988.00000
    8424.00000      26.00000       2.67200      75.39999       0.00325       9.22000    1928.00000
