~VERSION INFORMATION
VERS.      2.0   :CWLS LOG ASCII STANDARD--VERSION 2.0
WRAP.      NO    :ONE LINE PER DEPTH STEP
~WELL INFORMATION
#MNEM.UNIT              DATA          DESCRIPTION
#================================================
STRT.FT                          0.50000 :START DEPTH
STOP.FT                      11450.00000 :STOP DEPTH
STEP.FT                          0.50000 :STEP
NULL.                         -999.00000 :NULL VALUE
COMP.                                            : COMPANY
WELL.   AMOCO 1 ULLMAN, R                        : WELL NAME
UWI.    3412121278                               : WELL UWI
API.    3412121278                               : WELL API
LOC.    ELK TWP                                  : WELL LOCATION
DATE.   NOBLE CO, OH                             : WELL DATE
FLD.    No Project Selected                      : Project NAME
~CURVE INFORMATION
#================================================
Depth   .FT                  :Depth
GR      .GAPI                :GR
RHOB    .G/CC                :RHOB
DT      .US/F                :DT
NPHI    .V/V                 :Neutron porosity units
CAL     .IN                  :CAL
NAPI    .API                 :Neutron API units
~PARAMETER INFORMATION
#================================================
EKB     .ft         1035.00000   : KB Elevation
LONG    .degW         81.34713   : LONG
LAT     .degN         39.61085   : LAT
~OTHER INFORMATION
#================================================
~A
# ...
   10652.00000      48.59999       2.67500      44.00000       0.00384       9.28000    1880.00000
   10652.50000      43.99999       2.66200      53.80000       0.00447       9.65000    1836.00000
   10653.00000      39.20000       2.64400      46.70000       0.00521       9.54000    1792.00000
   10653.50000      34.59999       2.63000      52.40000       0.00790       9.43000    1672.00000
   10654.00000      32.80000       2.64500      46.20000       0.01199       9.53000    1552.00000
   10654.50000      30.80000       2.68100      44.40000       0.01286       9.04000    1532.00000
   10655.00000      25.60000       2.71000      51.20000       0.01398       9.03000    1508.00000
   10655.50000      20.60000       2.71600      52.40000       0.01378       8.69000    1512.00000
   10656.00000      19.20000       2.72300      53.50000       0.01378       8.40000    1512.00000
   10656.50000      17.80000       2.72400      50.20000       0.00836       8.47000    1656.00000
   10657.00000      18.00000       2.70800      47.00000       0.00514       8.54000    1796.00000
   10657.50000      18.00000       2.73000      43.70000       0.00325       8.57000    1928.00000
   10658.00000      17.00000       2.77600      49.40000       0.00208       8.49000    2056.00000
   10658.50000      16.00000       2.81600      46.30000       0.00131       8.42000    2188.00000
   10659.00000      16.20000       2.82600      44.10000       0.00101       8.57000    2264.00000
   10659.50000      18.00000       2.81400      51.80000       0.00119       8.65000    2216.00000
   10660.00000      20.00000       2.79200      48.10000       0.00139       8.60000    2172.00000
   10660.50000      21.80000       2.76800      44.50000       0.00153       8.54000    2144.00000
   10661.00000      25.40000       2.76900      52.90000       0.00167       8.49000    2120.00000
   10661.50000      29.20000       2.77900      49.20000       0.00141       8.43000    2168.00000
   10662.00000      24.60000       2.74400      53.80000       0.00119       8.20000    2216.00000
   10662.50000      20.20000       2.79600      50.80000       0.00101       8.32000    2264.00000
   10663.00000      19.20000       2.77100      47.70000       0.00085       8.43000    2312.00000
   10663.50000      18.40000       2.70800      45.60000       0.00151       8.72000    2148.00000
   10664.00000      17.40000       2.69400      45.80000       0.00267       8.88000    1984.00000
   10664.50000      18.20000       2.68300      45.60000       0.00316       8.68000    1936.00000
   10665.00000      19.00000       2.70100      47.10000       0.00373       8.49000    1888.00000
   10665.50000      18.20000       2.74500      53.10000       0.00256       8.31000    1996.00000
   10666.00000      17.40000       2.79000      45.90000       0.00128       8.14000    2196.00000
   10666.50000      14.40000       2.83500      47.50000       0.00065       8.13000    2392.00000
   10667.00000      11.60000       2.87600      49.00000       0.00032       8.13000    2592.00000
   10667.50000      11.40000       2.85600      46.40000       0.00025       8.12000    2668.00000
   10668.00000      11.40000       2.85000      46.40000       0.00019       8.12000    2740.00000
   10668.50000      12.00000       2.85500      45.50000       0.00015       8.17000    2816.00000
   10669.00000      12.60000       2.86200      44.70000       0.00013       8.22000    2844.00000
   10669.50000      13.20000       2.86100      45.30000       0.00012       8.17000    2888.00000
   10670.00000      13.60000       2.83200      45.90000       0.00009       8.11000    2944.00000
   10670.50000      14.40000       2.83900      46.80000       0.00008       8.06000    3000.00000
   10671.00000      14.20000       2.85400      47.30000       0.00007       8.09000    3048.00000
   10671.50000      13.80000       2.86800      47.80000       0.00006       8.13000    3092.00000
   10672.00000      13.60000       2.89200      48.40000       0.00007       8.16000    3040.00000
   10672.50000      13.80000       2.91800      49.00000       0.00008       8.17000    2988.00000
   10673.00000      14.00000       2.91500      49.60000       0.00011       8.18000    2900.00000
   10673.50000      15.40000       2.89700      47.70000       0.00015       8.20000    2812.00000
   10674.00000      16.80000       2.87300      48.10000       0.00020       8.15000    2724.00000
   10674.50000      17.20000       2.85200      48.50000       0.00019       8.10000    2740.00000
   10675.00000      17.40000       2.87000      46.50000       0.00019       8.10000    2752.00000
   10675.50000      16.80000       2.87700      47.50000       0.00012       8.10000    2876.00000
   10676.00000      16.20000       2.87800      47.00000       0.00008       8.10000    3000.00000
   10676.50000      15.60000       2.87000      46.50000       0.00006       8.08000    3056.00000
   10677.00000      15.40000       2.82700      47.90000       0.00005       8.06000    3108.00000
   10677.50000      15.20000       2.78900      49.20000       0.00004       8.04000    3176.00000
   10678.00000      13.00000       2.80600      49.10000       0.00003       8.05000    3244.00000
   10678.50000      10.80000       2.83100      49.10000       0.00005       8.06000    3116.00000
   10679.00000      11.20000       2.85000      49.70000       0.00008       8.05000    2992.00000
   10679.50000      11.60000       2.86000      50.30000       0.00010       8.04000    2932.00000
   10680.00000      13.00000       2.86600      49.20000       0.00012       8.06000    2876.00000
   10680.50000      14.20000       2.84600      49.90000       0.00013       8.06000    2848.00000
   10681.00000      15.60000       2.83000      50.60000       0.00012       8.05000    2888.00000
   10681.50000      17.80000       2.81800      49.60000       0.00010       8.05000    2924.00000
   10682.00000      17.40000       2.82000      50.50000       0.00009       8.01000    2964.00000
   10682.50000      17.20000       2.82600      51.40000       0.00009       7.97000    2964.00000
   10683.00000      16.80000       2.81400      52.30000       0.00009       7.98000    2964.00000
   10683.50000      19.00000       2.80400      50.50000       0.00009       7.98000    2964.00000
   10684.00000      19.20000       2.83100      58.00000       0.00017       7.99000    2776.00000
   10684.50000      26.40000       2.82200      59.70000       0.00032       8.01000    2592.00000
   10685.00000      31.80000       2.80700      57.70000       0.00042       8.03000    2516.00000
   10685.50000      36.99999       2.80700      55.70000       0.00056       8.05000    2436.00000
   10686.00000      42.39999       2.82500      53.70000       0.00072       7.99000    2360.00000
   10686.50000      35.39999       2.80300      52.40000       0.00048       7.93000    2476.00000
   10687.00000      28.40000       2.80000      51.10000       0.00032       8.03000    2592.00000
   10687.50000      21.40000       2.84600      53.70000       0.00015       8.13000    2812.00000
   10688.00000      19.20000       2.85200      50.20000       0.00013       8.11000    2844.00000
   10688.50000      17.00000       2.85600      50.60000       0.00012       8.09000    2880.00000
   10689.00000      14.80000       2.84200      50.70000       0.00011       8.07000    2912.00000
   10689.50000      11.20000       2.83000      50.80000       0.00011       8.05000    2904.00000
   10690.00000      11.40000       2.83800      50.40000       0.00011       8.06000    2900.00000
   10690.50000      11.80000       2.84500      50.00000       0.00011       8.06000    2896.00000
   10691.00000      12.00000       2.85200      49.60000       0.00009       8.07000    2952.00000
   10691.50000      12.80000       2.84900      51.00000       0.00008       8.08000    3008.00000
   10692.00000      13.60000       2.83700      52.40000       0.00007       8.09000    3052.00000
