~VERSION INFORMATION
VERS.      2.0   :CWLS LOG ASCII STANDARD--VERSION 2.0
WRAP.      NO    :ONE LINE PER DEPTH STEP
~WELL INFORMATION
#MNEM.UNIT              DATA          DESCRIPTION
#================================================
STRT.FT                          0.50000 :START DEPTH
STOP.FT                      11450.00000 :STOP DEPTH
STEP.FT                          0.50000 :STEP
NULL.                         -999.00000 :NULL VALUE
COMP.                                            : COMPANY
WELL.   AMOCO 1 ULLMAN, R                        : WELL NAME
UWI.    3412121278                               : WELL UWI
API.    3412121278                               : WELL API
LOC.    ELK TWP                                  : WELL LOCATION
DATE.   NOBLE CO, OH                             : WELL DATE
FLD.    No Project Selected                      : Project NAME
~CURVE INFORMATION
#================================================
Depth   .FT                  :Depth
GR      .GAPI                :GR
RHOB    .G/CC                :RHOB
DT      .US/F                :DT
NPHI    .V/V                 :Neutron porosity units
CAL     .IN                  :CAL
NAPI    .API                 :Neutron API units
~PARAMETER INFORMATION
#================================================
EKB     .ft         1035.00000   : KB Elevation
LONG    .degW         81.34713   : LONG
LAT     .degN         39.61085   : LAT
~OTHER INFORMATION
#================================================
~A
# ...
    9882.50000      35.59999       2.80800      51.10000       0.00010       8.00000    2928.00000
    9883.00000      38.59999       2.79400      51.40000       0.00011       8.01000    2912.00000
    9883.50000      41.80000       2.79900      51.80000       0.00012       8.01000    2872.00000
    9884.00000      44.80000       2.80200      54.50000       0.00014       8.01000    2824.00000
    9884.50000      47.80000       2.79000      56.10000       0.00017       8.05000    2780.00000
    9885.00000      49.20000       2.79500      57.40000       0.00018       8.10000    2764.00000
    9885.50000      50.59999       2.79100      56.60000       0.00019       8.14000    2744.00000
    9886.00000      47.39999       2.78900      55.90000       0.00020       7.99000    2728.00000
    9886.50000      44.80000       2.77600      55.10000       0.00019       7.99000    2752.00000
    9887.00000      43.20000       2.76700      54.40000       0.00017       8.00000    2776.00000
    9887.50000      41.39999       2.76700      53.80000       0.00017       8.00000    2784.00000
    9888.00000      39.80000       2.77900      53.90000       0.00016       8.00000    2788.00000
    9888.50000      41.39999       2.78400      54.00000       0.00017       8.01000    2772.00000
    9889.00000      42.80000       2.77800      55.40000       0.00018       8.01000    2756.00000
    9889.50000      44.39999       2.77600      55.80000       0.00019       8.01000    2744.00000
    9890.00000      44.39999       2.82300      56.20000       0.00019       8.02000    2752.00000
    9890.50000      44.59999       2.85000      54.60000       0.00017       8.02000    2780.00000
    9891.00000      38.39999       2.84100      53.00000       0.00015       8.02000    2808.00000
    9891.50000      32.00000       2.81100      50.20000       0.00012       8.03000    2880.00000
    9892.00000      25.80000       2.79800      48.90000       0.00009       8.03000    2952.00000
    9892.50000      19.60000       2.82700      49.50000       0.00009       8.06000    2952.00000
    9893.00000      17.00000       2.85600      50.00000       0.00009       8.08000    2956.00000
    9893.50000      14.60000       2.83200      48.90000       0.00009       8.11000    2956.00000
    9894.00000      14.40000       2.82900      48.60000       0.00008       8.10000    2996.00000
    9894.50000      14.20000       2.82900      47.60000       0.00008       8.09000    3004.00000
    9895.00000      13.80000       2.82000      48.00000       0.00008       8.11000    3008.00000
    9895.50000      13.60000       2.82900      48.10000       0.00008       8.12000    2996.00000
    9896.00000      15.00000       2.82700      48.20000       0.00008       8.14000    2984.00000
    9896.50000      16.20000       2.85500      48.30000       0.00009       8.15000    2972.00000
    9897.00000      16.80000       2.79300      50.80000       0.00009       8.13000    2960.00000
    9897.50000      17.20000       2.81000      51.20000       0.00009       8.11000    2948.00000
    9898.00000      17.80000       2.81700      51.50000       0.00008       8.09000    3000.00000
    9898.50000      16.80000       2.82100      52.70000       0.00006       8.07000    3068.00000
    9899.00000      16.00000       2.82500      52.60000       0.00005       8.08000    3132.00000
    9899.50000      14.40000       2.84300      52.50000       0.00005       8.08000    3104.00000
    9900.00000      14.40000       2.84900      52.40000       0.00006       8.09000    3100.00000
    9900.50000      16.80000       2.84600      50.40000       0.00006       8.09000    3100.00000
    9901.00000      17.40000       2.84200      50.00000       0.00007       8.14000    3036.00000
    9901.50000      18.80000       2.85600      50.20000       0.00009       8.19000    2968.00000
    9902.00000      20.20000       2.85900      50.50000       0.00011       8.15000    2904.00000
    9902.50000      24.80000       2.84000      50.70000       0.00009       8.17000    2952.00000
    9903.00000      29.20000       2.82200      52.00000       0.00009       8.13000    2956.00000
    9903.50000      33.80000       2.82500      51.30000       0.00009       8.09000    2960.00000
    9904.00000      38.20000       2.81600      52.50000       0.00008       8.08000    2996.00000
    9904.50000      42.80000       2.79500      53.60000       0.00007       8.08000    3036.00000
    9905.00000      45.80000       2.78700      55.00000       0.00006       8.07000    3072.00000
    9905.50000      48.59999       2.78900      55.60000       0.00005       8.07000    3120.00000
    9906.00000      51.59999       2.79700      56.10000       0.00005       8.06000    3104.00000
    9906.50000      48.20000       2.81300      55.60000       0.00006       8.06000    3088.00000
    9907.00000      44.80000       2.80900      55.10000       0.00006       8.07000    3080.00000
    9907.50000      42.39999       2.80100      54.10000       0.00006       8.08000    3088.00000
    9908.00000      40.20000       2.79300      54.00000       0.00006       8.09000    3092.00000
    9908.50000      40.80000       2.78700      53.90000       0.00006       8.13000    3096.00000
    9909.00000      41.20000       2.79600      55.10000       0.00006       8.11000    3092.00000
    9909.50000      41.80000       2.80700      55.40000       0.00007       8.10000    3052.00000
    9910.00000      36.20000       2.81300      53.10000       0.00006       8.10000    3060.00000
    9910.50000      33.99999       2.82200      52.50000       0.00007       8.09000    3052.00000
    9911.00000      32.00000       2.83200      52.10000       0.00006       8.09000    3056.00000
    9911.50000      32.20000       2.83100      51.80000       0.00006       8.11000    3060.00000
    9912.00000      32.39999       2.82900      52.10000       0.00006       8.13000    3064.00000
    9912.50000      31.40000       2.82600      51.70000       0.00007       8.12000    3024.00000
    9913.00000      30.00000       2.82400      52.10000       0.00007       8.12000    3044.00000
    9913.50000      27.20000       2.82600      52.40000       0.00006       8.11000    3060.00000
    9914.00000      27.80000       2.83900      53.10000       0.00007       8.11000    3052.00000
    9914.50000      28.00000       2.86000      53.80000       0.00007       8.11000    3044.00000
    9915.00000      26.80000       2.81300      53.00000       0.00008       8.14000    2984.00000
    9915.50000      25.60000       2.80800      51.90000       0.00010       8.16000    2924.00000
    9916.00000      24.20000       2.84800      50.80000       0.00013       8.19000    2864.00000
    9916.50000      23.00000       2.83800      51.60000       0.00014       8.17000    2832.00000
    9917.00000      21.80000       2.86700      50.30000       0.00014       8.22000    2828.00000
    9917.50000      20.60000       2.85800      49.00000       0.00014       8.27000    2824.00000
    9918.00000      18.20000       2.83500      48.10000       0.00014       8.31000    2828.00000
    9918.50000      15.80000       2.80800      47.30000       0.00015       8.35000    2804.00000
    9919.00000      15.40000       2.80400      49.70000       0.00017       8.34000    2780.00000
    9919.50000      14.80000       2.80500      54.60000       0.00021       8.34000    2716.00000
    9920.00000      14.40000       2.80000      55.00000       0.00026       8.33000    2656.00000
    9920.50000      15.00000       2.78900      55.30000       0.00032       8.33000    2592.00000
    9921.00000      15.80000       2.81900      56.30000       0.00045       8.27000    2496.00000
    9921.50000      16.40000       2.83700      55.10000       0.00062       8.21000    2404.00000
    9922.00000      18.20000       2.85700      54.00000       0.00062       8.23000    2404.00000
    9922.50000      20.00000       2.84900      52.20000       0.00044       8.20000    2500.00000
