~VERSION INFORMATION
VERS.      2.0   :CWLS LOG ASCII STANDARD--VERSION 2.0
WRAP.      NO    :ONE LINE PER DEPTH STEP
~WELL INFORMATION
#MNEM.UNIT              DATA          DESCRIPTION
#================================================
STRT.FT                          0.50000 :START DEPTH
STOP.FT                      11450.00000 :STOP DEPTH
STEP.FT                          0.50000 :STEP
NULL.                         -999.00000 :NULL VALUE
COMP.                                            : COMPANY
WELL.   AMOCO 1 ULLMAN, R                        : WELL NAME
UWI.    3412121278                               : WELL UWI
API.    3412121278                               : WELL API
LOC.    ELK TWP                                  : WELL LOCATION
DATE.   NOBLE CO, OH                             : WELL DATE
FLD.    No Project Selected                      : Project NAME
~CURVE INFORMATION
#================================================
Depth   .FT                  :Depth
GR      .GAPI                :GR
RHOB    .G/CC                :RHOB
DT      .US/F                :DT
NPHI    .V/V                 :Neutron porosity units
CAL     .IN                  :CAL
NAPI    .API                 :Neutron API units
~PARAMETER INFORMATION
#================================================
EKB     .ft         1035.00000   : KB Elevation
LONG    .degW         81.34713   : LONG
LAT     .degN         39.61085   : LAT
~OTHER INFORMATION
#================================================
~A
# ...
     770.00000      46.39999    -999.00000      83.20000       0.13294      15.09000     860.00000
     770.50000      43.59999    -999.00000      81.20000       0.12230      15.10000     884.00000
     771.00000      47.20000    -999.00000      76.20000       0.13669      15.12000     852.00000
     771.50000      48.59999    -999.00000      77.30000       0.15491      15.01000     816.00000
     772.00000      49.80000    -999.00000      78.30000       0.17314      15.05000     784.00000
     772.50000      47.39999    -999.00000      86.09999       0.16377      15.09000     800.00000
     773.00000      44.99999    -999.00000      89.50000       0.15708      15.15000     812.00000
     773.50000      42.59999    -999.00000      87.80000       0.15066      15.21000     824.00000
     774.00000      47.80000    -999.00000      86.09999       0.15491      15.21000     816.00000
     774.50000      52.80000    -999.00000      81.39999       0.15928      15.21000     808.00000
     775.00000      54.80000    -999.00000      78.20000       0.14054      15.21000     844.00000
     775.50000      54.59999    -999.00000      77.00000       0.12575      15.19000     876.00000
     776.00000      54.39999    -999.00000      78.50000       0.11894      15.17000     892.00000
     776.50000      54.59999    -999.00000      79.89999       0.11251      15.16000     908.00000
     777.00000      54.80000    -999.00000      74.89999       0.10642      15.23000     924.00000
     777.50000      51.80000    -999.00000      71.59999       0.10495      15.29000     928.00000
     778.00000      48.59999    -999.00000      66.00000       0.10495      15.13000     928.00000
     778.50000      45.59999    -999.00000      68.20000       0.12061      15.06000     888.00000
     779.00000      42.59999    -999.00000      72.70000       0.13860      15.10000     848.00000
     779.50000      45.20000    -999.00000      77.20000       0.15928      15.13000     808.00000
     780.00000      47.80000    -999.00000      79.20000       0.15928      15.10000     808.00000
     780.50000      51.80000    -999.00000      77.50000       0.15928      15.14000     808.00000
     781.00000      54.19999    -999.00000      76.50000       0.17314      15.17000     784.00000
     781.50000      56.39999    -999.00000      75.59999       0.18820      15.21000     760.00000
     782.00000      61.59999    -999.00000      74.59999       0.20458      15.08000     736.00000
     782.50000      66.79999    -999.00000      73.70000       0.20458      15.05000     736.00000
     783.00000      71.99998    -999.00000      73.00000       0.20458      15.03000     736.00000
     783.50000      74.19998    -999.00000      72.39999       0.20744      15.00000     732.00000
     784.00000      76.59999    -999.00000      73.70000       0.20458      15.06000     736.00000
     784.50000      78.79999    -999.00000      75.00000       0.19897      15.12000     744.00000
     785.00000      74.19998    -999.00000      76.30000       0.19897      15.08000     744.00000
     785.50000      69.79999    -999.00000      77.50000       0.19351      15.21000     752.00000
     786.00000      65.19998    -999.00000      78.80000       0.17802      15.22000     776.00000
     786.50000      60.80000    -999.00000      80.09999       0.16377      15.22000     800.00000
     787.00000      56.19999    -999.00000      78.59999       0.17314      15.23000     784.00000
     787.50000      57.80000    -999.00000      77.00000       0.18304      15.12000     768.00000
     788.00000      59.19999    -999.00000      75.50000       0.19351      15.14000     752.00000
     788.50000      61.59999    -999.00000      76.39999       0.18304      15.16000     768.00000
     789.00000      63.99999    -999.00000      77.20000       0.17556      15.17000     780.00000
     789.50000      66.39999    -999.00000      78.00000       0.13860      15.17000     848.00000
     790.00000      62.39999    -999.00000      74.39999       0.13110      15.22000     864.00000
     790.50000      58.39999    -999.00000      72.09999       0.12401      15.26000     880.00000
     791.00000      54.59999    -999.00000      69.70000       0.11409      15.22000     904.00000
     791.50000      50.59999    -999.00000      67.20000       0.10642      15.18000     924.00000
     792.00000      46.59999    -999.00000      69.00000       0.10942      15.22000     916.00000
     792.50000      46.59999    -999.00000      70.00000       0.10942      15.18000     916.00000
     793.00000      46.59999    -999.00000      70.80000       0.10642      15.14000     924.00000
     793.50000      46.59999    -999.00000      71.50000       0.11251      15.13000     908.00000
     794.00000      45.59999    -999.00000      69.80000       0.11894      15.12000     892.00000
     794.50000      44.80000    -999.00000      72.39999       0.11894      15.12000     892.00000
     795.00000      48.39999    -999.00000      75.00000       0.13669      15.12000     852.00000
     795.50000      51.99999    -999.00000      77.89999       0.15928      15.14000     808.00000
     796.00000      55.59999    -999.00000      77.00000       0.18304      15.16000     768.00000
     796.50000      59.39999    -999.00000      76.20000       0.18560      15.21000     764.00000
     797.00000      62.99999    -999.00000      78.59999       0.18820      15.25000     760.00000
     797.50000      66.59999    -999.00000     139.00000       0.19084      15.30000     756.00000
     798.00000      70.19998    -999.00000     141.99997       0.19351      15.41000     752.00000
     798.50000      61.59999    -999.00000     174.59998       0.18051      15.51000     772.00000
     799.00000      53.19999    -999.00000     172.49997       0.16606      15.51000     796.00000
     799.50000      44.20000    -999.00000     140.09998       0.14653      15.47000     832.00000
     800.00000      44.20000    -999.00000     140.39999       0.14653      15.43000     832.00000
     800.50000      41.59999    -999.00000     159.09998       0.13860      15.42000     848.00000
     801.00000      42.20000    -999.00000     175.49997       0.13294      15.42000     860.00000
     801.50000      40.99999    -999.00000     157.79999       0.12929      15.41000     868.00000
     802.00000      39.80000    -999.00000     140.09998       0.12575      15.40000     876.00000
     802.50000      38.59999    -999.00000     141.29999       0.11894      15.38000     892.00000
     803.00000      37.20000    -999.00000     157.09998       0.11409      15.37000     904.00000
     803.50000      35.99999    -999.00000     172.79999       0.10495      15.24000     928.00000
     804.00000      34.59999    -999.00000     139.00000       0.09655      15.34000     952.00000
     804.50000      39.39999    -999.00000     138.00000       0.10942      15.44000     916.00000
     805.00000      40.20000    -999.00000      88.39999       0.12401      15.28000     880.00000
     805.50000      40.99999    -999.00000      89.09999       0.13480      15.30000     856.00000
     806.00000      54.80000    -999.00000      89.70000       0.14653      15.32000     832.00000
     806.50000      68.59999    -999.00000      90.39999       0.18820      15.33000     760.00000
     807.00000      82.39999    -999.00000      91.00000       0.23839      15.33000     692.00000
     807.50000      96.19998    -999.00000      88.70000       0.30618      15.34000     620.00000
     808.00000     109.99998    -999.00000      86.59999       0.32822      15.34000     600.00000
     808.50000     123.79999    -999.00000      84.20000       0.34700      15.33000     584.00000
     809.00000     116.59999    -999.00000      81.80000       0.37198      15.32000     564.00000
     809.50000     109.59999    -999.00000      79.50000       0.35186      15.32000     580.00000
     810.00000     102.39999    -999.00000      77.09999       0.33282      15.31000     596.00000
