~VERSION INFORMATION
VERS.      2.0   :CWLS LOG ASCII STANDARD--VERSION 2.0
WRAP.      NO    :ONE LINE PER DEPTH STEP
~WELL INFORMATION
#MNEM.UNIT              DATA          DESCRIPTION
#================================================
STRT.FT                          0.50000 :START DEPTH
STOP.FT                      11450.00000 :STOP DEPTH
STEP.FT                          0.50000 :STEP
NULL.                         -999.00000 :NULL VALUE
COMP.                                            : COMPANY
WELL.   AMOCO 1 ULLMAN, R                        : WELL NAME
UWI.    3412121278                               : WELL UWI
API.    3412121278                               : WELL API
LOC.    ELK TWP                                  : WELL LOCATION
DATE.   NOBLE CO, OH                             : WELL DATE
FLD.    No Project Selected                      : Project NAME
~CURVE INFORMATION
#================================================
Depth   .FT                  :Depth
GR      .GAPI                :GR
RHOB    .G/CC                :RHOB
DT      .US/F                :DT
NPHI    .V/V                 :Neutron porosity units
CAL     .IN                  :CAL
NAPI    .API                 :Neutron API units
~PARAMETER INFORMATION
#================================================
EKB     .ft         1035.00000   : KB Elevation
LONG    .degW         81.34713   : LONG
LAT     .degN         39.61085   : LAT
~OTHER INFORMATION
#================================================
~A
# ...
    2268.50000      59.19999    -999.00000      78.50000       0.42747      15.81000     524.00000
    2269.00000      58.19999    -999.00000      78.39999       0.39876      15.80000     544.00000
    2269.50000      58.59999    -999.00000      77.70000       0.37719      15.79000     560.00000
    2270.00000      58.39999    -999.00000      78.70000       0.39325      15.82000     548.00000
    2270.50000      56.59999    -999.00000      79.59999       0.41575      15.84000     532.00000
    2271.00000      56.99999    -999.00000      80.59999       0.43346      15.87000     520.00000
    2271.50000      57.39999    -999.00000      81.20000       0.50509      15.99000     476.00000
    2272.00000      57.99999    -999.00000      81.80000       0.51934      16.22000     468.00000
    2272.50000      58.39999    -999.00000      79.70000       0.54146      15.95000     456.00000
    2273.00000      58.80000    -999.00000      75.80000       0.55673      15.77000     448.00000
    2273.50000      60.39999    -999.00000      74.89999       0.49812      15.76000     480.00000
    2274.00000      58.59999    -999.00000      73.39999       0.44568      15.75000     512.00000
    2274.50000      56.99999    -999.00000      72.20000       0.39876      15.55000     544.00000
    2275.00000      57.19999    -999.00000      74.00000       0.36684      15.69000     568.00000
    2275.50000      57.39999    -999.00000      75.80000       0.33748      15.79000     592.00000
    2276.00000      57.59999    -999.00000      76.00000       0.31047      15.75000     616.00000
    2276.50000      59.99999    -999.00000      76.09999       0.30195      15.72000     624.00000
    2277.00000      58.59999    -999.00000      72.80000       0.29778      15.70000     628.00000
    2277.50000      57.19999    -999.00000      71.30000       0.28962      15.68000     636.00000
    2278.00000      55.99999    -999.00000      73.50000       0.31047      15.61000     616.00000
    2278.50000      54.59999    -999.00000      73.59999       0.32822      15.62000     600.00000
    2279.00000      55.39999    -999.00000      74.20000       0.31047      15.65000     616.00000
    2279.50000      56.19999    -999.00000      75.00000       0.29778      15.67000     628.00000
    2280.00000      56.80000    -999.00000      74.20000       0.36178      15.70000     572.00000
    2280.50000      57.59999    -999.00000      75.20000       0.43346      15.66000     520.00000
    2281.00000      56.80000    -999.00000      76.30000       0.43952      15.62000     516.00000
    2281.50000      55.99999    -999.00000      77.30000       0.44568      15.58000     512.00000
    2282.00000      55.19999    -999.00000      79.89999       0.45192      15.68000     508.00000
    2282.50000      54.39999    -999.00000      80.20000       0.42157      15.77000     528.00000
    2283.00000      58.39999    -999.00000      82.50000       0.39325      15.81000     548.00000
    2283.50000      59.19999    -999.00000      79.09999       0.36684      15.81000     568.00000
    2284.00000      59.80000    -999.00000      77.59999       0.36684      15.77000     568.00000
    2284.50000      60.59999    -999.00000      76.09999       0.36178      15.76000     572.00000
    2285.00000      57.99999    -999.00000      74.59999       0.35678      15.76000     576.00000
    2285.50000      55.59999    -999.00000      75.70000       0.31481      15.76000     612.00000
    2286.00000      55.19999    -999.00000      72.20000       0.27778      15.75000     648.00000
    2286.50000      54.80000    -999.00000      73.70000       0.24511      15.75000     684.00000
    2287.00000      54.39999    -999.00000      75.20000       0.22549      15.74000     708.00000
    2287.50000      53.99999    -999.00000      71.70000       0.21035      15.74000     728.00000
    2288.00000      52.80000    -999.00000      72.89999       0.28167      15.71000     644.00000
    2288.50000      51.59999    -999.00000      74.09999       0.28962      15.68000     636.00000
    2289.00000      50.39999    -999.00000      70.50000       0.29778      15.66000     628.00000
    2289.50000      49.80000    -999.00000      72.09999       0.30618      15.63000     620.00000
    2290.00000      49.39999    -999.00000      73.59999       0.28562      15.61000     640.00000
    2290.50000      48.80000    -999.00000      71.70000       0.27016      15.63000     656.00000
    2291.00000      48.39999    -999.00000      72.59999       0.25202      15.68000     676.00000
    2291.50000      48.59999    -999.00000      71.50000       0.23839      15.72000     692.00000
    2292.00000      48.59999    -999.00000      71.59999       0.23509      15.71000     696.00000
    2292.50000      49.80000    -999.00000      71.70000       0.22865      15.70000     704.00000
    2293.00000      51.20000    -999.00000      69.89999       0.19622      15.75000     748.00000
    2293.50000      52.39999    -999.00000      70.00000       0.17075      15.80000     788.00000
    2294.00000      53.59999    -999.00000      68.50000       0.18051      15.78000     772.00000
    2294.50000      54.59999    -999.00000      68.50000       0.18051      15.82000     772.00000
    2295.00000      55.80000    -999.00000      68.30000       0.20458      15.85000     736.00000
    2295.50000      54.59999    -999.00000      68.09999       0.22865      15.99000     704.00000
    2296.00000      53.39999    -999.00000      65.59999       0.22865      15.71000     704.00000
    2296.50000      52.19999    -999.00000      66.80000       0.22865      15.67000     704.00000
    2297.00000      52.19999    -999.00000      67.89999       0.26643      15.64000     660.00000
    2297.50000      55.19999    -999.00000      69.09999       0.31047      15.60000     616.00000
    2298.00000      58.39999    -999.00000      71.39999       0.35678      15.57000     576.00000
    2298.50000      61.39999    -999.00000      71.80000       0.40434      15.71000     540.00000
    2299.00000      64.39999    -999.00000      71.20000       0.38247      15.84000     556.00000
    2299.50000      63.99999    -999.00000      70.59999       0.36684      15.96000     568.00000
    2300.00000      63.59999    -999.00000      71.39999       0.33282      15.96000     596.00000
    2300.50000      63.59999    -999.00000      71.80000       0.30195      15.92000     624.00000
    2301.00000      62.80000    -999.00000      72.89999       0.27016      15.62000     656.00000
    2301.50000      61.99999    -999.00000      73.00000       0.28962      15.62000     636.00000
    2302.00000      61.19999    -999.00000      72.30000       0.31481      15.68000     612.00000
    2302.50000      60.19999    -999.00000      70.80000       0.33748      15.74000     592.00000
    2303.00000      58.59999    -999.00000      70.89999       0.36178      15.62000     572.00000
    2303.50000      57.19999    -999.00000      70.89999       0.32369      15.52000     604.00000
    2304.00000      57.59999    -999.00000      68.89999       0.29367      15.34000     632.00000
    2304.50000      57.80000    -999.00000      68.80000       0.28562      15.17000     640.00000
    2305.00000      55.80000    -999.00000      68.80000       0.27778      15.11000     648.00000
    2305.50000      53.80000    -999.00000      69.70000       0.29778      15.05000     628.00000
    2306.00000      54.59999    -999.00000      69.89999       0.31481      14.99000     612.00000
    2306.50000      53.39999    -999.00000      71.39999       0.27016      14.98000     656.00000
    2307.00000      52.19999    -999.00000      70.20000       0.27016      14.97000     656.00000
    2307.50000      50.99999    -999.00000      69.20000       0.27778      14.94000     648.00000
    2308.00000      51.39999    -999.00000      68.00000       0.28962      14.90000     636.00000
    2308.50000      51.59999    -999.00000      66.50000       0.29778      14.87000     628.00000
