~VERSION INFORMATION
VERS.      2.0   :CWLS LOG ASCII STANDARD--VERSION 2.0
WRAP.      NO    :ONE LINE PER DEPTH STEP
~WELL INFORMATION
#MNEM.UNIT              DATA          DESCRIPTION
#================================================
STRT.FT                          0.50000 :START DEPTH
STOP.FT                      11450.00000 :STOP DEPTH
STEP.FT                          0.50000 :STEP
NULL.                         -999.00000 :NULL VALUE
COMP.                                            : COMPANY
WELL.   AMOCO 1 ULLMAN, R                        : WELL NAME
UWI.    3412121278                               : WELL UWI
API.    3412121278                               : WELL API
LOC.    ELK TWP                                  : WELL LOCATION
DATE.   NOBLE CO, OH                             : WELL DATE
FLD.    No Project Selected                      : Project NAME
~CURVE INFORMATION
#================================================
Depth   .FT                  :Depth
GR      .GAPI                :GR
RHOB    .G/CC                :RHOB
DT      .US/F                :DT
NPHI    .V/V                 :Neutron porosity units
CAL     .IN                  :CAL
NAPI    .API                 :Neutron API units
~PARAMETER INFORMATION
#================================================
EKB     .ft         1035.00000   : KB Elevation
LONG    .degW         81.34713   : LONG
LAT     .degN         39.61085   : LAT
~OTHER INFORMATION
#================================================
~A
# ...
    7614.50000      66.99998       2.72200      92.09999       0.03264       8.65000    1264.00000
    7615.00000      70.39999       2.73200      94.09999       0.04077       8.65000    1200.00000
    7615.50000      73.79999       2.74600      96.00000       0.05093       8.66000    1136.00000
    7616.00000      73.99998       2.74400      93.70000       0.04251       8.62000    1188.00000
    7616.50000      74.19998       2.74800      92.59999       0.03499       8.59000    1244.00000
    7617.00000      75.59999       2.74600      91.59999       0.02920       8.61000    1296.00000
    7617.50000      76.99998       2.73400      94.09999       0.03598       8.63000    1236.00000
    7618.00000      78.39999       2.72000      96.29999       0.04371       8.73000    1180.00000
    7618.50000      78.59999       2.70800      98.39999       0.05384       8.82000    1120.00000
    7619.00000      78.59999       2.69900     102.00000       0.05536       8.80000    1112.00000
    7619.50000      77.79999       2.69900     100.39999       0.05692       8.86000    1104.00000
    7620.00000      76.99998       2.71100      94.70000       0.05853       8.92000    1096.00000
    7620.50000      76.39999       2.72300      95.89999       0.05772       8.90000    1100.00000
    7621.00000      75.59999       2.73200      97.00000       0.05692       8.89000    1104.00000
    7621.50000      76.79999       2.75100      95.00000       0.05614       8.81000    1108.00000
    7622.00000      77.79999       2.77200      93.59999       0.05536       8.73000    1112.00000
    7622.50000      77.99998       2.76000      94.50000       0.06916       8.79000    1048.00000
    7623.00000      78.39999       2.72400      95.29999       0.08520       8.85000     988.00000
    7623.50000      78.79999       2.68800     100.70000       0.09261       8.95000     964.00000
    7624.00000      79.59999       2.68400     102.79999       0.09928       8.86000     944.00000
    7624.50000      80.19998       2.69400     100.89999       0.08760       8.77000     980.00000
    7625.00000      81.79999       2.69900     106.20000       0.07838       8.82000    1012.00000
    7625.50000      83.19998       2.72100     104.59999       0.07210       8.87000    1036.00000
    7626.00000      84.79999       2.71600     103.00000       0.06726       8.80000    1056.00000
    7626.50000      81.99998       2.72500     101.20000       0.06188       8.81000    1080.00000
    7627.00000      79.59999       2.70500      99.70000       0.07311       8.82000    1032.00000
    7627.50000      80.59999       2.70300     100.70000       0.08520       8.81000     988.00000
    7628.00000      81.59999       2.71900     101.70000       0.08760       8.82000     980.00000
    7628.50000      79.19998       2.74600     108.09999       0.09133       8.83000     968.00000
    7629.00000      76.79999       2.71900     106.89999       0.09390       8.99000     960.00000
    7629.50000      79.39999       2.68200     105.70000       0.08059       9.14000    1004.00000
    7630.00000      81.79999       2.66800     112.09999       0.07013       9.41000    1044.00000
    7630.50000      78.99998       2.67000     101.39999       0.05460       9.00000    1116.00000
    7631.00000      76.19998       2.68200      98.89999       0.04310       8.73000    1184.00000
    7631.50000      73.19998       2.69600      91.70000       0.04251       8.68000    1188.00000
    7632.00000      70.39999       2.69900      93.29999       0.04192       8.63000    1192.00000
    7632.50000      67.59999       2.70300      94.79999       0.04685       8.62000    1160.00000
    7633.00000      71.59999       2.69700      98.20000       0.05164       8.62000    1132.00000
    7633.50000      75.79999       2.68900      98.00000       0.05772       8.64000    1100.00000
    7634.00000      79.79999       2.69400     103.20000       0.05935       8.65000    1092.00000
    7634.50000      79.99998       2.69900     102.39999       0.06102       8.85000    1084.00000
    7635.00000      80.39999       2.68500     104.29999       0.06274       9.03000    1076.00000
    7635.50000      80.59999       2.68200     105.39999       0.06188       8.99000    1080.00000
    7636.00000      80.99998       2.69200     106.50000       0.06102       8.75000    1084.00000
    7636.50000      74.39999       2.68600     100.29999       0.05536       8.76000    1112.00000
    7637.00000      67.99998       2.68900      95.00000       0.05093       8.76000    1136.00000
    7637.50000      65.99998       2.69500      91.29999       0.05023       8.70000    1140.00000
    7638.00000      63.99999       2.69800      90.20000       0.04953       8.64000    1144.00000
    7638.50000      63.99999       2.70000      89.09999       0.05237       8.69000    1128.00000
    7639.00000      63.99999       2.67800      93.00000       0.05536       8.74000    1112.00000
    7639.50000      69.59999       2.66100     103.20000       0.07111       8.84000    1040.00000
    7640.00000      75.19998       2.65000     107.09999       0.09007       8.74000     972.00000
    7640.50000      79.39999       2.73000     105.20000       0.11568       8.80000     900.00000
    7641.00000      81.19998       2.67700     105.39999       0.10067       8.86000     940.00000
    7641.50000      82.79999       2.71800     102.79999       0.08639       8.77000     984.00000
    7642.00000      82.19998       2.70200     102.79999       0.07311       8.68000    1032.00000
    7642.50000      81.39999       2.68100     101.09999       0.06188       8.59000    1080.00000
    7643.00000      80.79999       2.69300      99.09999       0.05384       8.57000    1120.00000
    7643.50000      79.39999       2.71400      96.89999       0.04685       8.56000    1160.00000
    7644.00000      77.79999       2.71400      94.79999       0.04077       8.54000    1200.00000
    7644.50000      76.39999       2.70100      99.59999       0.04192       8.53000    1192.00000
    7645.00000      76.39999       2.67800      94.70000       0.04371       8.52000    1180.00000
    7645.50000      73.79999       2.66900      95.59999       0.04494       8.50000    1172.00000
    7646.00000      71.19998       2.67300      96.50000       0.04557       8.49000    1168.00000
    7646.50000      68.79999       2.68600      91.29999       0.04557       8.48000    1168.00000
    7647.00000      66.19998       2.72400     100.00000       0.04621       8.53000    1164.00000
    7647.50000      66.99998       2.70300      95.70000       0.04192       8.57000    1192.00000
    7648.00000      67.79999       2.65800      99.50000       0.03857       8.62000    1216.00000
    7648.50000      68.59999       2.64500      95.20000       0.03911       8.62000    1212.00000
    7649.00000      66.79999       2.66300      91.00000       0.04077       8.62000    1200.00000
    7649.50000      65.19998       2.70300      96.00000       0.05093       8.62000    1136.00000
    7650.00000      63.39999       2.69400      90.79999       0.06362       8.62000    1072.00000
    7650.50000      70.79999       2.67900     108.09999       0.07838       8.68000    1012.00000
    7651.00000      78.19998       2.64300     106.79999       0.09790       8.74000     948.00000
    7651.50000      83.79999       2.64300     102.39999       0.07623       8.73000    1020.00000
    7652.00000      83.99998       2.67200     105.09999       0.06018       8.73000    1088.00000
    7652.50000      78.19998       2.68700      98.00000       0.05460       8.72000    1116.00000
    7653.00000      72.19998       2.68700      97.09999       0.04953       8.65000    1144.00000
    7653.50000      66.39999       2.69400      96.20000       0.04494       8.59000    1172.00000
    7654.00000      64.99998       2.69200      92.50000       0.04077       8.58000    1200.00000
    7654.50000      63.59999       2.68000      90.79999       0.04557       8.58000    1168.00000
