~VERSION INFORMATION
VERS.      2.0   :CWLS LOG ASCII STANDARD--VERSION 2.0
WRAP.      NO    :ONE LINE PER DEPTH STEP
~WELL INFORMATION
#MNEM.UNIT              DATA          DESCRIPTION
#================================================
STRT.FT                          0.50000 :START DEPTH
STOP.FT                      11450.00000 :STOP DEPTH
STEP.FT                          0.50000 :STEP
NULL.                         -999.00000 :NULL VALUE
COMP.                                            : COMPANY
WELL.   AMOCO 1 ULLMAN, R                        : WELL NAME
UWI.    3412121278                               : WELL UWI
API.    3412121278                               : WELL API
LOC.    ELK TWP                                  : WELL LOCATION
DATE.   NOBLE CO, OH                             : WELL DATE
FLD.    No Project Selected                      : Project NAME
~CURVE INFORMATION
#================================================
Depth   .FT                  :Depth
GR      .GAPI                :GR
RHOB    .G/CC                :RHOB
DT      .US/F                :DT
NPHI    .V/V                 :Neutron porosity units
CAL     .IN                  :CAL
NAPI    .API                 :Neutron API units
~PARAMETER INFORMATION
#================================================
EKB     .ft         1035.00000   : KB Elevation
LONG    .degW         81.34713   : LONG
LAT     .degN         39.61085   : LAT
~OTHER INFORMATION
#================================================
~A
# ...
    6845.00000      58.80000    -999.00000      64.09999       0.22865      14.84000     704.00000
    6845.50000      58.39999    -999.00000      63.70000       0.22865      14.83000     704.00000
    6846.00000      57.99999    -999.00000      63.50000       0.22865      14.82000     704.00000
    6846.50000      57.80000    -999.00000      63.40000       0.22865      14.81000     704.00000
    6847.00000      57.59999    -999.00000      63.30000       0.22238      14.81000     712.00000
    6847.50000      59.80000    -999.00000      63.20000       0.21930      14.80000     716.00000
    6848.00000      61.80000    -999.00000      63.10000       0.21329      14.79000     724.00000
    6848.50000      61.59999    -999.00000      63.00000       0.19084      14.79000     756.00000
    6849.00000      61.59999    -999.00000      63.10000       0.17314      14.78000     784.00000
    6849.50000      61.39999    -999.00000      63.10000       0.17314      14.78000     784.00000
    6850.00000      61.39999    -999.00000      62.80000       0.17075      14.77000     788.00000
    6850.50000      57.39999    -999.00000      62.40000       0.17075      14.77000     788.00000
    6851.00000      57.19999    -999.00000      62.10000       0.16606      14.77000     796.00000
    6851.50000      57.39999    -999.00000      61.50000       0.16377      14.76000     800.00000
    6852.00000      57.59999    -999.00000      60.90000       0.17802      14.76000     776.00000
    6852.50000      57.80000    -999.00000      61.60000       0.19084      14.78000     756.00000
    6853.00000      58.99999    -999.00000      61.70000       0.19084      14.80000     756.00000
    6853.50000      60.39999    -999.00000      61.80000       0.19351      14.82000     752.00000
    6854.00000      61.99999    -999.00000      61.90000       0.19351      14.84000     752.00000
    6854.50000      61.39999    -999.00000      62.00000       0.17314      14.84000     784.00000
    6855.00000      60.59999    -999.00000      62.00000       0.18304      14.83000     768.00000
    6855.50000      59.99999    -999.00000      62.40000       0.19351      14.83000     752.00000
    6856.00000      58.59999    -999.00000      62.70000       0.19622      14.82000     748.00000
    6856.50000      56.99999    -999.00000      62.30000       0.19897      14.82000     744.00000
    6857.00000      55.59999    -999.00000      61.90000       0.21329      14.83000     724.00000
    6857.50000      57.39999    -999.00000      62.00000       0.22865      14.83000     704.00000
    6858.00000      59.19999    -999.00000      62.00000       0.22238      14.84000     712.00000
    6858.50000      59.59999    -999.00000      62.10000       0.21628      14.84000     720.00000
    6859.00000      59.99999    -999.00000      62.80000       0.21035      14.84000     728.00000
    6859.50000      60.19999    -999.00000      62.50000       0.22549      14.84000     708.00000
    6860.00000      60.59999    -999.00000      62.20000       0.24172      14.84000     688.00000
    6860.50000      60.39999    -999.00000      61.90000       0.25555      14.84000     672.00000
    6861.00000      60.39999    -999.00000      62.00000       0.27016      14.84000     656.00000
    6861.50000      60.19999    -999.00000      62.10000       0.26276      14.84000     664.00000
    6862.00000      59.99999    -999.00000      61.90000       0.25913      14.81000     668.00000
    6862.50000      59.99999    -999.00000      61.80000       0.25555      14.77000     672.00000
    6863.00000      62.59999    -999.00000      61.50000       0.25555      14.74000     672.00000
    6863.50000      64.99998    -999.00000      62.00000       0.25202      14.54000     676.00000
    6864.00000      66.19998    -999.00000      62.40000       0.25202      14.72000     676.00000
    6864.50000      67.59999    -999.00000      62.90000       0.24854      14.87000     680.00000
    6865.00000      65.79999    -999.00000      63.80000       0.24511      14.87000     684.00000
    6865.50000      63.99999    -999.00000      64.70000       0.24511      14.87000     684.00000
    6866.00000      62.19999    -999.00000      64.00000       0.21930      14.87000     716.00000
    6866.50000      60.39999    -999.00000      63.30000       0.19897      14.83000     744.00000
    6867.00000      56.99999    -999.00000      62.20000       0.19622      14.79000     748.00000
    6867.50000      56.80000    -999.00000      61.70000       0.19084      14.75000     756.00000
    6868.00000      56.80000    -999.00000      61.20000       0.18820      14.79000     760.00000
    6868.50000      57.39999    -999.00000      62.00000       0.18560      14.83000     764.00000
    6869.00000      57.99999    -999.00000      62.70000       0.18304      14.82000     768.00000
    6869.50000      57.99999    -999.00000      62.60000       0.19897      14.81000     744.00000
    6870.00000      57.99999    -999.00000      62.60000       0.21628      14.81000     720.00000
    6870.50000      57.99999    -999.00000      62.50000       0.23185      14.80000     700.00000
    6871.00000      60.19999    -999.00000      63.00000       0.25202      14.79000     676.00000
    6871.50000      62.39999    -999.00000      63.40000       0.23839      14.78000     692.00000
    6872.00000      61.80000    -999.00000      63.80000       0.22865      14.78000     704.00000
    6872.50000      61.19999    -999.00000      64.09999       0.21628      14.77000     720.00000
    6873.00000      60.59999    -999.00000      63.00000       0.21035      14.76000     728.00000
    6873.50000      62.99999    -999.00000      61.90000       0.21329      14.76000     724.00000
    6874.00000      65.39999    -999.00000      61.80000       0.21329      14.85000     724.00000
    6874.50000      64.79999    -999.00000      61.80000       0.20175      14.81000     740.00000
    6875.00000      63.99999    -999.00000      62.30000       0.19351      14.70000     752.00000
    6875.50000      63.39999    -999.00000      62.70000       0.17556      14.59000     780.00000
    6876.00000      60.39999    -999.00000      62.00000       0.15928      14.72000     808.00000
    6876.50000      57.39999    -999.00000      61.40000       0.15066      14.85000     824.00000
    6877.00000      54.39999    -999.00000      60.80000       0.14251      14.85000     840.00000
    6877.50000      53.99999    -999.00000      60.30000       0.13480      14.84000     856.00000
    6878.00000      53.59999    -999.00000      60.40000       0.15277      14.84000     820.00000
    6878.50000      53.39999    -999.00000      60.40000       0.17556      14.84000     780.00000
    6879.00000      52.99999    -999.00000      60.50000       0.19897      14.84000     744.00000
    6879.50000      57.39999    -999.00000      60.80000       0.22549      14.83000     708.00000
    6880.00000      58.59999    -999.00000      61.20000       0.25202      14.83000     676.00000
    6880.50000      59.59999    -999.00000      61.50000       0.28562      14.84000     640.00000
    6881.00000      60.80000    -999.00000      62.60000       0.27778      14.85000     648.00000
    6881.50000      59.80000    -999.00000      63.10000       0.27395      14.85000     652.00000
    6882.00000      58.99999    -999.00000      63.60000       0.25555      14.86000     672.00000
    6882.50000      57.99999    -999.00000      63.50000       0.23509      14.87000     696.00000
    6883.00000      59.59999    -999.00000      63.40000       0.21930      14.88000     716.00000
    6883.50000      61.19999    -999.00000      63.70000       0.22238      14.88000     712.00000
    6884.00000      62.99999    -999.00000      63.90000       0.22549      14.89000     708.00000
    6884.50000      64.79999    -999.00000      64.20000       0.22865      14.90000     704.00000
    6885.00000      66.59999    -999.00000      64.20000       0.22865      14.89000     704.00000
