~VERSION INFORMATION
VERS.      2.0   :CWLS LOG ASCII STANDARD--VERSION 2.0
WRAP.      NO    :ONE LINE PER DEPTH STEP
~WELL INFORMATION
#MNEM.UNIT              DATA          DESCRIPTION
#================================================
STRT.FT                          0.50000 :START DEPTH
STOP.FT                      11450.00000 :STOP DEPTH
STEP.FT                          0.50000 :STEP
NULL.                         -999.00000 :NULL VALUE
COMP.                                            : COMPANY
WELL.   AMOCO 1 ULLMAN, R                        : WELL NAME
UWI.    3412121278                               : WELL UWI
API.    3412121278                               : WELL API
LOC.    ELK TWP                                  : WELL LOCATION
DATE.   NOBLE CO, OH                             : WELL DATE
FLD.    No Project Selected                      : Project NAME
~CURVE INFORMATION
#================================================
Depth   .FT                  :Depth
GR      .GAPI                :GR
RHOB    .G/CC                :RHOB
DT      .US/F                :DT
NPHI    .V/V                 :Neutron porosity units
CAL     .IN                  :CAL
NAPI    .API                 :Neutron API units
~PARAMETER INFORMATION
#================================================
EKB     .ft         1035.00000   : KB Elevation
LONG    .degW         81.34713   : LONG
LAT     .degN         39.61085   : LAT
~OTHER INFORMATION
#================================================
~A
# ...
    6075.50000      20.00000    -999.00000      47.10000       0.06274      14.85000    1076.00000
    6076.00000      18.00000    -999.00000      47.00000       0.05935      14.86000    1092.00000
    6076.50000      15.80000    -999.00000      47.00000       0.05614      14.86000    1108.00000
    6077.00000      13.80000    -999.00000      46.60000       0.05310      14.86000    1124.00000
    6077.50000      14.40000    -999.00000      46.30000       0.05023      14.85000    1140.00000
    6078.00000      15.20000    -999.00000      46.40000       0.04751      14.85000    1156.00000
    6078.50000      15.80000    -999.00000      46.50000       0.04885      14.85000    1148.00000
    6079.00000      14.00000    -999.00000      46.20000       0.05093      14.85000    1136.00000
    6079.50000      12.60000    -999.00000      46.00000       0.05384      14.86000    1120.00000
    6080.00000      13.40000    -999.00000      45.90000       0.04818      14.86000    1152.00000
    6080.50000      14.20000    -999.00000      45.70000       0.04953      14.87000    1144.00000
    6081.00000      14.20000    -999.00000      45.80000       0.05093      14.87000    1136.00000
    6081.50000      14.20000    -999.00000      45.90000       0.05237      14.87000    1128.00000
    6082.00000      14.20000    -999.00000      45.80000       0.05164      14.88000    1132.00000
    6082.50000      15.80000    -999.00000      45.70000       0.05164      14.88000    1132.00000
    6083.00000      17.40000    -999.00000      45.90000       0.05164      14.88000    1132.00000
    6083.50000      19.00000    -999.00000      46.10000       0.05164      14.89000    1132.00000
    6084.00000      17.60000    -999.00000      46.80000       0.04557      14.89000    1168.00000
    6084.50000      16.20000    -999.00000      47.50000       0.04021      14.90000    1204.00000
    6085.00000      14.80000    -999.00000      47.30000       0.03499      14.89000    1244.00000
    6085.50000      13.60000    -999.00000      47.10000       0.03087      14.87000    1280.00000
    6086.00000      16.00000    -999.00000      46.80000       0.03499      14.86000    1244.00000
    6086.50000      18.60000    -999.00000      46.60000       0.04021      14.87000    1204.00000
    6087.00000      21.00000    -999.00000      46.10000       0.04557      14.88000    1168.00000
    6087.50000      22.00000    -999.00000      45.70000       0.05164      14.88000    1132.00000
    6088.00000      23.00000    -999.00000      45.80000       0.06102      14.89000    1084.00000
    6088.50000      22.00000    -999.00000      45.80000       0.07210      14.89000    1036.00000
    6089.00000      21.00000    -999.00000      47.30000       0.08520      14.89000     988.00000
    6089.50000      20.80000    -999.00000      47.50000       0.09390      14.89000     960.00000
    6090.00000      20.80000    -999.00000      47.70000       0.10350      14.88000     932.00000
    6090.50000      20.60000    -999.00000      47.90000       0.10067      14.87000     940.00000
    6091.00000      19.80000    -999.00000      47.30000       0.10067      14.86000     940.00000
    6091.50000      19.00000    -999.00000      46.80000       0.09928      14.85000     944.00000
    6092.00000      20.40000    -999.00000      47.00000       0.09790      14.84000     948.00000
    6092.50000      21.80000    -999.00000      46.40000       0.10350      14.83000     932.00000
    6093.00000      21.40000    -999.00000      46.40000       0.10791      14.82000     920.00000
    6093.50000      21.00000    -999.00000      46.30000       0.10208      14.83000     936.00000
    6094.00000      20.80000    -999.00000      46.30000       0.10067      14.83000     940.00000
    6094.50000      20.80000    -999.00000      46.50000       0.10208      14.84000     936.00000
    6095.00000      18.40000    -999.00000      46.70000       0.10208      14.84000     936.00000
    6095.50000      16.00000    -999.00000      46.40000       0.09261      14.85000     964.00000
    6096.00000      15.80000    -999.00000      46.40000       0.09790      14.85000     948.00000
    6096.50000      15.20000    -999.00000      46.40000       0.10208      14.86000     936.00000
    6097.00000      16.00000    -999.00000      46.50000       0.10067      14.86000     940.00000
    6097.50000      16.80000    -999.00000      46.50000       0.09790      14.87000     948.00000
    6098.00000      17.00000    -999.00000      46.10000       0.09655      14.87000     952.00000
    6098.50000      17.00000    -999.00000      46.10000       0.07414      14.87000    1028.00000
    6099.00000      17.20000    -999.00000      46.10000       0.06451      14.87000    1068.00000
    6099.50000      17.00000    -999.00000      46.10000       0.06362      14.87000    1072.00000
    6100.00000      16.80000    -999.00000      46.10000       0.06362      14.87000    1072.00000
    6100.50000      14.40000    -999.00000      45.70000       0.06188      14.81000    1080.00000
    6101.00000      13.40000    -999.00000      45.40000       0.05935      14.81000    1092.00000
    6101.50000      14.60000    -999.00000      45.60000       0.05536      14.80000    1112.00000
    6102.00000      15.60000    -999.00000      45.70000       0.07729      14.80000    1016.00000
    6102.50000      14.00000    -999.00000      45.90000       0.07947      14.80000    1008.00000
    6103.00000      12.60000    -999.00000      46.20000       0.08059      14.80000    1004.00000
    6103.50000      12.80000    -999.00000      46.40000       0.07111      14.80000    1040.00000
    6104.00000      12.60000    -999.00000      46.70000       0.06362      14.80000    1072.00000
    6104.50000      12.60000    -999.00000      46.30000       0.06018      14.80000    1088.00000
    6105.00000      12.40000    -999.00000      46.00000       0.05772      14.79000    1100.00000
    6105.50000      13.00000    -999.00000      45.90000       0.05614      14.79000    1108.00000
    6106.00000      13.40000    -999.00000      45.80000       0.05536      14.79000    1112.00000
    6106.50000      14.00000    -999.00000      44.90000       0.04953      14.79000    1144.00000
    6107.00000      13.60000    -999.00000      45.00000       0.05614      14.79000    1108.00000
    6107.50000      13.20000    -999.00000      45.10000       0.06362      14.79000    1072.00000
    6108.00000      11.20000    -999.00000      45.50000       0.07210      14.79000    1036.00000
    6108.50000      11.80000    -999.00000      45.90000       0.08171      14.80000    1000.00000
    6109.00000      12.60000    -999.00000      46.10000       0.08171      14.80000    1000.00000
    6109.50000      13.20000    -999.00000      46.20000       0.08286      14.80000     996.00000
    6110.00000      15.20000    -999.00000      46.40000       0.08286      14.81000     996.00000
    6110.50000      17.20000    -999.00000      46.10000       0.07311      14.81000    1032.00000
    6111.00000      16.80000    -999.00000      45.90000       0.06542      14.81000    1064.00000
    6111.50000      16.40000    -999.00000      45.60000       0.05772      14.81000    1100.00000
    6112.00000      16.00000    -999.00000      45.60000       0.05164      14.82000    1132.00000
    6112.50000      15.60000    -999.00000      45.50000       0.06018      14.82000    1088.00000
    6113.00000      16.60000    -999.00000      45.50000       0.06916      14.81000    1048.00000
    6113.50000      17.60000    -999.00000      45.90000       0.08059      14.81000    1004.00000
    6114.00000      16.00000    -999.00000      46.30000       0.08171      14.80000    1000.00000
    6114.50000      14.20000    -999.00000      46.70000       0.08171      14.80000    1000.00000
    6115.00000      12.60000    -999.00000      47.90000       0.08171      14.81000    1000.00000
    6115.50000      13.60000    -999.00000      47.40000       0.08286      14.82000     996.00000
