~VERSION INFORMATION
VERS.      2.0   :CWLS LOG ASCII STANDARD--VERSION 2.0
WRAP.      NO    :ONE LINE PER DEPTH STEP
~WELL INFORMATION
#MNEM.UNIT              DATA          DESCRIPTION
#================================================
STRT.FT                          0.50000 :START DEPTH
STOP.FT                      11450.00000 :STOP DEPTH
STEP.FT                          0.50000 :STEP
NULL.                         -999.00000 :NULL VALUE
COMP.                                            : COMPANY
WELL.   AMOCO 1 ULLMAN, R                        : WELL NAME
UWI.    3412121278                               : WELL UWI
API.    3412121278                               : WELL API
LOC.    ELK TWP                                  : WELL LOCATION
DATE.   NOBLE CO, OH                             : WELL DATE
FLD.    No Project Selected                      : Project NAME
~CURVE INFORMATION
#================================================
Depth   .FT                  :Depth
GR      .GAPI                :GR
RHOB    .G/CC                :RHOB
DT      .US/F                :DT
NPHI    .V/V                 :Neutron porosity units
CAL     .IN                  :CAL
NAPI    .API                 :Neutron API units
~PARAMETER INFORMATION
#================================================
EKB     .ft         1035.00000   : KB Elevation
LONG    .degW         81.34713   : LONG
LAT     .degN         39.61085   : LAT
~OTHER INFORMATION
#================================================
~A
# ...
    4577.00000      92.79999    -999.00000      84.50000       0.51216      15.62000     472.00000
    4577.50000      89.79999    -999.00000      85.39999       0.47777      15.64000     492.00000
    4578.00000      86.99998    -999.00000      86.20000       0.45192      15.66000     508.00000
    4578.50000      80.19998    -999.00000      83.20000       0.41001      15.69000     536.00000
    4579.00000      80.59999    -999.00000      83.30000       0.39325      15.72000     548.00000
    4579.50000      78.79999    -999.00000      82.59999       0.38247      15.75000     556.00000
    4580.00000      76.99998    -999.00000      81.89999       0.36684      15.78000     568.00000
    4580.50000      75.19998    -999.00000      84.80000       0.39876      15.82000     544.00000
    4581.00000      79.39999    -999.00000      85.39999       0.43346      15.85000     520.00000
    4581.50000      83.59999    -999.00000      86.00000       0.47117      16.09000     496.00000
    4582.00000      83.59999    -999.00000      84.50000       0.47777      16.68000     492.00000
    4582.50000      81.59999    -999.00000      94.00000       0.48446      16.01000     488.00000
    4583.00000      81.59999    -999.00000     102.00000       0.48446      15.76000     488.00000
    4583.50000      81.59999    -999.00000      85.00000       0.47777      15.78000     492.00000
    4584.00000      81.19998    -999.00000      87.89999       0.47777      15.81000     492.00000
    4584.50000      80.99998    -999.00000      85.39999       0.45192      15.84000     508.00000
    4585.00000      79.59999    -999.00000      84.09999       0.42747      15.97000     524.00000
    4585.50000      78.19998    -999.00000      85.89999       0.45192      16.07000     508.00000
    4586.00000      76.79999    -999.00000      87.39999       0.46466      16.30000     500.00000
    4586.50000      72.39999    -999.00000      87.30000       0.48446      16.28000     488.00000
    4587.00000      67.59999    -999.00000      86.30000       0.54146      18.07000     456.00000
    4587.50000      62.99999    -999.00000      85.39999       0.56452      19.37000     444.00000
    4588.00000      60.19999    -999.00000      86.39999       0.58857      19.86000     432.00000
    4588.50000      57.39999    -999.00000      83.30000       0.61364      19.74000     420.00000
    4589.00000      56.59999    -999.00000      81.00000       0.61364      19.62000     420.00000
    4589.50000      55.80000    -999.00000      85.30000       0.61364      19.74000     420.00000
    4590.00000      55.19999    -999.00000      87.80000       0.61364      19.09000     420.00000
    4590.50000      54.39999    -999.00000      83.70000       0.61364      19.09000     420.00000
    4591.00000      55.99999    -999.00000      85.20000       0.63094      19.09000     412.00000
    4591.50000      57.39999    -999.00000      89.70000       0.64873      19.44000     404.00000
    4592.00000      58.99999    -999.00000      94.09999       0.66703      19.45000     396.00000
    4592.50000      59.19999    -999.00000      94.09999       0.63094      19.45000     412.00000
    4593.00000      57.59999    -999.00000     105.39999       0.60516      19.64000     424.00000
    4593.50000      55.99999    -999.00000     116.00000       0.62223      19.64000     416.00000
    4594.00000      53.99999    -999.00000      95.89999       0.63978      19.64000     408.00000
    4594.50000      55.19999    -999.00000      96.09999       0.65782      19.91000     400.00000
    4595.00000      56.39999    -999.00000      98.09999       0.66703      19.90000     396.00000
    4595.50000      57.59999    -999.00000      94.29999       0.66703      19.90000     396.00000
    4596.00000      56.39999    -999.00000      97.20000       0.64873      19.91000     404.00000
    4596.50000      55.39999    -999.00000     103.09999       0.66703      19.91000     396.00000
    4597.00000      54.19999    -999.00000      89.79999       0.62223      19.91000     416.00000
    4597.50000      52.99999    -999.00000      96.59999       0.58044      19.87000     436.00000
    4598.00000      51.80000    -999.00000     130.19998       0.56452      19.83000     444.00000
    4598.50000      52.80000    -999.00000     132.29999       0.54904      19.83000     452.00000
    4599.00000      51.80000    -999.00000     121.79999       0.54904      19.83000     452.00000
    4599.50000      50.80000    -999.00000     110.00000       0.54904      19.84000     452.00000
    4600.00000      49.80000    -999.00000     102.59999       0.54904      19.84000     452.00000
    4600.50000      50.20000    -999.00000     112.50000       0.56452      19.84000     444.00000
    4601.00000      52.80000    -999.00000      97.50000       0.58857      19.84000     432.00000
    4601.50000      53.99999    -999.00000     101.59999       0.60516      19.84000     424.00000
    4602.00000      55.19999    -999.00000     106.29999       0.62223      19.85000     416.00000
    4602.50000      57.59999    -999.00000      96.39999       0.60516      19.85000     424.00000
    4603.00000      59.99999    -999.00000     103.00000       0.58044      19.85000     436.00000
    4603.50000      62.19999    -999.00000     119.70000       0.56452      19.86000     444.00000
    4604.00000      64.59999    -999.00000     104.39999       0.55673      19.86000     448.00000
    4604.50000      62.19999    -999.00000      94.29999       0.54904      19.74000     452.00000
    4605.00000      59.80000    -999.00000      98.79999       0.54146      19.62000     456.00000
    4605.50000      57.59999    -999.00000     102.89999       0.55673      19.07000     448.00000
    4606.00000      55.19999    -999.00000     107.09999       0.49124      17.61000     484.00000
    4606.50000      55.99999    -999.00000      95.00000       0.49124      17.39000     484.00000
    4607.00000      56.59999    -999.00000      89.09999       0.48446      17.18000     488.00000
    4607.50000      57.39999    -999.00000      83.30000       0.48446      17.32000     488.00000
    4608.00000      57.99999    -999.00000      84.70000       0.47777      17.55000     492.00000
    4608.50000      59.99999    -999.00000      85.70000       0.47777      18.26000     492.00000
    4609.00000      61.99999    -999.00000      82.70000       0.49124      18.22000     484.00000
    4609.50000      61.59999    -999.00000      82.80000       0.51216      17.26000     472.00000
    4610.00000      61.19999    -999.00000      79.59999       0.52661      17.14000     464.00000
    4610.50000      63.39999    -999.00000      86.00000       0.54904      17.02000     452.00000
    4611.00000      65.79999    -999.00000      92.39999       0.56452      16.61000     444.00000
    4611.50000      67.99998    -999.00000      93.79999       0.58857      16.46000     432.00000
    4612.00000      69.59999    -999.00000      95.09999       0.60516      16.32000     424.00000
    4612.50000      67.79999    -999.00000      92.00000       0.51934      16.73000     468.00000
    4613.00000      65.99998    -999.00000      88.00000       0.44568      17.00000     512.00000
    4613.50000      64.19998    -999.00000      87.30000       0.42157      17.10000     528.00000
    4614.00000      72.79999    -999.00000      80.70000       0.40434      16.71000     540.00000
    4614.50000      81.59999    -999.00000      83.80000       0.38247      16.08000     556.00000
    4615.00000      90.19998    -999.00000      86.89999       0.38782      15.83000     552.00000
    4615.50000      95.39999    -999.00000      87.89999       0.39876      15.82000     544.00000
    4616.00000     100.59999    -999.00000      91.00000       0.40434      15.55000     540.00000
    4616.50000     105.79999    -999.00000      90.89999       0.39876      15.40000     544.00000
    4617.00000     100.79999    -999.00000      90.39999       0.39876      15.26000     544.00000
