~VERSION INFORMATION
VERS.      2.0   :CWLS LOG ASCII STANDARD--VERSION 2.0
WRAP.      NO    :ONE LINE PER DEPTH STEP
~WELL INFORMATION
#MNEM.UNIT              DATA          DESCRIPTION
#================================================
STRT.FT                          0.50000 :START DEPTH
STOP.FT                      11450.00000 :STOP DEPTH
STEP.FT                          0.50000 :STEP
NULL.                         -999.00000 :NULL VALUE
COMP.                                            : COMPANY
WELL.   AMOCO 1 ULLMAN, R                        : WELL NAME
UWI.    3412121278                               : WELL UWI
API.    3412121278                               : WELL API
LOC.    ELK TWP                                  : WELL LOCATION
DATE.   NOBLE CO, OH                             : WELL DATE
FLD.    No Project Selected                      : Project NAME
~CURVE INFORMATION
#================================================
Depth   .FT                  :Depth
GR      .GAPI                :GR
RHOB    .G/CC                :RHOB
DT      .US/F                :DT
NPHI    .V/V                 :Neutron porosity units
CAL     .IN                  :CAL
NAPI    .API                 :Neutron API units
~PARAMETER INFORMATION
#================================================
EKB     .ft         1035.00000   : KB Elevation
LONG    .degW         81.34713   : LONG
LAT     .degN         39.61085   : LAT
~OTHER INFORMATION
#================================================
~A
# ...
    9153.50000      30.40000       2.71500      72.39999       0.00514       9.07000    1796.00000
    9154.00000      28.40000       2.71200      71.80000       0.00514       9.07000    1796.00000
    9154.50000      26.40000       2.70800      70.59999       0.00514       9.06000    1796.00000
    9155.00000      25.40000       2.70200      69.50000       0.00429       9.05000    1848.00000
    9155.50000      24.60000       2.70700      69.70000       0.00358       9.05000    1900.00000
    9156.00000      27.00000       2.70500      69.89999       0.00299       9.04000    1952.00000
    9156.50000      25.40000       2.69700      70.09999       0.00249       9.03000    2004.00000
    9157.00000      23.80000       2.69000      68.70000       0.00197       9.06000    2072.00000
    9157.50000      22.20000       2.68100      67.30000       0.00158       9.09000    2136.00000
    9158.00000      20.60000       2.67900      65.89999       0.00124       9.12000    2204.00000
    9158.50000      19.00000       2.68500      64.70000       0.00105       9.13000    2252.00000
    9159.00000      18.60000       2.69800      63.50000       0.00089       9.14000    2300.00000
    9159.50000      18.40000       2.70900      64.89999       0.00110       9.15000    2240.00000
    9160.00000      18.20000       2.71500      66.20000       0.00135       9.16000    2180.00000
    9160.50000      20.80000       2.72000      68.39999       0.00202       9.18000    2064.00000
    9161.00000      23.00000       2.70300      69.09999       0.00307       9.20000    1944.00000
    9161.50000      23.40000       2.69100      69.80000       0.00460       9.22000    1828.00000
    9162.00000      23.80000       2.67400      67.00000       0.00486       9.22000    1812.00000
    9162.50000      25.00000       2.68500      67.80000       0.00506       9.21000    1800.00000
    9163.00000      24.20000       2.69800      67.09999       0.00358       9.21000    1900.00000
    9163.50000      23.40000       2.70800      67.50000       0.00263       9.21000    1988.00000
    9164.00000      22.60000       2.71200      67.80000       0.00186       9.20000    2088.00000
    9164.50000      21.80000       2.72700      64.30000       0.00130       9.20000    2192.00000
    9165.00000      18.60000       2.71400      62.90000       0.00092       9.16000    2292.00000
    9165.50000      15.60000       2.69800      61.50000       0.00065       9.12000    2392.00000
    9166.00000      12.40000       2.71700      62.00000       0.00031       9.08000    2604.00000
    9166.50000      12.60000       2.72600      62.40000       0.00027       9.12000    2640.00000
    9167.00000      12.60000       2.70100      62.20000       0.00024       9.17000    2672.00000
    9167.50000      12.80000       2.70500      62.00000       0.00028       9.21000    2636.00000
    9168.00000      11.40000       2.71700      61.30000       0.00028       9.20000    2632.00000
    9168.50000       9.80000       2.72800      60.60000       0.00028       9.19000    2632.00000
    9169.00000       8.40000       2.72200      62.00000       0.00024       9.18000    2680.00000
    9169.50000       9.40000       2.71300      62.20000       0.00024       9.17000    2676.00000
    9170.00000      10.60000       2.70600      62.40000       0.00024       9.18000    2676.00000
    9170.50000      11.60000       2.70700      61.40000       0.00026       9.18000    2656.00000
    9171.00000      11.20000       2.71700      61.90000       0.00027       9.19000    2640.00000
    9171.50000      10.80000       2.70600      62.40000       0.00014       9.18000    2840.00000
    9172.00000      10.40000       2.71300      63.50000       0.00011       9.25000    2892.00000
    9172.50000      11.20000       2.71900      63.30000       0.00009       9.22000    2948.00000
    9173.00000      11.80000       2.70600      63.40000       0.00008       9.20000    3000.00000
    9173.50000      12.60000       2.69700      61.90000       0.00006       9.17000    3092.00000
    9174.00000      13.20000       2.69300      62.10000       0.00007       9.19000    3048.00000
    9174.50000      12.20000       2.70600      62.00000       0.00008       9.16000    3004.00000
    9175.00000      12.00000       2.72000      63.00000       0.00008       9.12000    2976.00000
    9175.50000      12.00000       2.72000      64.00000       0.00009       9.09000    2952.00000
    9176.00000      11.80000       2.73000      61.00000       0.00010       9.13000    2924.00000
    9176.50000      12.00000       2.72100      62.10000       0.00011       9.17000    2900.00000
    9177.00000      11.40000       2.71100      63.20000       0.00012       9.21000    2872.00000
    9177.50000      11.20000       2.71100      62.50000       0.00013       9.20000    2860.00000
    9178.00000      11.20000       2.71700      62.10000       0.00013       9.20000    2864.00000
    9178.50000      11.00000       2.71800      62.40000       0.00013       9.19000    2864.00000
    9179.00000      10.00000       2.72600      62.70000       0.00011       9.09000    2896.00000
    9179.50000       8.80000       2.72800      63.00000       0.00010       9.08000    2928.00000
    9180.00000       7.80000       2.72700      63.20000       0.00010       9.07000    2924.00000
    9180.50000       8.60000       2.73700      63.10000       0.00010       9.06000    2924.00000
    9181.00000       9.40000       2.74000      63.20000       0.00010       9.05000    2920.00000
    9181.50000      10.20000       2.73300      63.30000       0.00012       9.04000    2884.00000
    9182.00000      10.60000       2.72300      64.09999       0.00013       9.03000    2852.00000
    9182.50000      10.80000       2.71500      63.20000       0.00013       9.03000    2848.00000
    9183.00000      11.20000       2.70400      63.00000       0.00014       9.03000    2840.00000
    9183.50000      11.40000       2.68500      62.80000       0.00014       8.99000    2836.00000
    9184.00000      10.20000       2.67400      63.30000       0.00014       8.95000    2828.00000
    9184.50000       9.00000       2.67500      63.80000       0.00015       8.91000    2820.00000
    9185.00000       9.00000       2.69200      65.00000       0.00015       8.87000    2820.00000
    9185.50000       9.00000       2.70600      63.60000       0.00015       8.82000    2820.00000
    9186.00000      10.80000       2.70900      62.30000       0.00017       8.78000    2784.00000
    9186.50000      12.80000       2.70000      67.50000       0.00025       8.80000    2660.00000
    9187.00000      14.60000       2.69000      72.30000       0.00039       8.83000    2536.00000
    9187.50000      14.80000       2.68100      74.80000       0.00060       8.85000    2412.00000
    9188.00000      15.00000       2.69800      77.09999       0.00068       8.83000    2376.00000
    9188.50000      12.40000       2.71600      68.39999       0.00076       8.81000    2344.00000
    9189.00000      10.00000       2.73100      65.59999       0.00057       8.88000    2428.00000
    9189.50000       9.80000       2.71700      66.50000       0.00042       8.94000    2516.00000
    9190.00000       9.40000       2.67600      65.70000       0.00031       9.01000    2600.00000
    9190.50000       9.20000       2.64200      70.30000       0.00019       8.99000    2744.00000
    9191.00000      10.40000       2.65500      64.20000       0.00018       8.98000    2768.00000
    9191.50000      11.60000       2.67700      60.80000       0.00016       8.96000    2788.00000
    9192.00000      10.40000       2.67000      61.70000       0.00014       8.95000    2824.00000
    9192.50000       9.20000       2.69300      60.00000       0.00011       9.01000    2912.00000
    9193.00000       9.20000       2.69700      58.70000       0.00008       9.06000    3000.00000
    9193.50000       9.20000       2.70200      59.80000       0.00007       8.99000    3052.00000
