~VERSION INFORMATION
VERS.      2.0   :CWLS LOG ASCII STANDARD--VERSION 2.0
WRAP.      NO    :ONE LINE PER DEPTH STEP
~WELL INFORMATION
#MNEM.UNIT              DATA          DESCRIPTION
#================================================
STRT.FT                          0.50000 :START DEPTH
STOP.FT                      11450.00000 :STOP DEPTH
STEP.FT                          0.50000 :STEP
NULL.                         -999.00000 :NULL VALUE
COMP.                                            : COMPANY
WELL.   AMOCO 1 ULLMAN, R                        : WELL NAME
UWI.    3412121278                               : WELL UWI
API.    3412121278                               : WELL API
LOC.    ELK TWP                                  : WELL LOCATION
DATE.   NOBLE CO, OH                             : WELL DATE
FLD.    No Project Selected                      : Project NAME
~CURVE INFORMATION
#================================================
Depth   .FT                  :Depth
GR      .GAPI                :GR
RHOB    .G/CC                :RHOB
DT      .US/F                :DT
NPHI    .V/V                 :Neutron porosity units
CAL     .IN                  :CAL
NAPI    .API                 :Neutron API units
~PARAMETER INFORMATION
#================================================
EKB     .ft         1035.00000   : KB Elevation
LONG    .degW         81.34713   : LONG
LAT     .degN         39.61085   : LAT
~OTHER INFORMATION
#================================================
~A
       0.50000      21.80000    -999.00000    -999.00000       0.61364    -999.00000     420.00000
       1.00000      21.60000    -999.00000    -999.00000       0.60516    -999.00000     424.00000
       1.50000      21.40000    -999.00000    -999.00000       0.59681    -999.00000     428.00000
       2.00000      21.20000    -999.00000    -999.00000       0.58857    -999.00000     432.00000
       2.50000      21.00000    -999.00000    -999.00000       0.58044    -999.00000     436.00000
       3.00000      20.80000    -999.00000    -999.00000       0.58044    -999.00000     436.00000
       3.50000      20.60000    -999.00000    -999.00000       0.58857    -999.00000     432.00000
       4.00000      20.40000    -999.00000    -999.00000       0.58857    -999.00000     432.00000
       4.50000      20.60000    -999.00000    -999.00000       0.60516    -999.00000     424.00000
       5.00000      20.80000    -999.00000    -999.00000       0.63094    -999.00000     412.00000
       5.50000      21.20000    -999.00000    -999.00000       0.64873    -999.00000     404.00000
       6.00000      21.40000    -999.00000    -999.00000       0.65782    -999.00000     400.00000
       6.50000      21.60000    -999.00000    -999.00000       0.65782    -999.00000     400.00000
       7.00000      21.80000    -999.00000    -999.00000       0.64873    -999.00000     404.00000
       7.50000      22.00000    -999.00000    -999.00000       0.63094    -999.00000     412.00000
       8.00000      22.00000    -999.00000    -999.00000       0.62223    -999.00000     416.00000
       8.50000      22.20000    -999.00000    -999.00000       0.61364    -999.00000     420.00000
       9.00000      22.20000    -999.00000    -999.00000       0.59681    -999.00000     428.00000
       9.50000      22.40000    -999.00000    -999.00000       0.58857    -999.00000     432.00000
      10.00000      22.80000    -999.00000    -999.00000       0.57243    -999.00000     440.00000
      10.50000      23.20000    -999.00000    -999.00000       0.56452    -999.00000     444.00000
      11.00000      23.60000    -999.00000    -999.00000       0.55673    -999.00000     448.00000
      11.50000      23.80000    -999.00000    -999.00000       0.54146    -999.00000     456.00000
      12.00000      24.00000    -999.00000    -999.00000       0.52661    -999.00000     464.00000
      12.50000      24.20000    -999.00000    -999.00000       0.51216    -999.00000     472.00000
      13.00000      24.40000    -999.00000    -999.00000       0.52661    -999.00000     464.00000
      13.50000      24.80000    -999.00000    -999.00000       0.54146    -999.00000     456.00000
      14.00000      25.00000    -999.00000    -999.00000       0.54904    -999.00000     452.00000
      14.50000      23.40000    -999.00000    -999.00000       0.56452    -999.00000     444.00000
      15.00000      22.00000    -999.00000    -999.00000       0.57243    -999.00000     440.00000
      15.50000      21.60000    -999.00000    -999.00000       0.57243    -999.00000     440.00000
      16.00000      21.20000    -999.00000    -999.00000       0.59681    -999.00000     428.00000
      16.50000      20.80000    -999.00000    -999.00000       0.62223    -999.00000     416.00000
      17.00000      21.00000    -999.00000    -999.00000       0.60516    -999.00000     424.00000
      17.50000      21.20000    -999.00000    -999.00000       0.59681    -999.00000     428.00000
      18.00000      21.40000    -999.00000    -999.00000       0.58857    -999.00000     432.00000
      18.50000      21.40000    -999.00000    -999.00000       0.58044    -999.00000     436.00000
      19.00000      21.40000    -999.00000    -999.00000       0.57243    -999.00000     440.00000
      19.50000      21.40000    -999.00000    -999.00000       0.58857    -999.00000     432.00000
      20.00000      21.00000    -999.00000    -999.00000       0.60516    -999.00000     424.00000
      20.50000      20.80000    -999.00000    -999.00000       0.61364    -999.00000     420.00000
      21.00000      20.40000    -999.00000    -999.00000       0.63094    -999.00000     412.00000
      21.50000      19.20000    -999.00000    -999.00000       0.64873    -999.00000     404.00000
      22.00000      18.00000    -999.00000    -999.00000       0.64873    -999.00000     404.00000
      22.50000      17.80000    -999.00000    -999.00000       0.65782    -999.00000     400.00000
      23.00000      17.00000    -999.00000    -999.00000       0.65782    -999.00000     400.00000
      23.50000      16.40000    -999.00000    -999.00000       0.64873    -999.00000     404.00000
      24.00000      18.60000    -999.00000    -999.00000       0.64873    -999.00000     404.00000
      24.50000      20.80000    -999.00000    -999.00000       0.63978    -999.00000     408.00000
      25.00000      23.00000    -999.00000    -999.00000       0.63978    -999.00000     408.00000
      25.50000      26.80000    -999.00000    -999.00000       0.63094    -999.00000     412.00000
      26.00000      30.80000    -999.00000    -999.00000       0.63094    -999.00000     412.00000
      26.50000      35.39999    -999.00000    -999.00000       0.63978    -999.00000     408.00000
      27.00000      39.99999    -999.00000    -999.00000       0.64873    -999.00000     404.00000
      27.50000      46.99999    -999.00000    -999.00000       0.64873    -999.00000     404.00000
      28.00000      53.80000    -999.00000    -999.00000       0.65782    -999.00000     400.00000
      28.50000      66.79999    -999.00000    -999.00000       0.66703    -999.00000     396.00000
      29.00000      72.59999    -999.00000    -999.00000       0.64873    -999.00000     404.00000
      29.50000      78.39999    -999.00000    -999.00000       0.63978    -999.00000     408.00000
      30.00000      74.19998    -999.00000    -999.00000       0.54146    -999.00000     456.00000
      30.50000      69.99998    -999.00000    -999.00000       0.53398    -999.00000     460.00000
      31.00000      67.99998    -999.00000    -999.00000       0.52661    -999.00000     464.00000
      31.50000      66.19998    -999.00000    -999.00000       0.53398    -999.00000     460.00000
      32.00000      64.19998    -999.00000    -999.00000       0.54146    -999.00000     456.00000
      32.50000      60.80000    -999.00000    -999.00000       0.54904    -999.00000     452.00000
      33.00000      57.59999    -999.00000    -999.00000       0.57243    -999.00000     440.00000
      33.50000      56.59999    -999.00000    -999.00000       0.58857    -999.00000     432.00000
      34.00000      55.59999    -999.00000    -999.00000       0.61364    -999.00000     420.00000
      34.50000      52.80000    -999.00000    -999.00000       0.60516    -999.00000     424.00000
      35.00000      49.99999    -999.00000    -999.00000       0.60516    -999.00000     424.00000
      35.50000      47.20000    -999.00000    -999.00000       0.60516    -999.00000     424.00000
      36.00000      44.39999    -999.00000    -999.00000       0.56452    -999.00000     444.00000
      36.50000      41.59999    -999.00000    -999.00000       0.53398    -999.00000     460.00000
      37.00000      38.80000    -999.00000    -999.00000       0.48446    -999.00000     488.00000
      37.50000      37.39999    -999.00000    -999.00000       0.44568    -999.00000     512.00000
      38.00000      35.99999    -999.00000    -999.00000       0.38782    -999.00000     552.00000
      38.50000      38.59999    -999.00000    -999.00000       0.33748    -999.00000     592.00000
      39.00000      41.20000    -999.00000    -999.00000       0.35678    -999.00000     576.00000
      39.50000      43.99999    -999.00000    -999.00000       0.37198    -999.00000     564.00000
      40.00000      46.59999    -999.00000    -999.00000       0.41001    -999.00000     536.00000
      40.50000      49.20000    -999.00000    -999.00000       0.45192    -999.00000     508.00000
