~VERSION INFORMATION
VERS.      2.0   :CWLS LOG ASCII STANDARD--VERSION 2.0
WRAP.      NO    :ONE LINE PER DEPTH STEP
~WELL INFORMATION
#MNEM.UNIT              DATA          DESCRIPTION
#================================================
STRT.FT                          0.50000 :START DEPTH
STOP.FT                      11450.00000 :STOP DEPTH
STEP.FT                          0.50000 :STEP
NULL.                         -999.00000 :NULL VALUE
COMP.                                            : COMPANY
WELL.   AMOCO 1 ULLMAN, R                        : WELL NAME
UWI.    3412121278                               : WELL UWI
API.    3412121278                               : WELL API
LOC.    ELK TWP                                  : WELL LOCATION
DATE.   NOBLE CO, OH                             : WELL DATE
FLD.    No Project Selected                      : Project NAME
~CURVE INFORMATION
#================================================
Depth   .FT                  :Depth
GR      .GAPI                :GR
RHOB    .G/CC                :RHOB
DT      .US/F                :DT
NPHI    .V/V                 :Neutron porosity units
CAL     .IN                  :CAL
NAPI    .API                 :Neutron API units
~PARAMETER INFORMATION
#================================================
EKB     .ft         1035.00000   : KB Elevation
LONG    .degW         81.34713   : LONG
LAT     .degN         39.61085   : LAT
~OTHER INFORMATION
#================================================
~A
# ...
    3807.50000      80.39999    -999.00000      76.80000       0.35186      15.82000     580.00000
    3808.00000      78.19998    -999.00000      78.09999       0.31047      16.15000     616.00000
    3808.50000      80.19998    -999.00000      74.70000       0.27395      15.82000     652.00000
    3809.00000      81.99998    -999.00000      73.89999       0.27778      15.61000     648.00000
    3809.50000      82.39999    -999.00000      74.70000       0.27778      16.04000     648.00000
    3810.00000      85.79999    -999.00000      75.39999       0.27778      15.86000     648.00000
    3810.50000      89.19998    -999.00000      76.39999       0.27395      15.70000     652.00000
    3811.00000      84.39999    -999.00000      77.39999       0.27395      15.68000     652.00000
    3811.50000      84.59999    -999.00000      77.20000       0.32822      15.67000     600.00000
    3812.00000      82.59999    -999.00000      77.09999       0.34221      16.24000     588.00000
    3812.50000      80.59999    -999.00000      75.80000       0.32822      16.34000     600.00000
    3813.00000      78.59999    -999.00000      74.59999       0.31922      16.38000     608.00000
    3813.50000      77.19998    -999.00000      72.50000       0.30618      16.41000     620.00000
    3814.00000      75.99998    -999.00000      71.70000       0.24511      16.45000     684.00000
    3814.50000      74.59999    -999.00000      72.50000       0.23839      16.49000     692.00000
    3815.00000      73.39999    -999.00000      73.20000       0.23185      16.28000     700.00000
    3815.50000      73.79999    -999.00000      71.30000       0.22549      16.38000     708.00000
    3816.00000      74.19998    -999.00000      69.89999       0.21930      15.37000     716.00000
    3816.50000      74.59999    -999.00000      68.59999       0.26643      15.37000     660.00000
    3817.00000      74.39999    -999.00000      69.80000       0.26643      15.73000     660.00000
    3817.50000      74.39999    -999.00000      69.59999       0.27016      16.02000     656.00000
    3818.00000      74.59999    -999.00000      70.59999       0.27016      16.40000     656.00000
    3818.50000      76.79999    -999.00000      71.89999       0.27016      16.61000     656.00000
    3819.00000      78.99998    -999.00000      71.89999       0.28562      16.81000     640.00000
    3819.50000      81.19998    -999.00000      73.00000       0.29778      16.74000     628.00000
    3820.00000      79.99998    -999.00000      74.89999       0.27016      16.67000     656.00000
    3820.50000      78.99998    -999.00000      76.80000       0.24511      16.56000     684.00000
    3821.00000      80.59999    -999.00000      76.70000       0.25555      16.36000     672.00000
    3821.50000      82.39999    -999.00000      77.59999       0.26643      15.99000     660.00000
    3822.00000      83.99998    -999.00000      75.59999       0.27778      15.90000     648.00000
    3822.50000      81.19998    -999.00000      73.80000       0.28962      15.81000     636.00000
    3823.00000      80.99998    -999.00000      73.89999       0.31922      15.99000     608.00000
    3823.50000      80.99998    -999.00000      73.89999       0.31047      15.79000     616.00000
    3824.00000      75.59999    -999.00000      72.89999       0.30195      15.38000     624.00000
    3824.50000      70.19998    -999.00000      71.89999       0.29367      15.49000     632.00000
    3825.00000      64.79999    -999.00000      71.70000       0.28562      15.60000     640.00000
    3825.50000      63.99999    -999.00000      70.50000       0.30195      15.75000     624.00000
    3826.00000      63.19999    -999.00000      66.70000       0.31922      15.80000     608.00000
    3826.50000      68.39999    -999.00000      68.59999       0.32369      15.97000     604.00000
    3827.00000      73.79999    -999.00000      70.50000       0.33282      16.08000     596.00000
    3827.50000      78.99998    -999.00000      72.39999       0.33748      16.18000     592.00000
    3828.00000      78.99998    -999.00000      74.30000       0.29778      16.29000     628.00000
    3828.50000      78.99998    -999.00000      74.30000       0.31481      16.42000     612.00000
    3829.00000      78.79999    -999.00000      74.50000       0.32822      16.54000     600.00000
    3829.50000      78.39999    -999.00000      72.80000       0.34700      16.45000     584.00000
    3830.00000      78.19998    -999.00000      74.89999       0.36178      16.37000     572.00000
    3830.50000      82.99998    -999.00000      76.70000       0.36178      16.52000     572.00000
    3831.00000      87.59999    -999.00000      78.50000       0.35678      16.37000     576.00000
    3831.50000      92.39999    -999.00000      79.39999       0.35678      16.22000     576.00000
    3832.00000      92.19998    -999.00000      80.20000       0.34700      16.07000     584.00000
    3832.50000      91.79999    -999.00000      79.80000       0.33282      16.06000     596.00000
    3833.00000      91.59999    -999.00000      80.70000       0.31922      16.05000     608.00000
    3833.50000      87.19998    -999.00000      79.20000       0.31922      16.04000     608.00000
    3834.00000      82.59999    -999.00000      80.00000       0.31922      16.27000     608.00000
    3834.50000      78.19998    -999.00000      80.80000       0.31922      16.17000     608.00000
    3835.00000      78.99998    -999.00000      81.00000       0.31922      16.08000     608.00000
    3835.50000      79.79999    -999.00000      79.39999       0.31481      16.10000     612.00000
    3836.00000      75.19998    -999.00000      78.30000       0.31047      16.06000     616.00000
    3836.50000      70.59999    -999.00000      77.50000       0.32369      16.02000     604.00000
    3837.00000      69.39999    -999.00000      76.20000       0.33282      16.75000     596.00000
    3837.50000      67.99998    -999.00000      74.89999       0.34700      16.82000     584.00000
    3838.00000      66.79999    -999.00000      75.80000       0.38782      17.02000     552.00000
    3838.50000      68.19998    -999.00000      76.39999       0.42747      17.95000     524.00000
    3839.00000      69.59999    -999.00000      77.00000       0.39325      18.34000     548.00000
    3839.50000      70.59999    -999.00000      75.70000       0.36178      18.27000     572.00000
    3840.00000      71.59999    -999.00000      74.30000       0.33748      18.20000     592.00000
    3840.50000      72.79999    -999.00000      72.89999       0.31047      17.85000     616.00000
    3841.00000      74.39999    -999.00000      73.70000       0.29367      17.00000     632.00000
    3841.50000      76.19998    -999.00000      75.39999       0.27778      16.14000     648.00000
    3842.00000      77.79999    -999.00000      75.50000       0.30618      16.49000     620.00000
    3842.50000      75.39999    -999.00000      76.50000       0.33282      16.83000     596.00000
    3843.00000      76.19998    -999.00000      77.80000       0.33748      17.18000     592.00000
    3843.50000      76.99998    -999.00000      78.09999       0.33748      17.46000     592.00000
    3844.00000      77.79999    -999.00000      78.09999       0.31481      17.75000     612.00000
    3844.50000      78.79999    -999.00000      78.09999       0.29367      16.42000     632.00000
    3845.00000      79.59999    -999.00000      79.30000       0.32369      16.22000     604.00000
    3845.50000      80.59999    -999.00000      79.89999       0.35678      16.02000     576.00000
    3846.00000      79.59999    -999.00000      80.39999       0.36684      16.54000     568.00000
    3846.50000      78.59999    -999.00000      80.59999       0.37198      16.28000     564.00000
    3847.00000      82.19998    -999.00000      80.89999       0.38247      16.03000     556.00000
    3847.50000      85.99998    -999.00000      82.30000       0.37719      16.03000     560.00000
