~VERSION INFORMATION
VERS.      2.0   :CWLS LOG ASCII STANDARD--VERSION 2.0
WRAP.      NO    :ONE LINE PER DEPTH STEP
~WELL INFORMATION
#MNEM.UNIT              DATA          DESCRIPTION
#================================================
STRT.FT                          0.50000 :START DEPTH
STOP.FT                      11450.00000 :STOP DEPTH
STEP.FT                          0.50000 :STEP
NULL.                         -999.00000 :NULL VALUE
COMP.                                            : COMPANY
WELL.   AMOCO 1 ULLMAN, R                        : WELL NAME
UWI.    3412121278                               : WELL UWI
API.    3412121278                               : WELL API
LOC.    ELK TWP                                  : WELL LOCATION
DATE.   NOBLE CO, OH                             : WELL DATE
FLD.    No Project Selected                      : Project NAME
~CURVE INFORMATION
#================================================
Depth   .FT                  :Depth
GR      .GAPI                :GR
RHOB    .G/CC                :RHOB
DT      .US/F                :DT
NPHI    .V/V                 :Neutron porosity units
CAL     .IN                  :CAL
NAPI    .API                 :Neutron API units
~PARAMETER INFORMATION
#================================================
EKB     .ft         1035.00000   : KB Elevation
LONG    .degW         81.34713   : LONG
LAT     .degN         39.61085   : LAT
~OTHER INFORMATION
#================================================
~A
# ...
    1539.50000     117.59999    -999.00000      76.20000       0.21628      15.01000     720.00000
    1540.00000     106.19998    -999.00000      75.70000       0.19351      15.02000     752.00000
    1540.50000      94.99998    -999.00000      75.70000       0.16606      15.03000     796.00000
    1541.00000      83.79999    -999.00000      75.70000       0.14451      14.95000     836.00000
    1541.50000      72.39999    -999.00000      72.30000       0.12061      14.96000     888.00000
    1542.00000      61.19999    -999.00000      75.00000       0.15066      14.97000     824.00000
    1542.50000      74.99998    -999.00000      75.89999       0.18820      14.96000     760.00000
    1543.00000      88.99998    -999.00000      76.89999       0.23509      15.00000     696.00000
    1543.50000     102.79999    -999.00000      79.39999       0.29367      15.03000     632.00000
    1544.00000     116.79999    -999.00000      82.50000       0.29778      15.07000     628.00000
    1544.50000     130.59998    -999.00000      79.70000       0.28962      15.07000     636.00000
    1545.00000     132.19998    -999.00000      76.89999       0.26643      15.03000     660.00000
    1545.50000     131.39996    -999.00000      74.09999       0.24854      14.99000     680.00000
    1546.00000     130.59998    -999.00000      72.39999       0.21628      14.95000     720.00000
    1546.50000     128.99997    -999.00000      75.59999       0.26643      14.91000     660.00000
    1547.00000     131.39996    -999.00000      78.09999       0.32822      14.93000     600.00000
    1547.50000     132.99997    -999.00000      80.50000       0.37198      14.97000     564.00000
    1548.00000     133.79999    -999.00000      79.80000       0.34700      14.97000     584.00000
    1548.50000     138.39996    -999.00000      78.09999       0.32822      14.95000     600.00000
    1549.00000     141.59998    -999.00000      76.50000       0.27778      14.98000     648.00000
    1549.50000     144.79999    -999.00000      76.39999       0.23839      15.00000     692.00000
    1550.00000     149.19998    -999.00000      74.00000       0.23185      15.03000     700.00000
    1550.50000     144.99997    -999.00000      72.70000       0.22549      14.93000     708.00000
    1551.00000     140.59998    -999.00000      72.70000       0.22238      14.94000     712.00000
    1551.50000     136.39996    -999.00000      72.70000       0.25202      14.94000     676.00000
    1552.00000     139.19998    -999.00000      76.70000       0.28562      14.95000     640.00000
    1552.50000     139.59998    -999.00000      79.70000       0.32822      14.95000     600.00000
    1553.00000     131.19998    -999.00000      75.50000       0.28167      14.95000     644.00000
    1553.50000     122.99998    -999.00000      73.20000       0.24172      15.05000     688.00000
    1554.00000     114.59999    -999.00000      70.39999       0.21329      15.04000     724.00000
    1554.50000     106.39998    -999.00000      70.50000       0.21035      14.93000     728.00000
    1555.00000     111.19998    -999.00000      73.20000       0.23185      14.94000     700.00000
    1555.50000     113.99998    -999.00000      75.89999       0.25202      14.95000     676.00000
    1556.00000     119.59999    -999.00000      75.59999       0.25913      15.00000     668.00000
    1556.50000     120.39998    -999.00000      76.09999       0.26276      15.05000     664.00000
    1557.00000     121.19998    -999.00000      76.59999       0.26643      15.01000     660.00000
    1557.50000     119.99998    -999.00000      72.30000       0.26276      14.97000     664.00000
    1558.00000     118.79999    -999.00000      72.39999       0.25913      14.97000     668.00000
    1558.50000     121.19998    -999.00000      72.39999       0.25555      15.03000     672.00000
    1559.00000     123.39998    -999.00000      72.09999       0.26643      15.09000     660.00000
    1559.50000     125.59999    -999.00000      73.09999       0.27778      15.04000     648.00000
    1560.00000     126.39998    -999.00000      72.00000       0.28167      15.00000     644.00000
    1560.50000     123.99998    -999.00000      71.00000       0.28562      14.95000     640.00000
    1561.00000     121.39998    -999.00000      68.89999       0.25202      14.96000     676.00000
    1561.50000     118.99998    -999.00000      70.09999       0.24511      14.96000     684.00000
    1562.00000     120.39998    -999.00000      69.30000       0.24511      14.95000     684.00000
    1562.50000     121.79999    -999.00000      71.20000       0.24511      14.94000     684.00000
    1563.00000     124.59999    -999.00000      72.59999       0.27395      14.95000     652.00000
    1563.50000     127.19998    -999.00000      73.89999       0.30618      14.96000     620.00000
    1564.00000     129.79999    -999.00000      76.30000       0.34221      15.03000     588.00000
    1564.50000     132.59998    -999.00000      76.09999       0.38247      15.01000     556.00000
    1565.00000     129.39996    -999.00000      74.59999       0.39325      15.02000     548.00000
    1565.50000     122.99998    -999.00000      73.00000       0.38782      15.02000     552.00000
    1566.00000     116.39998    -999.00000      70.70000       0.38247      15.03000     556.00000
    1566.50000     109.99998    -999.00000      70.59999       0.33282      15.01000     596.00000
    1567.00000     107.59999    -999.00000      70.59999       0.31481      14.99000     612.00000
    1567.50000     109.59999    -999.00000      70.09999       0.30618      14.98000     620.00000
    1568.00000     110.99998    -999.00000      69.39999       0.25555      14.98000     672.00000
    1568.50000     108.99998    -999.00000      67.09999       0.21628      14.97000     720.00000
    1569.00000     106.99998    -999.00000      67.20000       0.19351      14.96000     752.00000
    1569.50000     104.99998    -999.00000      66.50000       0.19622      15.00000     748.00000
    1570.00000     107.99998    -999.00000      67.70000       0.21035      14.98000     728.00000
    1570.50000     111.39998    -999.00000      69.00000       0.22865      14.97000     704.00000
    1571.00000     114.39998    -999.00000      70.20000       0.24511      14.98000     684.00000
    1571.50000     117.39998    -999.00000      71.80000       0.25555      14.99000     672.00000
    1572.00000     123.19998    -999.00000      73.30000       0.26276      15.00000     664.00000
    1572.50000     121.39998    -999.00000      71.50000       0.27016      15.01000     656.00000
    1573.00000     119.79999    -999.00000      71.70000       0.25555      15.01000     672.00000
    1573.50000     119.59999    -999.00000      70.70000       0.21329      15.01000     724.00000
    1574.00000     119.39998    -999.00000      69.70000       0.20175      15.09000     740.00000
    1574.50000     120.59999    -999.00000      69.80000       0.18560      15.05000     764.00000
    1575.00000     121.59999    -999.00000      69.59999       0.16377      15.00000     800.00000
    1575.50000     125.59999    -999.00000      67.20000       0.14858      14.96000     828.00000
    1576.00000     129.19998    -999.00000      67.39999       0.15708      14.97000     812.00000
    1576.50000     120.59999    -999.00000      67.50000       0.16377      14.99000     800.00000
    1577.00000     112.19998    -999.00000      66.59999       0.13669      15.00000     852.00000
    1577.50000     103.59999    -999.00000      66.39999       0.11409      15.01000     904.00000
    1578.00000      95.19998    -999.00000      66.50000       0.09390      15.03000     960.00000
    1578.50000      86.59999    -999.00000      66.50000       0.07838      15.04000    1012.00000
    1579.00000      84.59999    -999.00000      68.00000       0.06542      14.98000    1064.00000
    1579.50000      82.39999    -999.00000      67.70000       0.08520      14.94000     988.00000
