~VERSION INFORMATION
 VERS.               2.10:   CWLS LOG ASCII STANDARD - VERSION 2.10
 WRAP.                 NO:   ONE LINE PER DEPTH STEP
~WELL INFORMATION
#MNEM.UNIT      DATA TYPE    INFORMATION
#----------   ------------   ------------------------------
 STRT.F        11000.5654:   START DEPTH
 STOP.F        20211.6523:   STOP DEPTH
 STEP.F            0.5000:   STEP LENGTH
 NULL.          -999.2500:   NO VALUE
 COMP. Exxon Company,  USA:   COMPANY
 WELL.    Gainer Et Al #1:   WELL
 FLD .            Wildcat:   FIELD
 LOC .                   :   LOCATION
 STAT.      West Virginia:   STATE
 COUN.            Calhoun:   COUNTY
 SRVC.       Schlumberger:   SERVICE COMPANY
 DATE.         03/02/1974:   LOGDATE
~CURVE INFORMATION
#MNEM.UNIT       API CODE    CURVE DESCRIPTION
#----------   ------------   ------------------------------
 DEPT.F                  :
 GR  .GAPI   60 310 00 00:   Gamma Ray
 RHOB.gm/cc  42 350 01 00:   Bulk Density
~PARAMETER INFORMATION
#MNEM.UNIT          VALUE    DESCRIPTION
#----------   ------------   ------------------------------
 EKB .F         1230.0000:   Kelly bushing
 EGL .F         1203.0000:   Ground level
 EDF .F         1228.0000:   Drilling floor
 EPD .F         1203.0000:   Permanent datum
 TD  .F            0.0000:   Total depth
 NRUN.             4.0000:   Number of Runs
#--RUN 1---   ------------   The following are for Run 1---
 RUN .             1.0000:   Run 1
#--RUN 2---   ------------   The following are for Run 2---
 RUN .             2.0000:   Run 2
 DATE.mm/dd/yyyy 03/02/1974:   Date Logged
 DD  .ft            16978:   Depth Driller
 DL  .ft            16962:   Depth Logger
 BLI .ft            16961:   Bottom Log Interval
 TLI .ft            14004:   Top Log Interval
 CSS .inch        13  5/8:   Casing Size
 CTD1.ft            11096:   Casing Driller 1
 CTL1.ft            11094:   Casing Logger 1
 BS  .inch        12  1/4:   Bit Size
 DFT .        lingnosulf.:   Type Fluid In Hole
 DFV .sec              39:   Viscosity
 DFPH.               11.2:   pH
 DFL .mL               22:   Fluid Loss
 WSS .         circulated:   Source Of Sample
 RM  .ohmm           0.55:   Rm
 EMT .F                66:   Rm Meas. Temp.
 RMF .ohmm           0.29:   Rmf
 MFT .F                66:   Rmf Meas. Temp.
 RMC .ohmm           0.87:   Rmc
 MCST.F                66:   Rmc Meas. Temp.
 MFSS.                  M:   Source Rmf.
 MCSS.                  M:   Source Rmc.
 RMB .ohmm           0.17:   Rm. At BHT
 BHT .F               219:   BHT.
 MRT .F               219:   Maximum Recorded Temp.
 ENGI.             Bening:   Recorded By
 WITN.           McCormic:   Witnessed By
 DGBY.   Rutledge & McCoy:   Digitized By
#--RUN 3---   ------------   The following are for Run 3---
 RUN .             3.0000:   Run 3
 DATE.mm/dd/yyyy 03/04/1974:   Date Logged
 DD  .ft            19913:   Depth Driller
 DL  .ft            19393:   Depth Logger
 BLI .ft            19392:   Bottom Log Interval
 TLI .ft            16961:   Top Log Interval
 CSS .inch        10  3/4:   Casing Size
 CTD1.ft            16975:   Casing Driller 1
 CTL1.ft            16954:   Casing Logger 1
 BS  .inch         8  3/4:   Bit Size
 DFT .        lingnosulf.:   Type Fluid In Hole
 DFV .sec              49:   Viscosity
 DFPH.               10.8:   pH
 DFL .mL              5.8:   Fluid Loss
 WSS .         circulated:   Source Of Sample
 RM  .ohmm           0.69:   Rm
 EMT .F                72:   Rm Meas. Temp.
 RMF .ohmm           0.32:   Rmf
 MFT .F                80:   Rmf Meas. Temp.
 RMC .ohmm           1.09:   Rmc
 MCST.F                80:   Rmc Meas. Temp.
 MFSS.                  m:   Source Rmf.
 MCSS.                  m:   Source Rmc.
 RMB .ohmm           0.18:   Rm. At BHT
 BHT .F               262:   BHT.
 MRT .F               262:   Maximum Recorded Temp.
 ENGI.             Cannan:   Recorded By
 WITN.           McCormic:   Witnessed By
 DGBY.   Rutledge & McCoy:   Digitized By
#--RUN 4---   ------------   The following are for Run 4---
 RUN .             4.0000:   Run 4
 DATE.mm/dd/yyyy 05/14/1974:   Date Logged
 DD  .ft            20222:   Depth Driller
 DL  .ft            20194:   Depth Logger
 BLI .ft            20192:   Bottom Log Interval
 TLI .ft            19392:   Top Log Interval
 CSS .inch         10 3/4:   Casing Size
 CTD1.ft            16975:   Casing Driller 1
 CTL1.ft            16954:   Casing Logger 1
 BS  .inch         8  3/4:   Bit Size
 DFT .            aquagel:   Type Fluid In Hole
 DFV .sec              43:   Viscosity
 DFPH.               10.0:   pH
 DFL .mL              6.0:   Fluid Loss
 WSS .         circulated:   Source Of Sample
 RM  .ohmm           0.69:   Rm
 EMT .F                75:   Rm Meas. Temp.
 RMF .ohmm           0.30:   Rmf
 MFT .F                70:   Rmf Meas. Temp.
 RMC .ohmm           0.70:   Rmc
 MCST.F                70:   Rmc Meas. Temp.
 MFSS.                  m:   Source Rmf.
 MCSS.                  m:   Source Rmc.
 RMB .ohmm           0.19:   Rm. At BHT
 BHT .F               272:   BHT.
 MRT .F               272:   Maximum Recorded Temp.
 ENGI.             Cannan:   Recorded By
 WITN.            Garrett:   Witnessed By
 DGBY.   Rutledge & McCoy:   Digitized By
~OTHER INFORMATION
# Run 3 - at 16950 there is a scale change from 8-18 to 6-16.
# Run 4 - at 19390
~A  DEPTH       GR       RHOB
# ...
15860.5650    70.9500     2.7487
15861.0650    73.5157     2.7402
15861.5650    75.6185     2.7494
15862.0650    77.5309     2.7440
15862.5650    76.5883     2.7171
15863.0650    74.5244     2.7232
15863.5650    73.1550     2.7263
15864.0650    72.2437     2.7124
15864.5650    71.3421     2.7270
15865.0650    70.6671     2.7324
15865.5650    69.9922     2.7455
15866.0650    69.5379     2.7632
15866.5650    68.3364     2.7562
15867.0650    66.1203     2.7463
15867.5650    65.2138     2.7415
15868.0650    64.9970     2.7282
15868.5650    65.0213     2.7386
15869.0650    65.2723     2.7444
15869.5650    65.5232     2.7509
15870.0650    64.1521     2.7690
15870.5650    62.6372     2.7873
15871.0650    57.7162     2.7994
15871.5650    55.1894     2.7978
15872.0650    53.8199     2.8009
15872.5650    53.1401     2.7901
15873.0650    52.6966     2.8124
15873.5650    52.9524     2.8209
15874.0650    54.3608     2.8186
15874.5650    54.8437     2.8070
15875.0650    54.8676     2.7889
15875.5650    53.4982     2.7798
15876.0650    52.3603     2.7847
15876.5650    52.1434     2.7793
15877.0650    53.0937     2.7700
15877.5650    55.2601     2.7946
15878.0650    58.4407     2.8000
15878.5650    61.6213     2.8293
15879.0650    64.8018     2.8216
15879.5650    67.9824     2.7854
15880.0650    69.6473     2.7830
15880.5650    67.1254     2.7714
15881.0650    66.4455     2.7584
15881.5650    65.4330     2.7360
15882.0650    62.4781     2.7630
15882.5650    59.5231     2.7776
15883.0650    56.5682     2.7861
15883.5650    53.6133     2.7784
15884.0650    50.6583     2.7799
15884.5650    47.7034     2.7945
15885.0650    44.7484     2.8039
15885.5650    42.3185     2.8199
15886.0650    42.3429     2.8276
15886.5650    40.0475     2.8469
15887.0650    39.0155     2.8433
15887.5650    38.6976     2.8287
15888.0650    39.8794     2.8307
15888.5650    40.5933     2.8261
15889.0650    41.3072     2.8061
15889.5650    43.4100     2.8006
15890.0650    44.5869     2.8230
15890.5650    44.8379     2.8137
15891.0650    44.8686     2.8160
15891.5650    46.0726     2.8314
15892.0650    47.2160     2.8252
15892.5650    46.7725     2.8129
15893.0650    45.6297     2.8083
15893.5650    47.6665     2.8237
15894.0650    50.8309     2.8252
15894.5650    53.9953     2.8248
15895.0650    57.1598     2.7967
15895.5650    60.3242     2.7705
15896.0650    63.8102     2.7897
15896.5650    65.2186     2.7892
15897.0650    65.9277     2.7759
15897.5650    65.4441     2.7469
15898.0650    66.9125     2.7273
15898.5650    67.1484     2.7272
15899.0650    65.3209     2.7481
15899.5650    63.0255     2.7727
15900.0650    60.7302     2.7789
15900.5650    58.4349     2.7959
15901.0650    55.9080     2.8220
15901.5650    55.9275     2.8089
15902.0650    56.4100     2.8029
15902.5650    58.6401     2.7874
15903.0650    62.0093     2.7719
15903.5650    62.4917     2.7696
15904.0650    60.6594     2.7804
15904.5650    54.6603     2.7349
15905.0650    52.5965     2.7426
15905.5650    49.6067     2.7578
15906.0650    48.0058     2.7788
15906.5650    46.4049     2.7966
15907.0650    46.8922     2.7926
15907.5650    48.0691     2.8066
15908.0650    48.0886     2.8034
15908.5650    48.1081     2.7957
15909.0650    48.8220     2.7795
15909.5650    51.1563     2.7790
15910.0650    53.9535     2.7880
15910.5650    55.6197     2.7970
15911.0650    57.4696     2.7900
15911.5650    59.5724     2.7659
15912.0650    61.9067     2.7393
15912.5650    63.7780     2.7322
15913.0650    64.9549     2.7414
15913.5650    67.7522     2.7608
15914.0650    72.6327     2.7654
15914.5650    73.3467     2.7854
15915.0650    65.3697     2.7692
15915.5650    63.2053     2.7376
15916.0650    62.5303     2.7230
15916.5650    60.6980     2.7115
15917.0650    59.5600     2.7177
15917.5650    58.8802     2.7277
15918.0650    59.8305     2.7477
15918.5650    61.2388     2.7570
15919.0650    62.4385     2.7539
15919.5650    63.1296     2.7493
15920.0650    61.0706     2.7578
15920.5650    60.3908     2.7740
15921.0650    61.5726     2.7848
15921.5650    63.2124     2.7848
15922.0650    65.0837     2.7825
15922.5650    67.1866     2.7681
15923.0650    68.3785     2.7540
15923.5650    70.0082     2.7432
15924.0650    74.4258     2.7301
15924.5650    76.5286     2.7363
15925.0650    77.0110     2.7309
15925.5650    75.8731     2.7433
15926.0650    74.2722     2.7421
15926.5650    71.9769     2.7186
15927.0650    69.2077     2.6994
15927.5650    67.3552     2.7017
15928.0650    65.7902     2.6971
15928.5650    65.1104     2.7160
15929.0650    66.7551     2.7370
15929.5650    67.4690     2.7495
15930.0650    68.1829     2.7527
15930.5650    68.8968     2.7788
15931.0650    69.1478     2.7759
15931.5650    67.7308     2.7554
15932.0650    65.2564     2.7588
15932.5650    63.6555     2.7658
15933.0650    57.7224     2.7581
15933.5650    48.9191     2.7511
15934.0650    45.6535     2.7529
15934.5650    46.2348     2.7757
15935.0650    46.8405     2.7984
15935.5650    48.7654     2.8236
15936.0650    57.7782     2.8051
15936.5650    59.8811     2.8090
15937.0650    60.3635     2.8090
15937.5650    59.6885     2.7909
15938.0650    57.8561     2.7651
15938.5650    56.9497     2.7775
15939.0650    54.6543     2.7898
15939.5650    52.8220     2.7775
15940.0650    53.8346     2.7737
15940.5650    56.3380     2.7814
15941.0650    56.8156     2.7737
15941.5650    56.3770     2.7675
15942.0650    53.3872     2.7903
15942.5650    52.2493     2.7976
15943.0650    51.5736     2.7953
15943.5650    50.8993     2.8092
15944.0650    50.4558     2.8038
15944.5650    50.7117     2.8195
15945.0650    52.3515     2.8377
15945.5650    51.2136     2.8235
15946.0650    49.8442     2.8013
15946.5650    51.0211     2.7800
15947.0650    52.7129     2.7900
15947.5650    54.0693     2.7769
15948.0650    54.5520     2.7839
15948.5650    54.5761     2.7954
15949.0650    54.8270     2.7939
15949.5650    52.7632     2.7978
15950.0650    49.4184     2.7847
15950.5650    43.0794     2.8067
15951.0650    39.6251     2.8363
15951.5650    38.0225     2.8433
15952.0650    32.4849     2.8317
15952.5650    28.1046     2.8348
15953.0650    26.7041     2.8209
15953.5650    25.3671     2.8193
15954.0650    24.4590     2.8289
15954.5650    22.3936     2.8402
15955.0650    21.7170     2.8410
15955.5650    21.2674     2.8557
15956.0650    21.0580     2.8480
15956.5650    21.3080     2.8411
15957.0650    21.5580     2.8326
15957.5650    21.6179     2.8357
15958.0650    22.5232     2.8324
15958.5650    23.2355     2.8226
15959.0650    23.0174     2.8457
15959.5650    23.0398     2.8473
15960.0650    23.0576     2.8396
15960.5650    22.6126     2.8404
15961.0650    23.0979     2.8566
15961.5650    23.3472     2.8527
15962.0650    23.8281     2.8574
15962.5650    24.7719     2.8713
15963.0650    25.9472     2.8886
15963.5650    27.3915     2.8811
15964.0650    30.8485     2.8582
15964.5650    32.4867     2.8226
15965.0650    32.7361     2.7980
15965.5650    31.5966     2.8172
15966.0650    27.2163     2.8351
15966.5650    21.9101     2.8319
15967.0650    20.5391     2.8375
15967.5650    20.7929     2.8405
15968.0650    21.0423     2.8421
15968.5650    22.2176     2.8706
15969.0650    23.8558     2.8652
15969.5650    26.6515     2.8591
15970.0650    28.7527     2.8338
15970.5650    30.4288     2.7954
15971.0650    31.8022     2.7882
15971.5650    31.1256     2.7998
15972.0650    27.6713     2.8052
15972.5650    23.2910     2.8183
15973.0650    21.9200     2.8307
15973.5650    21.0117     2.8168
15974.0650    20.7983     2.8323
15974.5650    20.1217     2.8322
15975.0650    20.1441     2.8384
15975.5650    20.7441     2.8361
15976.0650    21.5688     2.8384
15976.5650    22.2353     2.8477
15977.0650    23.4564     2.8423
15977.5650    24.6320     2.8323
15978.0650    24.6540     2.8238
15978.5650    24.9034     2.8362
15979.0650    25.6157     2.8400
15979.5650    26.7910     2.8270
15980.0650    29.3551     2.8524
15980.5650    30.7619     2.8509
15981.0650    31.4746     2.8555
15981.5650    32.1910     2.8424
