~VERSION INFORMATION
 VERS.               2.10:   CWLS LOG ASCII STANDARD - VERSION 2.10
 WRAP.                 NO:   ONE LINE PER DEPTH STEP
~WELL INFORMATION
#MNEM.UNIT      DATA TYPE    INFORMATION
#----------   ------------   ------------------------------
 STRT.F        11000.5654:   START DEPTH
 STOP.F        20211.6523:   STOP DEPTH
 STEP.F            0.5000:   STEP LENGTH
 NULL.          -999.2500:   NO VALUE
 COMP. Exxon Company,  USA:   COMPANY
 WELL.    Gainer Et Al #1:   WELL
 FLD .            Wildcat:   FIELD
 LOC .                   :   LOCATION
 STAT.      West Virginia:   STATE
 COUN.            Calhoun:   COUNTY
 SRVC.       Schlumberger:   SERVICE COMPANY
 DATE.         03/02/1974:   LOGDATE
~CURVE INFORMATION
#MNEM.UNIT       API CODE    CURVE DESCRIPTION
#----------   ------------   ------------------------------
 DEPT.F                  :
 GR  .GAPI   60 310 00 00:   Gamma Ray
 RHOB.gm/cc  42 350 01 00:   Bulk Density
~PARAMETER INFORMATION
#MNEM.UNIT          VALUE    DESCRIPTION
#----------   ------------   ------------------------------
 EKB .F         1230.0000:   Kelly bushing
 EGL .F         1203.0000:   Ground level
 EDF .F         1228.0000:   Drilling floor
 EPD .F         1203.0000:   Permanent datum
 TD  .F            0.0000:   Total depth
 NRUN.             4.0000:   Number of Runs
#--RUN 1---   ------------   The following are for Run 1---
 RUN .             1.0000:   Run 1
#--RUN 2---   ------------   The following are for Run 2---
 RUN .             2.0000:   Run 2
 DATE.mm/dd/yyyy 03/02/1974:   Date Logged
 DD  .ft            16978:   Depth Driller
 DL  .ft            16962:   Depth Logger
 BLI .ft            16961:   Bottom Log Interval
 TLI .ft            14004:   Top Log Interval
 CSS .inch        13  5/8:   Casing Size
 CTD1.ft            11096:   Casing Driller 1
 CTL1.ft            11094:   Casing Logger 1
 BS  .inch        12  1/4:   Bit Size
 DFT .        lingnosulf.:   Type Fluid In Hole
 DFV .sec              39:   Viscosity
 DFPH.               11.2:   pH
 DFL .mL               22:   Fluid Loss
 WSS .         circulated:   Source Of Sample
 RM  .ohmm           0.55:   Rm
 EMT .F                66:   Rm Meas. Temp.
 RMF .ohmm           0.29:   Rmf
 MFT .F                66:   Rmf Meas. Temp.
 RMC .ohmm           0.87:   Rmc
 MCST.F                66:   Rmc Meas. Temp.
 MFSS.                  M:   Source Rmf.
 MCSS.                  M:   Source Rmc.
 RMB .ohmm           0.17:   Rm. At BHT
 BHT .F               219:   BHT.
 MRT .F               219:   Maximum Recorded Temp.
 ENGI.             Bening:   Recorded By
 WITN.           McCormic:   Witnessed By
 DGBY.   Rutledge & McCoy:   Digitized By
#--RUN 3---   ------------   The following are for Run 3---
 RUN .             3.0000:   Run 3
 DATE.mm/dd/yyyy 03/04/1974:   Date Logged
 DD  .ft            19913:   Depth Driller
 DL  .ft            19393:   Depth Logger
 BLI .ft            19392:   Bottom Log Interval
 TLI .ft            16961:   Top Log Interval
 CSS .inch        10  3/4:   Casing Size
 CTD1.ft            16975:   Casing Driller 1
 CTL1.ft            16954:   Casing Logger 1
 BS  .inch         8  3/4:   Bit Size
 DFT .        lingnosulf.:   Type Fluid In Hole
 DFV .sec              49:   Viscosity
 DFPH.               10.8:   pH
 DFL .mL              5.8:   Fluid Loss
 WSS .         circulated:   Source Of Sample
 RM  .ohmm           0.69:   Rm
 EMT .F                72:   Rm Meas. Temp.
 RMF .ohmm           0.32:   Rmf
 MFT .F                80:   Rmf Meas. Temp.
 RMC .ohmm           1.09:   Rmc
 MCST.F                80:   Rmc Meas. Temp.
 MFSS.                  m:   Source Rmf.
 MCSS.                  m:   Source Rmc.
 RMB .ohmm           0.18:   Rm. At BHT
 BHT .F               262:   BHT.
 MRT .F               262:   Maximum Recorded Temp.
 ENGI.             Cannan:   Recorded By
 WITN.           McCormic:   Witnessed By
 DGBY.   Rutledge & McCoy:   Digitized By
#--RUN 4---   ------------   The following are for Run 4---
 RUN .             4.0000:   Run 4
 DATE.mm/dd/yyyy 05/14/1974:   Date Logged
 DD  .ft            20222:   Depth Driller
 DL  .ft            20194:   Depth Logger
 BLI .ft            20192:   Bottom Log Interval
 TLI .ft            19392:   Top Log Interval
 CSS .inch         10 3/4:   Casing Size
 CTD1.ft            16975:   Casing Driller 1
 CTL1.ft            16954:   Casing Logger 1
 BS  .inch         8  3/4:   Bit Size
 DFT .            aquagel:   Type Fluid In Hole
 DFV .sec              43:   Viscosity
 DFPH.               10.0:   pH
 DFL .mL              6.0:   Fluid Loss
 WSS .         circulated:   Source Of Sample
 RM  .ohmm           0.69:   Rm
 EMT .F                75:   Rm Meas. Temp.
 RMF .ohmm           0.30:   Rmf
 MFT .F                70:   Rmf Meas. Temp.
 RMC .ohmm           0.70:   Rmc
 MCST.F                70:   Rmc Meas. Temp.
 MFSS.                  m:   Source Rmf.
 MCSS.                  m:   Source Rmc.
 RMB .ohmm           0.19:   Rm. At BHT
 BHT .F               272:   BHT.
 MRT .F               272:   Maximum Recorded Temp.
 ENGI.             Cannan:   Recorded By
 WITN.            Garrett:   Witnessed By
 DGBY.   Rutledge & McCoy:   Digitized By
~OTHER INFORMATION
# Run 3 - at 16950 there is a scale change from 8-18 to 6-16.
# Run 4 - at 19390
~A  DEPTH       GR       RHOB
# ...
14645.5650    37.6883     2.7939
14646.0650    30.3767     2.8016
14646.5650    30.7089     2.8249
14647.0650    31.3183     2.8564
14647.5650    32.2743     2.8495
14648.0650    36.0624     2.8291
14648.5650    40.6643     2.8227
14649.0650    42.9638     2.8204
14649.5650    38.6333     2.7981
14650.0650    34.3775     2.7812
14650.5650    34.6168     2.7551
14651.0650    35.0877     2.7644
14651.5650    34.6326     2.7821
14652.0650    32.5571     2.7837
14652.5650    31.8703     2.7776
14653.0650    30.9525     2.7831
14653.5650    29.0847     2.8167
14654.0650    27.9609     2.8848
14654.5650    27.9688     2.8826
14655.0650    27.2822     2.8757
14655.5650    22.6605     2.8819
14656.0650    19.8906     2.8912
14656.5650    19.8985     2.8735
14657.0650    20.8323     2.8697
14657.5650    22.2402     2.8790
14658.0650    25.6110     2.8641
14658.5650    27.8023     2.8436
14659.0650    29.1991     2.8190
14659.5650    32.2162     2.8090
14660.0650    34.3074     2.8199
14660.5650    35.7042     2.8338
14661.0650    36.4065     2.8146
14661.5650    38.2662     2.8108
14662.0650    40.3908     2.7007
14662.5650    40.8283     2.6845
14663.0650    41.3011     2.6441
14663.5650    42.6978     2.6530
14664.0650    43.8631     2.6669
14664.5650    44.3320     2.6639
14665.0650    43.8769     2.6508
14665.5650    43.6552     2.6702
14666.0650    42.9687     2.6725
14666.5650    42.7450     2.6691
14667.0650    43.9123     2.6826
14667.5650    44.3831     2.6807
14668.0650    44.6225     2.6650
14668.5650    43.7044     2.6527
14669.0650    42.3234     2.6628
14669.5650    39.2448     2.6728
14670.0650    34.3146     2.6952
14670.5650    29.3845     2.7130
14671.0650    27.2720     2.7585
14671.5650    28.2444     2.8073
14672.0650    30.5671     2.8503
14672.5650    31.7324     2.8804
14673.0650    32.6662     2.8827
14673.5650    33.8315     2.8735
14674.0650    33.3764     2.8558
14674.5650    33.1527     2.8174
14675.0650    31.7534     2.8313
14675.5650    32.2445     2.8417
14676.0650    32.9469     2.8522
14676.5650    34.8066     2.8168
14677.0650    37.1293     2.8114
14677.5650    39.9149     2.7976
14678.0650    40.3838     2.7869
14678.5650    39.2115     2.7946
14679.0650    40.8681     2.8101
14679.5650    43.0446     2.8155
14680.0650    47.5951     2.8132
14680.5650    48.5270     2.8068
14681.0650    48.0739     2.8018
14681.5650    45.9984     2.8142
14682.0650    46.4692     2.8358
14682.5650    47.1716     2.8597
14683.0650    44.6331     2.8289
14683.5650    39.5321     2.8244
14684.0650    34.8270     2.8075
14684.5650    30.1219     2.7913
14685.0650    25.4168     2.7798
14685.5650    20.8319     2.7961
14686.0650    21.0712     2.8300
14686.5650    22.0050     2.8532
14687.0650    22.9388     2.8470
14687.5650    25.9560     2.8486
14688.0650    28.3010     2.8571
14688.5650    30.6033     2.8664
14689.0650    31.5371     2.8395
14689.5650    31.0801     2.8249
14690.0650    32.4788     2.8103
14690.5650    32.4867     2.7865
14691.0650    31.3371     2.8212
14691.5650    31.3223     2.8313
14692.0650    33.2084     2.8259
14692.5650    34.1388     2.8352
14693.0650    31.1391     2.8360
14693.5650    26.7488     2.8422
14694.0650    21.4326     2.8361
14694.5650    21.6720     2.8354
14695.0650    23.0687     2.8410
14695.5650    25.8544     2.8471
14696.0650    27.4827     2.8718
14696.5650    25.5207     2.8780
14697.0650    16.8522     2.8688
14697.5650    14.7768     2.8534
14698.0650    13.6272     2.8511
14698.5650    13.6351     2.8521
14699.0650    13.8745     2.8404
14699.5650    14.3453     2.8497
14700.0650    16.4384     2.8344
14700.5650    18.3000     2.8367
14701.0650    18.5412     2.8322
14701.5650    19.2453     2.8253
14702.0650    20.4125     2.8538
14702.5650    20.4539     2.8639
14703.0650    19.9689     2.8701
14703.5650    19.4880     2.8516
14704.0650    18.1365     2.8563
14704.5650    18.8431     2.8440
14705.0650    21.6306     2.8695
14705.5650    22.5662     2.8788
14706.0650    22.3420     2.8781
14706.5650    22.1224     2.8866
14707.0650    22.5954     2.8982
14707.5650    23.3369     2.8928
14708.0650    25.3950     2.8860
14708.5650    27.0251     2.8737
14709.0650    27.9607     2.8645
14709.5650    29.1279     2.8560
14710.0650    30.5265     2.8623
14710.5650    31.2306     2.8646
14711.0650    30.7277     2.8523
14711.5650    28.7062     2.8724
14712.0650    25.2437     2.8663
14712.5650    24.0960     2.8686
14713.0650    22.0224     2.8541
14713.5650    19.7173     2.8657
14714.0650    17.8751     2.8719
14714.5650    16.9589     2.8596
14715.0650    17.3721     2.8489
14715.5650    17.9067     2.8396
14716.0650    20.2313     2.8459
14716.5650    21.3984     2.8532
14717.0650    21.8711     2.8617
14717.5650    20.9548     2.8795
14718.0650    19.3442     2.8944
14718.5650    18.4280     2.8971
14719.0650    18.2062     2.8832
14719.5650    18.4498     2.9009
14720.0650    19.1540     2.9094
14720.5650    19.6242     2.8924
14721.0650    18.7104     2.8762
14721.5650    16.8683     2.8732
14722.0650    15.2577     2.8631
14722.5650    14.3351     2.8523
14723.0650    13.4277     2.8762
14723.5650    12.5115     2.8978
14724.0650    11.8267     2.8823
14724.5650    12.2994     2.8638
14725.0650    12.3091     2.8615
14725.5650    12.3188     2.8727
14726.0650    12.3286     2.8777
14726.5650    12.8461     2.8696
14727.0650    13.9708     2.8776
14727.5650    14.9064     2.8900
14728.0650    16.3050     2.8861
14728.5650    17.2407     2.8953
14729.0650    18.4078     2.9069
14729.5650    19.5749     2.8668
14730.0650    20.9735     2.8645
14730.5650    21.7097     2.8671
14731.0650    22.6594     2.8799
14731.5650    26.9696     2.8845
14732.0650    31.2798     2.8475
14732.5650    35.6071     2.8228
14733.0650    31.7700     2.7989
14733.5650    27.5262     2.7758
14734.0650    26.6100     2.7558
14734.5650    24.9994     2.7455
14735.0650    24.5461     2.7255
14735.5650    24.0929     2.7367
14736.0650    23.8711     2.7699
14736.5650    24.1147     2.8030
14737.0650    24.3559     2.8227
14737.5650    24.5971     2.8024
14738.0650    25.5328     2.7849
14738.5650    26.6999     2.7765
14739.0650    27.6392     2.7803
14739.5650    29.5981     2.7834
14740.0650    30.8981     2.7741
14740.5650    31.6023     2.7641
14741.0650    29.9916     2.7933
14741.5650    30.4643     2.8003
14742.0650    31.6314     2.8053
14742.5650    32.1209     2.8203
14743.0650    30.9049     2.8595
14743.5650    27.7278     2.8973
14744.0650    26.8116     2.9011
14744.5650    26.8213     2.8863
14745.0650    27.0625     2.8703
14745.5650    26.8408     2.8657
14746.0650    25.6931     2.8549
14746.5650    24.3139     2.8656
14747.0650    23.8607     2.8595
14747.5650    24.1043     2.8479
14748.0650    24.8084     2.8386
14748.5650    25.5126     2.8807
14749.0650    25.2908     2.9126
14749.5650    24.1431     2.8933
14750.0650    24.1528     2.8933
14750.5650    24.3941     2.8709
14751.0650    25.3617     2.8594
14751.5650    26.0339     2.8788
14752.0650    23.9627     2.8871
14752.5650    23.9724     2.8686
14753.0650    24.2136     2.8447
14753.5650    24.2233     2.8555
14754.0650    22.8441     2.8763
14754.5650    22.1594     2.8516
14755.0650    20.8947     2.8504
14755.5650    18.9405     2.8546
14756.0650    18.7163     2.8549
14756.5650    19.6544     2.8623
14757.0650    21.0530     2.8538
14757.5650    22.8319     2.8446
14758.0650    24.7535     2.8469
14758.5650    26.6751     2.8446
14759.0650    29.4276     2.8453
14759.5650    28.5114     2.8445
14760.0650    28.0581     2.8438
14760.5650    27.3734     2.8499
14761.0650    24.3739     2.8599
14761.5650    22.7632     2.8530
14762.0650    22.1952     2.8568
14762.5650    22.0882     2.8807
14763.0650    21.6350     2.8730
14763.5650    20.9526     2.8721
14764.0650    19.5735     2.8691
14764.5650    17.4999     2.8810
14765.0650    16.3522     2.8968
14765.5650    15.6674     2.8914
14766.0650    15.4457     2.8667
14766.5650    15.4558     2.9045
