~VERSION INFORMATION
 VERS.               2.10:   CWLS LOG ASCII STANDARD - VERSION 2.10
 WRAP.                 NO:   ONE LINE PER DEPTH STEP
~WELL INFORMATION
#MNEM.UNIT      DATA TYPE    INFORMATION
#----------   ------------   ------------------------------
 STRT.F        11000.5654:   START DEPTH
 STOP.F        20211.6523:   STOP DEPTH
 STEP.F            0.5000:   STEP LENGTH
 NULL.          -999.2500:   NO VALUE
 COMP. Exxon Company,  USA:   COMPANY
 WELL.    Gainer Et Al #1:   WELL
 FLD .            Wildcat:   FIELD
 LOC .                   :   LOCATION
 STAT.      West Virginia:   STATE
 COUN.            Calhoun:   COUNTY
 SRVC.       Schlumberger:   SERVICE COMPANY
 DATE.         03/02/1974:   LOGDATE
~CURVE INFORMATION
#MNEM.UNIT       API CODE    CURVE DESCRIPTION
#----------   ------------   ------------------------------
 DEPT.F                  :
 GR  .GAPI   60 310 00 00:   Gamma Ray
 RHOB.gm/cc  42 350 01 00:   Bulk Density
~PARAMETER INFORMATION
#MNEM.UNIT          VALUE    DESCRIPTION
#----------   ------------   ------------------------------
 EKB .F         1230.0000:   Kelly bushing
 EGL .F         1203.0000:   Ground level
 EDF .F         1228.0000:   Drilling floor
 EPD .F         1203.0000:   Permanent datum
 TD  .F            0.0000:   Total depth
 NRUN.             4.0000:   Number of Runs
#--RUN 1---   ------------   The following are for Run 1---
 RUN .             1.0000:   Run 1
#--RUN 2---   ------------   The following are for Run 2---
 RUN .             2.0000:   Run 2
 DATE.mm/dd/yyyy 03/02/1974:   Date Logged
 DD  .ft            16978:   Depth Driller
 DL  .ft            16962:   Depth Logger
 BLI .ft            16961:   Bottom Log Interval
 TLI .ft            14004:   Top Log Interval
 CSS .inch        13  5/8:   Casing Size
 CTD1.ft            11096:   Casing Driller 1
 CTL1.ft            11094:   Casing Logger 1
 BS  .inch        12  1/4:   Bit Size
 DFT .        lingnosulf.:   Type Fluid In Hole
 DFV .sec              39:   Viscosity
 DFPH.               11.2:   pH
 DFL .mL               22:   Fluid Loss
 WSS .         circulated:   Source Of Sample
 RM  .ohmm           0.55:   Rm
 EMT .F                66:   Rm Meas. Temp.
 RMF .ohmm           0.29:   Rmf
 MFT .F                66:   Rmf Meas. Temp.
 RMC .ohmm           0.87:   Rmc
 MCST.F                66:   Rmc Meas. Temp.
 MFSS.                  M:   Source Rmf.
 MCSS.                  M:   Source Rmc.
 RMB .ohmm           0.17:   Rm. At BHT
 BHT .F               219:   BHT.
 MRT .F               219:   Maximum Recorded Temp.
 ENGI.             Bening:   Recorded By
 WITN.           McCormic:   Witnessed By
 DGBY.   Rutledge & McCoy:   Digitized By
#--RUN 3---   ------------   The following are for Run 3---
 RUN .             3.0000:   Run 3
 DATE.mm/dd/yyyy 03/04/1974:   Date Logged
 DD  .ft            19913:   Depth Driller
 DL  .ft            19393:   Depth Logger
 BLI .ft            19392:   Bottom Log Interval
 TLI .ft            16961:   Top Log Interval
 CSS .inch        10  3/4:   Casing Size
 CTD1.ft            16975:   Casing Driller 1
 CTL1.ft            16954:   Casing Logger 1
 BS  .inch         8  3/4:   Bit Size
 DFT .        lingnosulf.:   Type Fluid In Hole
 DFV .sec              49:   Viscosity
 DFPH.               10.8:   pH
 DFL .mL              5.8:   Fluid Loss
 WSS .         circulated:   Source Of Sample
 RM  .ohmm           0.69:   Rm
 EMT .F                72:   Rm Meas. Temp.
 RMF .ohmm           0.32:   Rmf
 MFT .F                80:   Rmf Meas. Temp.
 RMC .ohmm           1.09:   Rmc
 MCST.F                80:   Rmc Meas. Temp.
 MFSS.                  m:   Source Rmf.
 MCSS.                  m:   Source Rmc.
 RMB .ohmm           0.18:   Rm. At BHT
 BHT .F               262:   BHT.
 MRT .F               262:   Maximum Recorded Temp.
 ENGI.             Cannan:   Recorded By
 WITN.           McCormic:   Witnessed By
 DGBY.   Rutledge & McCoy:   Digitized By
#--RUN 4---   ------------   The following are for Run 4---
 RUN .             4.0000:   Run 4
 DATE.mm/dd/yyyy 05/14/1974:   Date Logged
 DD  .ft            20222:   Depth Driller
 DL  .ft            20194:   Depth Logger
 BLI .ft            20192:   Bottom Log Interval
 TLI .ft            19392:   Top Log Interval
 CSS .inch         10 3/4:   Casing Size
 CTD1.ft            16975:   Casing Driller 1
 CTL1.ft            16954:   Casing Logger 1
 BS  .inch         8  3/4:   Bit Size
 DFT .            aquagel:   Type Fluid In Hole
 DFV .sec              43:   Viscosity
 DFPH.               10.0:   pH
 DFL .mL              6.0:   Fluid Loss
 WSS .         circulated:   Source Of Sample
 RM  .ohmm           0.69:   Rm
 EMT .F                75:   Rm Meas. Temp.
 RMF .ohmm           0.30:   Rmf
 MFT .F                70:   Rmf Meas. Temp.
 RMC .ohmm           0.70:   Rmc
 MCST.F                70:   Rmc Meas. Temp.
 MFSS.                  m:   Source Rmf.
 MCSS.                  m:   Source Rmc.
 RMB .ohmm           0.19:   Rm. At BHT
 BHT .F               272:   BHT.
 MRT .F               272:   Maximum Recorded Temp.
 ENGI.             Cannan:   Recorded By
 WITN.            Garrett:   Witnessed By
 DGBY.   Rutledge & McCoy:   Digitized By
~OTHER INFORMATION
# Run 3 - at 16950 there is a scale change from 8-18 to 6-16.
# Run 4 - at 19390
~A  DEPTH       GR       RHOB
# ...
17683.0640    37.7826     2.6846
17683.5640    34.6735     2.6854
17684.0640    36.7168     2.6863
17684.5640    40.1481     2.6863
17685.0640    43.5795     2.6801
17685.5640    47.0108     2.6696
17686.0640    50.4422     2.6643
17686.5640    52.3073     2.6705
17687.0640    52.0725     2.6806
17687.5640    52.0700     2.6829
17688.0640    47.1635     2.6869
17688.5640    46.9571     2.6940
17689.0640    46.9548     2.6852
17689.5640    46.8266     2.6817
17690.0640    41.6092     2.6849
17690.5640    43.2323     2.6864
17691.0640    44.1588     2.6857
17691.5640    42.7634     2.6866
17692.0640    41.3679     2.6990
17692.5640    41.5979     2.6921
17693.0640    39.9702     2.6962
17693.5640    40.2001     2.7000
17694.0640    39.9400     2.6970
17694.5640    39.0345     2.6809
17695.0640    39.9606     2.6786
17695.5640    38.5651     2.6810
17696.0640    38.7956     2.6665
17696.5640    38.0967     2.6689
17697.0640    37.3973     2.6592
17697.5640    38.3238     2.6659
17698.0640    38.8272     2.6837
17698.5640    41.5365     2.6807
17699.0640    44.2459     2.6769
17699.5640    46.9552     2.6808
17700.0640    49.6646     2.6940
17700.5640    52.3739     2.6972
17701.0640    55.2581     2.6834
17701.5640    56.4168     2.6811
17702.0640    57.3433     2.6728
17702.5640    56.4013     2.6613
17703.0640    54.5247     2.6604
17703.5640    55.4789     2.6679
17704.0640    54.3151     2.6754
17704.5640    53.8490     2.6829
17705.0640    55.0072     2.6851
17705.5640    55.2377     2.6714
17706.0640    54.5382     2.6363
17706.5640    51.9818     2.6393
17707.0640    49.7683     2.6447
17707.5640    46.6468     2.6378
17708.0640    43.5253     2.6717
17708.5640    40.4038     2.6827
17709.0640    37.2823     2.6901
17709.5640    36.6429     2.6863
17710.0640    37.5694     2.6963
17710.5640    35.9412     2.7055
17711.0640    35.4746     2.7225
17711.5640    36.6338     2.7250
17712.0640    35.4700     2.7163
17712.5640    35.9321     2.7162
17713.0640    38.3464     2.7094
17713.5640    41.0049     2.7132
17714.0640    43.6634     2.7356
17714.5640    46.3218     2.7333
17715.0640    48.9803     2.7132
17715.5640    51.6388     2.7063
17716.0640    54.2973     2.6797
17716.5640    56.9557     2.6594
17717.0640    58.0127     2.6563
17717.5640    56.1129     2.6655
17718.0640    53.0195     2.6817
17718.5640    49.9262     2.6909
17719.0640    54.2454     2.6978
17719.5640    57.7261     2.6847
17720.0640    59.1170     2.6688
17720.5640    60.1894     2.6524
17721.0640    61.4345     2.6447
17721.5640    61.6649     2.6570
17722.0640    58.5345     2.6686
17722.5640    55.8586     2.6609
17723.0640    50.2795     2.6786
17723.5640    50.0450     2.6761
17724.0640    50.2755     2.6632
17724.5640    50.2727     2.6532
17725.0640    50.0388     2.6409
17725.5640    51.9450     2.6578
17726.0640    53.5745     2.6440
17726.5640    55.2039     2.6370
17727.0640    56.5311     2.6470
17727.5640    52.2509     2.6745
17728.0640    49.1909     2.6848
17728.5640    46.1309     2.6786
17729.0640    43.0710     2.6724
17729.5640    42.9774     2.6617
17730.0640    46.3268     2.6586
17730.5640    51.1735     2.6624
17731.0640    50.2425     2.6779
17731.5640    51.8656     2.6863
17732.0640    51.3989     2.6655
17732.5640    52.5576     2.6794
17733.0640    52.0910     2.6855
17733.5640    50.1654     2.6871
17734.0640    46.9537     2.6740
17734.5640    46.7430     2.6763
17735.0640    46.5086     2.6794
17735.5640    46.5063     2.6932
17736.0640    45.8075     2.6948
17736.5640    43.4832     2.6917
17737.0640    43.2487     2.6848
17737.5640    41.3889     2.6732
17738.0640    42.5476     2.6833
17738.5640    41.1522     2.6786
17739.0640    41.3988     2.6717
17739.5640    41.3797     2.6801
17740.0640    42.5380     2.6848
17740.5640    43.6967     2.6948
17741.0640    42.3013     2.7025
17741.5640    43.2283     2.7055
17742.0640    42.7611     2.7132
17742.5640    43.2232     2.7209
17743.0640    44.2200     2.7094
17743.5640    44.8441     2.7071
17744.0640    45.3062     2.7094
17744.5640    44.8395     2.7040
17745.0640    45.5339     2.7009
17745.5640    43.9076     2.6871
17746.0640    42.3685     2.6794
17746.5640    40.8293     2.6871
17747.0640    39.0225     2.6817
17747.5640    40.6474     2.6840
17748.0640    43.0334     2.6917
17748.5640    45.4194     2.6994
17749.0640    47.6052     2.6786
17749.5640    46.9057     2.6517
17750.0640    46.6718     2.6355
17750.5640    47.1340     2.6427
17751.0640    41.3262     2.6486
17751.5640    41.7735     2.6578
17752.0640    42.7601     2.6678
17752.5640    43.1771     2.6755
17753.0640    42.2455     2.6763
17753.5640    42.0116     2.6755
17754.0640    41.3122     2.6755
17754.5640    42.4715     2.6586
17755.0640    42.9719     2.6671
17755.5640    44.0918     2.6601
17756.0640    44.5539     2.6740
17756.5640    44.5796     2.6940
17757.0640    45.0138     2.7125
17757.5640    45.4759     2.6994
17758.0640    44.7770     2.6732
17758.5640    46.4001     2.6486
17759.0640    48.4871     2.6547
17759.5640    48.7176     2.6594
17760.0640    47.3216     2.6409
17760.5640    48.9447     2.6201
17761.0640    50.1034     2.6493
17761.5640    49.4045     2.6634
17762.0640    47.4450     2.6747
17762.5640    44.2073     2.6871
17763.0640    40.9696     2.6963
17763.5640    37.3206     2.7055
17764.0640    39.6117     2.6978
17764.5640    42.2362     2.7002
17765.0640    44.8606     2.7040
17765.5640    47.4850     2.7094
17766.0640    50.1095     2.6978
17766.5640    52.7339     2.6963
17767.0640    55.3584     2.6978
17767.5640    56.3629     2.6901
17768.0640    54.7112     2.6724
17768.5640    55.6414     2.6694
17769.0640    55.8713     2.6717
17769.5640    52.8499     2.6724
17770.0640    51.4545     2.6686
17770.5640    51.2200     2.6894
17771.0640    52.3787     2.6940
17771.5640    52.8414     2.6871
17772.0640    49.3556     2.6755
17772.5640    48.1924     2.6817
17773.0640    48.1881     2.6806
17773.5640    49.8636     2.6532
17774.0640    52.2114     2.6555
17774.5640    51.8979     2.6532
17775.0640    52.8244     2.6378
17775.5640    53.7509     2.6470
17776.0640    54.6775     2.6747
17776.5640    53.1384     2.6700
17777.0640    50.7726     2.6553
17777.5640    48.4069     2.6440
17778.0640    46.0411     2.6509
17778.5640    43.6753     2.6871
17779.0640    42.5899     2.6963
17779.5640    44.6850     2.7063
17780.0640    46.4350     2.7102
17780.5640    48.1849     2.7294
17781.0640    49.9349     2.7248
17781.5640    51.6848     2.6994
17782.0640    53.4348     2.6886
17782.5640    55.1847     2.6817
17783.0640    56.9347     2.6717
17783.5640    58.6847     2.6755
17784.0640    60.6774     2.6786
17784.5640    59.7600     2.6646
17785.0640    58.0846     2.6624
17785.5640    56.4092     2.6678
17786.0640    54.7338     2.6686
17786.5640    53.0584     2.6671
17787.0640    51.3831     2.6632
17787.5640    49.7077     2.6640
17788.0640    48.1206     2.6679
17788.5640    49.9863     2.6663
17789.0640    51.6484     2.6478
17789.5640    51.1893     2.6409
17790.0640    49.3812     2.6594
17790.5640    47.5732     2.6732
17791.0640    45.7652     2.6724
17791.5640    43.9571     2.6663
17792.0640    42.1491     2.6858
17792.5640    40.3411     2.7002
17793.0640    38.5331     2.6955
17793.5640    39.4540     2.6863
17794.0640    41.9194     2.6786
17794.5640    44.3847     2.6732
17795.0640    46.8500     2.6678
17795.5640    47.3894     2.6640
17796.0640    47.6188     2.6790
17796.5640    48.5453     2.6917
17797.0640    48.5430     2.7040
17797.5640    46.6574     2.6994
17798.0640    46.2165     2.6917
17798.5640    47.1430     2.6871
17799.0640    45.2014     2.6786
17799.5640    42.8411     2.6732
17800.0640    40.4808     2.6848
17800.5640    38.1205     2.6909
17801.0640    35.9860     2.6863
17801.5640    38.1781     2.6824
17802.0640    39.6590     2.6817
17802.5640    41.1399     2.6886
17803.0640    42.6208     2.6932
17803.5640    41.3440     2.6972
17804.0640    39.3037     2.7002
