~VERSION INFORMATION
 VERS.               2.10:   CWLS LOG ASCII STANDARD - VERSION 2.10
 WRAP.                 NO:   ONE LINE PER DEPTH STEP
~WELL INFORMATION
#MNEM.UNIT      DATA TYPE    INFORMATION
#----------   ------------   ------------------------------
 STRT.F        11000.5654:   START DEPTH
 STOP.F        20211.6523:   STOP DEPTH
 STEP.F            0.5000:   STEP LENGTH
 NULL.          -999.2500:   NO VALUE
 COMP. Exxon Company,  USA:   COMPANY
 WELL.    Gainer Et Al #1:   WELL
 FLD .            Wildcat:   FIELD
 LOC .                   :   LOCATION
 STAT.      West Virginia:   STATE
 COUN.            Calhoun:   COUNTY
 SRVC.       Schlumberger:   SERVICE COMPANY
 DATE.         03/02/1974:   LOGDATE
~CURVE INFORMATION
#MNEM.UNIT       API CODE    CURVE DESCRIPTION
#----------   ------------   ------------------------------
 DEPT.F                  :
 GR  .GAPI   60 310 00 00:   Gamma Ray
 RHOB.gm/cc  42 350 01 00:   Bulk Density
~PARAMETER INFORMATION
#MNEM.UNIT          VALUE    DESCRIPTION
#----------   ------------   ------------------------------
 EKB .F         1230.0000:   Kelly bushing
 EGL .F         1203.0000:   Ground level
 EDF .F         1228.0000:   Drilling floor
 EPD .F         1203.0000:   Permanent datum
 TD  .F            0.0000:   Total depth
 NRUN.             4.0000:   Number of Runs
#--RUN 1---   ------------   The following are for Run 1---
 RUN .             1.0000:   Run 1
#--RUN 2---   ------------   The following are for Run 2---
 RUN .             2.0000:   Run 2
 DATE.mm/dd/yyyy 03/02/1974:   Date Logged
 DD  .ft            16978:   Depth Driller
 DL  .ft            16962:   Depth Logger
 BLI .ft            16961:   Bottom Log Interval
 TLI .ft            14004:   Top Log Interval
 CSS .inch        13  5/8:   Casing Size
 CTD1.ft            11096:   Casing Driller 1
 CTL1.ft            11094:   Casing Logger 1
 BS  .inch        12  1/4:   Bit Size
 DFT .        lingnosulf.:   Type Fluid In Hole
 DFV .sec              39:   Viscosity
 DFPH.               11.2:   pH
 DFL .mL               22:   Fluid Loss
 WSS .         circulated:   Source Of Sample
 RM  .ohmm           0.55:   Rm
 EMT .F                66:   Rm Meas. Temp.
 RMF .ohmm           0.29:   Rmf
 MFT .F                66:   Rmf Meas. Temp.
 RMC .ohmm           0.87:   Rmc
 MCST.F                66:   Rmc Meas. Temp.
 MFSS.                  M:   Source Rmf.
 MCSS.                  M:   Source Rmc.
 RMB .ohmm           0.17:   Rm. At BHT
 BHT .F               219:   BHT.
 MRT .F               219:   Maximum Recorded Temp.
 ENGI.             Bening:   Recorded By
 WITN.           McCormic:   Witnessed By
 DGBY.   Rutledge & McCoy:   Digitized By
#--RUN 3---   ------------   The following are for Run 3---
 RUN .             3.0000:   Run 3
 DATE.mm/dd/yyyy 03/04/1974:   Date Logged
 DD  .ft            19913:   Depth Driller
 DL  .ft            19393:   Depth Logger
 BLI .ft            19392:   Bottom Log Interval
 TLI .ft            16961:   Top Log Interval
 CSS .inch        10  3/4:   Casing Size
 CTD1.ft            16975:   Casing Driller 1
 CTL1.ft            16954:   Casing Logger 1
 BS  .inch         8  3/4:   Bit Size
 DFT .        lingnosulf.:   Type Fluid In Hole
 DFV .sec              49:   Viscosity
 DFPH.               10.8:   pH
 DFL .mL              5.8:   Fluid Loss
 WSS .         circulated:   Source Of Sample
 RM  .ohmm           0.69:   Rm
 EMT .F                72:   Rm Meas. Temp.
 RMF .ohmm           0.32:   Rmf
 MFT .F                80:   Rmf Meas. Temp.
 RMC .ohmm           1.09:   Rmc
 MCST.F                80:   Rmc Meas. Temp.
 MFSS.                  m:   Source Rmf.
 MCSS.                  m:   Source Rmc.
 RMB .ohmm           0.18:   Rm. At BHT
 BHT .F               262:   BHT.
 MRT .F               262:   Maximum Recorded Temp.
 ENGI.             Cannan:   Recorded By
 WITN.           McCormic:   Witnessed By
 DGBY.   Rutledge & McCoy:   Digitized By
#--RUN 4---   ------------   The following are for Run 4---
 RUN .             4.0000:   Run 4
 DATE.mm/dd/yyyy 05/14/1974:   Date Logged
 DD  .ft            20222:   Depth Driller
 DL  .ft            20194:   Depth Logger
 BLI .ft            20192:   Bottom Log Interval
 TLI .ft            19392:   Top Log Interval
 CSS .inch         10 3/4:   Casing Size
 CTD1.ft            16975:   Casing Driller 1
 CTL1.ft            16954:   Casing Logger 1
 BS  .inch         8  3/4:   Bit Size
 DFT .            aquagel:   Type Fluid In Hole
 DFV .sec              43:   Viscosity
 DFPH.               10.0:   pH
 DFL .mL              6.0:   Fluid Loss
 WSS .         circulated:   Source Of Sample
 RM  .ohmm           0.69:   Rm
 EMT .F                75:   Rm Meas. Temp.
 RMF .ohmm           0.30:   Rmf
 MFT .F                70:   Rmf Meas. Temp.
 RMC .ohmm           0.70:   Rmc
 MCST.F                70:   Rmc Meas. Temp.
 MFSS.                  m:   Source Rmf.
 MCSS.                  m:   Source Rmc.
 RMB .ohmm           0.19:   Rm. At BHT
 BHT .F               272:   BHT.
 MRT .F               272:   Maximum Recorded Temp.
 ENGI.             Cannan:   Recorded By
 WITN.            Garrett:   Witnessed By
 DGBY.   Rutledge & McCoy:   Digitized By
~OTHER INFORMATION
# Run 3 - at 16950 there is a scale change from 8-18 to 6-16.
# Run 4 - at 19390
~A  DEPTH       GR       RHOB
# ...
18290.5640    43.8066     2.6429
18291.0640    44.7372     2.6529
18291.5640    46.5893     2.6460
18292.0640    48.2107     2.6499
18292.5640    49.8321     2.6576
18293.0640    49.1458     2.6347
18293.5640    47.5364     2.6060
18294.0640    48.0039     2.6099
18294.5640    49.3946     2.5925
18295.0640    49.4020     2.5913
18295.5640    49.1757     2.6313
18296.0640    48.9524     2.6762
18296.5640    47.5738     2.6577
18297.0640    46.8875     2.6385
18297.5640    46.4319     2.6477
18298.0640    46.4379     2.6524
18298.5640    45.9824     2.6570
18299.0640    46.2193     2.6316
18299.5640    46.6882     2.6085
18300.0640    47.1557     2.6216
18300.5640    47.6232     2.6340
18301.0640    48.4454     2.6332
18301.5640    49.3995     2.6609
18302.0640    50.4104     2.6462
18302.5640    50.4164     2.6394
18303.0640    50.7676     2.6487
18303.5640    50.8900     2.6587
18304.0640    50.8974     2.6710
18304.5640    50.9034     2.6811
18305.0640    50.6771     2.6327
18305.5640    49.7615     2.6049
18306.0640    49.3060     2.5980
18306.5640    48.9931     2.5979
18307.0640    48.5259     2.6157
18307.5640    48.1701     2.6259
18308.0640    47.6745     2.6166
18308.5640    46.1066     2.6304
18309.0640    45.6496     2.6374
18309.5640    45.1955     2.6328
18310.0640    44.7092     2.6451
18310.5640    44.5137     2.6309
18311.0640    44.0596     2.6521
18311.5640    43.6041     2.6568
18312.0640    43.2676     2.6797
18312.5640    43.1379     2.7072
18313.0640    42.6990     2.6976
18313.5640    42.4567     2.6937
18314.0640    42.2026     2.6884
18314.5640    42.0246     2.6769
18315.0640    42.0321     2.6675
18315.5640    41.5766     2.6707
18316.0640    40.8903     2.6615
18316.5640    39.9732     2.6600
18317.0640    38.3305     2.6646
18317.5640    36.5251     2.6747
18318.0640    35.6080     2.7001
18318.5640    34.6909     2.7147
18319.0640    33.7738     2.7024
18319.5640    33.7798     2.6959
18320.0640    33.7858     2.6712
18320.5640    33.7918     2.6524
18321.0640    34.0286     2.6492
18321.5640    34.5129     2.6471
18322.0640    35.8882     2.6633
18322.5640    36.8172     2.6494
18323.0640    37.9771     2.6541
18323.5640    38.9062     2.6618
18324.0640    39.3737     2.6711
18324.5640    39.6104     2.6649
18325.0640    40.3087     2.6744
18325.5640    41.2378     2.6780
18326.0640    42.5316     2.6688
18326.5640    43.8726     2.6712
18327.0640    46.1034     2.6958
18327.5640    48.8786     2.7035
18328.0640    50.7308     2.7051
18328.5640    52.3521     2.6951
18329.0640    53.9735     2.6734
18329.5640    57.2103     2.6851
18330.0640    59.5240     2.6982
18330.5640    59.0684     2.7021
18331.0640    58.6129     2.7021
18331.5640    58.1252     2.6975
18332.0640    57.4710     2.6721
18332.5640    53.3246     2.6698
18333.0640    50.7921     2.6786
18333.5640    48.9520     2.6760
18334.0640    46.8811     2.6715
18334.5640    38.5866     2.6878
18335.0640    22.8935     2.6961
18335.5640    20.1303     2.6846
18336.0640    18.5209     2.6900
18336.5640    18.0653     2.6908
18337.0640    18.2054     2.6861
18337.5640    18.5286     2.7193
18338.0640    19.0079     2.7247
18338.5640    19.3880     2.7217
18339.0640    19.9429     2.7178
18339.5640    20.6412     2.7140
18340.0640    20.8780     2.7410
18340.5640    21.1148     2.7379
18341.0640    21.3516     2.7379
18341.5640    21.3577     2.7349
18342.0640    21.3650     2.7195
18342.5640    21.8325     2.7164
18343.0640    21.3755     2.7288
18343.5640    21.8445     2.7234
18344.0640    22.1629     2.7157
18344.5640    22.7795     2.7157
18345.0640    23.1649     2.7230
18345.5640    23.7239     2.7165
18346.0640    24.1823     2.7119
18346.5640    24.6511     2.7302
18347.0640    25.2051     2.7470
18347.5640    26.0477     2.7574
18348.0640    26.9768     2.7320
18348.5640    28.3674     2.7043
18349.0640    30.2196     2.6829
18349.5640    31.3794     2.6582
18350.0640    33.0463     2.6495
18350.5640    36.3083     2.6421
18351.0640    38.0911     2.6428
18351.5640    39.2510     2.6567
18352.0640    40.1800     2.6845
18352.5640    41.5706     2.6891
18353.0640    42.4997     2.6785
18353.5640    43.1980     2.6553
18354.0640    43.8963     2.6453
18354.5640    41.6424     2.6399
18355.0640    38.2656     2.6399
18355.5640    34.8889     2.6484
18356.0640    31.5122     2.6516
18356.5640    28.1354     2.6431
18357.0640    24.7799     2.6359
18357.5640    24.5536     2.6435
18358.0640    25.2534     2.6585
18358.5640    26.6440     2.6768
18359.0640    28.0469     2.6693
18359.5640    29.4570     2.6788
18360.0640    30.8173     2.7002
18360.5640    31.7464     2.6925
18361.0640    32.9062     2.7218
18361.5640    33.6699     2.7195
18362.0640    34.3028     2.7133
18362.5640    35.0011     2.6926
18363.0640    35.4686     2.7034
18363.5640    35.9417     2.7080
18364.0640    36.6630     2.6957
18364.5640    37.3343     2.7065
18365.0640    38.2633     2.6911
18365.5640    39.6539     2.6711
18366.0640    40.8137     2.6734
18366.5640    41.9736     2.6789
18367.0640    43.1334     2.6858
18367.5640    44.5240     2.6818
18368.0640    45.6949     2.6612
18368.5640    46.6410     2.6397
18369.0640    45.9276     2.6458
18369.5640    45.0105     2.6428
18370.0640    44.0934     2.6313
18370.5640    43.1763     2.6421
18371.0640    42.4846     2.6405
18371.5640    41.5420     2.6500
18372.0640    41.1174     2.6688
18372.5640    41.3556     2.6876
18373.0640    41.5924     2.6799
18373.5640    41.8291     2.6914
18374.0640    41.8351     2.7130
18374.5640    41.8411     2.7100
18375.0640    41.6163     2.6984
18375.5640    41.6223     2.6777
18376.0640    41.3976     2.6633
18376.5640    41.4050     2.6799
18377.0640    41.6418     2.6986
18377.5640    41.8785     2.7131
18378.0640    42.4413     2.7069
18378.5640    43.1983     2.6853
18379.0640    44.1521     2.6605
18379.5640    45.1333     2.6401
18380.0640    45.6008     2.6486
18380.5640    45.6070     2.6578
18381.0640    44.6912     2.6617
18381.5640    43.3126     2.6656
18382.0640    42.8555     2.6448
18382.5640    43.3245     2.6348
18383.0640    44.2536     2.6279
18383.5640    46.7981     2.6264
18384.0640    46.3435     2.6387
18384.5640    45.5802     2.6534
18385.0640    44.5093     2.6588
18385.5640    43.5922     2.6419
18386.0640    42.2136     2.6280
18386.5640    40.3735     2.6165
18387.0640    38.5333     2.6573
18387.5640    37.1547     2.7020
18388.0640    35.9793     2.6920
18388.5640    34.3989     2.6966
18389.0640    33.2510     2.7020
18389.5640    33.0248     2.7044
18390.0640    33.7246     2.7103
18390.5640    34.0613     2.7347
18391.0640    34.6596     2.7445
18391.5640    34.8964     2.7397
18392.0640    34.6716     2.7391
18392.5640    33.2516     2.7268
18393.0640    31.6851     2.7053
18393.5640    30.9972     2.7091
18394.0640    31.2355     2.6922
18394.5640    32.1646     2.6807
18395.0640    33.3244     2.6692
18395.5640    35.3319     2.6590
18396.0640    37.5235     2.6530
18396.5640    39.7152     2.6431
18397.0640    41.9068     2.6531
18397.5640    44.0985     2.6662
18398.0640    46.2902     2.6570
18398.5640    48.4818     2.6439
18399.0640    50.6735     2.6436
18399.5640    52.8651     2.6587
18400.0640    55.0568     2.6738
18400.5640    53.2343     2.6890
18401.0640    50.2746     2.6793
18401.5640    47.3149     2.6286
18402.0640    44.3551     2.6358
18402.5640    41.3954     2.6856
18403.0640    38.4788     2.6805
18403.5640    36.8912     2.6241
18404.0640    35.7434     2.6159
18404.5640    35.0571     2.6077
18405.0640    35.5246     2.6367
18405.5640    36.4536     2.6344
18406.0640    37.3827     2.6520
18406.5640    38.8410     2.6607
18407.0640    40.0373     2.6741
18407.5640    41.3424     2.7089
18408.0640    42.7159     2.7148
18408.5640    44.7988     2.6794
18409.0640    46.4201     2.6402
18409.5640    47.8107     2.5808
18410.0640    48.2768     2.5756
18410.5640    47.1304     2.6088
18411.0640    45.2903     2.5942
18411.5640    43.9116     2.6042
