~VERSION INFORMATION
 VERS.               2.10:   CWLS LOG ASCII STANDARD - VERSION 2.10
 WRAP.                 NO:   ONE LINE PER DEPTH STEP
~WELL INFORMATION
#MNEM.UNIT      DATA TYPE    INFORMATION
#----------   ------------   ------------------------------
 STRT.F        11000.5654:   START DEPTH
 STOP.F        20211.6523:   STOP DEPTH
 STEP.F            0.5000:   STEP LENGTH
 NULL.          -999.2500:   NO VALUE
 COMP. Exxon Company,  USA:   COMPANY
 WELL.    Gainer Et Al #1:   WELL
 FLD .            Wildcat:   FIELD
 LOC .                   :   LOCATION
 STAT.      West Virginia:   STATE
 COUN.            Calhoun:   COUNTY
 SRVC.       Schlumberger:   SERVICE COMPANY
 DATE.         03/02/1974:   LOGDATE
~CURVE INFORMATION
#MNEM.UNIT       API CODE    CURVE DESCRIPTION
#----------   ------------   ------------------------------
 DEPT.F                  :
 GR  .GAPI   60 310 00 00:   Gamma Ray
 RHOB.gm/cc  42 350 01 00:   Bulk Density
~PARAMETER INFORMATION
#MNEM.UNIT          VALUE    DESCRIPTION
#----------   ------------   ------------------------------
 EKB .F         1230.0000:   Kelly bushing
 EGL .F         1203.0000:   Ground level
 EDF .F         1228.0000:   Drilling floor
 EPD .F         1203.0000:   Permanent datum
 TD  .F            0.0000:   Total depth
 NRUN.             4.0000:   Number of Runs
#--RUN 1---   ------------   The following are for Run 1---
 RUN .             1.0000:   Run 1
#--RUN 2---   ------------   The following are for Run 2---
 RUN .             2.0000:   Run 2
 DATE.mm/dd/yyyy 03/02/1974:   Date Logged
 DD  .ft            16978:   Depth Driller
 DL  .ft            16962:   Depth Logger
 BLI .ft            16961:   Bottom Log Interval
 TLI .ft            14004:   Top Log Interval
 CSS .inch        13  5/8:   Casing Size
 CTD1.ft            11096:   Casing Driller 1
 CTL1.ft            11094:   Casing Logger 1
 BS  .inch        12  1/4:   Bit Size
 DFT .        lingnosulf.:   Type Fluid In Hole
 DFV .sec              39:   Viscosity
 DFPH.               11.2:   pH
 DFL .mL               22:   Fluid Loss
 WSS .         circulated:   Source Of Sample
 RM  .ohmm           0.55:   Rm
 EMT .F                66:   Rm Meas. Temp.
 RMF .ohmm           0.29:   Rmf
 MFT .F                66:   Rmf Meas. Temp.
 RMC .ohmm           0.87:   Rmc
 MCST.F                66:   Rmc Meas. Temp.
 MFSS.                  M:   Source Rmf.
 MCSS.                  M:   Source Rmc.
 RMB .ohmm           0.17:   Rm. At BHT
 BHT .F               219:   BHT.
 MRT .F               219:   Maximum Recorded Temp.
 ENGI.             Bening:   Recorded By
 WITN.           McCormic:   Witnessed By
 DGBY.   Rutledge & McCoy:   Digitized By
#--RUN 3---   ------------   The following are for Run 3---
 RUN .             3.0000:   Run 3
 DATE.mm/dd/yyyy 03/04/1974:   Date Logged
 DD  .ft            19913:   Depth Driller
 DL  .ft            19393:   Depth Logger
 BLI .ft            19392:   Bottom Log Interval
 TLI .ft            16961:   Top Log Interval
 CSS .inch        10  3/4:   Casing Size
 CTD1.ft            16975:   Casing Driller 1
 CTL1.ft            16954:   Casing Logger 1
 BS  .inch         8  3/4:   Bit Size
 DFT .        lingnosulf.:   Type Fluid In Hole
 DFV .sec              49:   Viscosity
 DFPH.               10.8:   pH
 DFL .mL              5.8:   Fluid Loss
 WSS .         circulated:   Source Of Sample
 RM  .ohmm           0.69:   Rm
 EMT .F                72:   Rm Meas. Temp.
 RMF .ohmm           0.32:   Rmf
 MFT .F                80:   Rmf Meas. Temp.
 RMC .ohmm           1.09:   Rmc
 MCST.F                80:   Rmc Meas. Temp.
 MFSS.                  m:   Source Rmf.
 MCSS.                  m:   Source Rmc.
 RMB .ohmm           0.18:   Rm. At BHT
 BHT .F               262:   BHT.
 MRT .F               262:   Maximum Recorded Temp.
 ENGI.             Cannan:   Recorded By
 WITN.           McCormic:   Witnessed By
 DGBY.   Rutledge & McCoy:   Digitized By
#--RUN 4---   ------------   The following are for Run 4---
 RUN .             4.0000:   Run 4
 DATE.mm/dd/yyyy 05/14/1974:   Date Logged
 DD  .ft            20222:   Depth Driller
 DL  .ft            20194:   Depth Logger
 BLI .ft            20192:   Bottom Log Interval
 TLI .ft            19392:   Top Log Interval
 CSS .inch         10 3/4:   Casing Size
 CTD1.ft            16975:   Casing Driller 1
 CTL1.ft            16954:   Casing Logger 1
 BS  .inch         8  3/4:   Bit Size
 DFT .            aquagel:   Type Fluid In Hole
 DFV .sec              43:   Viscosity
 DFPH.               10.0:   pH
 DFL .mL              6.0:   Fluid Loss
 WSS .         circulated:   Source Of Sample
 RM  .ohmm           0.69:   Rm
 EMT .F                75:   Rm Meas. Temp.
 RMF .ohmm           0.30:   Rmf
 MFT .F                70:   Rmf Meas. Temp.
 RMC .ohmm           0.70:   Rmc
 MCST.F                70:   Rmc Meas. Temp.
 MFSS.                  m:   Source Rmf.
 MCSS.                  m:   Source Rmc.
 RMB .ohmm           0.19:   Rm. At BHT
 BHT .F               272:   BHT.
 MRT .F               272:   Maximum Recorded Temp.
 ENGI.             Cannan:   Recorded By
 WITN.            Garrett:   Witnessed By
 DGBY.   Rutledge & McCoy:   Digitized By
~OTHER INFORMATION
# Run 3 - at 16950 there is a scale change from 8-18 to 6-16.
# Run 4 - at 19390
~A  DEPTH       GR       RHOB
# ...
11608.0650    11.9749     2.6742
11608.5650    11.5221     2.6935
11609.0650    11.0692     2.7059
11609.5650    11.5398     2.7128
11610.0650    10.6265     2.7152
11610.5650    10.4051     2.7106
11611.0650    10.1838     2.6945
11611.5650     9.9624     2.7054
11612.0650     9.9751     2.7165
11612.5650    10.2167     2.7231
11613.0650    10.6897     2.7262
11613.5650    11.1628     2.7186
11614.0650    11.6359     2.7155
11614.5650    11.6460     2.7302
11615.0650    11.6564     2.7488
11615.5650    11.9002     2.7450
11616.0650    12.1418     2.7433
11616.5650    11.9179     2.7504
11617.0650    11.6966     2.7489
11617.5650    11.4752     2.7425
11618.0650    11.7193     2.7167
11618.5650    11.9609     2.6943
11619.0650    11.9713     2.6628
11619.5650    12.2151     2.6744
11620.0650    12.4567     2.6867
11620.5650    12.0039     2.6945
11621.0650    11.5510     2.6999
11621.5650    11.3271     2.6954
11622.0650    11.1058     2.7093
11622.5650    11.1184     2.7263
11623.0650    11.1287     2.7433
11623.5650    11.3727     2.7465
11624.0650    11.6142     2.7503
11624.5650    11.9029     2.7365
11625.0650    12.3289     2.7319
11625.5650    12.5680     2.7219
11626.0650    12.1151     2.7335
11626.5650    11.8963     2.7305
11627.0650    12.1379     2.7536
11627.5650    12.3957     2.7653
11628.0650    13.0866     2.7591
11628.5650    13.5596     2.7345
11629.0650    14.0327     2.7253
11629.5650    14.7373     2.7230
11630.0650    15.0641     2.7142
11630.5650    15.2205     2.7031
11631.0650    15.2306     2.7409
11631.5650    15.2410     2.7610
11632.0650    15.7163     2.7656
11632.5650    16.2673     2.7680
11633.0650    17.1254     2.7380
11633.5650    17.8958     2.7180
11634.0650    18.5345     2.7157
11634.5650    19.0076     2.7088
11635.0650    19.4807     2.7080
11635.5650    19.4909     2.7112
11636.0650    19.7328     2.7469
11636.5650    20.2080     2.7539
11637.0650    20.2181     2.7452
11637.5650    19.9942     2.7538
11638.0650    20.0068     2.7515
11638.5650    20.0170     2.7330
11639.0650    19.5641     2.7161
11639.5650    17.2448     2.6984
11640.0650    15.8806     2.7185
11640.5650    15.6618     2.7293
11641.0650    15.4389     2.7106
11641.5650    15.4505     2.7102
11642.0650    15.8349     2.7150
11642.5650    16.8597     2.7275
11643.0650    18.7216     2.7165
11643.5650    18.0372     2.7304
11644.0650    16.1735     2.7489
11644.5650    15.0483     2.7374
11645.0650    14.5954     2.7313
11645.5650    14.5537     2.7483
11646.0650    14.3842     2.7545
11646.5650    14.3976     2.7615
11647.0650    14.9184     2.7453
11647.5650    15.5744     2.7299
11648.0650    15.8162     2.7308
11648.5650    15.8287     2.7154
11649.0650    15.3758     2.7185
11649.5650    15.1519     2.7078
11650.0650    15.1634     2.7016
11650.5650    15.1738     2.6932
11651.0650    15.1848     2.6616
11651.5650    15.1947     2.6663
11652.0650    15.2051     2.6779
11652.5650    15.2155     2.6949
11653.0650    15.2278     2.6958
11653.5650    15.0039     2.6996
11654.0650    15.2480     2.7216
11654.5650    15.9525     2.7187
11655.0650    16.5960     2.7210
11655.5650    17.1753     2.7337
11656.0650    17.6033     2.7584
11656.5650    17.6136     2.7801
11657.0650    16.7001     2.7778
11657.5650    15.5528     2.7801
11658.0650    15.0279     2.7748
11658.5650    14.4156     2.7594
11659.0650    14.1619     2.7392
11659.5650    13.7389     2.7549
11660.0650    13.5200     2.7603
11660.5650    12.8365     2.7866
11661.0650    12.6148     2.7899
11661.5650    12.2605     2.7959
11662.0650    11.9401     2.7882
11662.5650    11.7213     2.7867
11663.0650    11.1914     2.7898
11663.5650    11.0445     2.7429
11664.0650    10.8254     2.7452
11664.5650    10.3737     2.7360
11665.0650    10.2958     2.7422
11665.5650    10.1324     2.7585
11666.0650     9.7113     2.7523
11666.5650     9.2584     2.7328
11667.0650     8.5741     2.7308
11667.5650     8.3502     2.7471
11668.0650     8.3628     2.7510
11668.5650     8.3729     2.7240
11669.0650     8.3833     2.6948
11669.5650     8.6272     2.6740
11670.0650     8.8688     2.6918
11670.5650     9.1620     2.7103
11671.0650     9.6270     2.7126
11671.5650    10.0565     2.7118
11672.0650    10.2981     2.7189
11672.5650    10.5397     2.7283
11673.0650    10.7815     2.7313
11673.5650    10.7923     2.7198
11674.0650    10.8041     2.7029
11674.5650    10.8142     2.7106
11675.0650    10.8854     2.7161
11675.5650    11.1415     2.7169
11676.0650    11.3075     2.7139
11676.5650    12.0120     2.7039
11677.0650    12.9536     2.7008
11677.5650    13.9164     2.7101
11678.0650    14.8227     2.7171
11678.5650    15.7587     2.6986
11679.0650    16.3171     2.6840
11679.5650    17.1678     2.7034
11680.0650    17.8414     2.7150
11680.5650    18.5770     2.6834
11681.0650    14.8834     2.6734
11681.5650    12.2804     2.6827
11682.0650    10.7395     2.7067
11682.5650    10.2841     2.6959
11683.0650    10.2967     2.6828
11683.5650    10.3972     2.7199
11684.0650    10.7799     2.7261
11684.5650    11.1613     2.7401
11685.0650    11.4944     2.7516
11685.5650    11.7511     2.7250
11686.0650    12.4548     2.7186
11686.5650    12.6849     2.7040
11687.0650    13.2660     2.6986
11687.5650    13.6310     2.6940
11688.0650    13.6411     2.7079
11688.5650    13.4172     2.6926
11689.0650    13.6613     2.6618
11689.5650    13.6715     2.6788
11690.0650    13.9134     2.7081
11690.5650    14.0212     2.7328
11691.0650    14.3972     2.7413
11691.5650    14.6404     2.7215
11692.0650    14.8820     2.7144
11692.5650    15.3550     2.7230
11693.0650    15.5966     2.7199
11693.5650    16.0697     2.6930
11694.0650    16.3115     2.6868
11694.5650    16.3387     2.6977
11695.0650    16.5655     2.7016
11695.5650    16.8071     2.6854
11696.0650    17.6446     2.6932
11696.5650    18.4477     2.6794
11697.0650    19.6153     2.6894
11697.5650    20.7828     2.6745
11698.0650    21.2690     2.6656
11698.5650    22.1944     2.6934
11699.0650    23.1304     2.7289
11699.5650    24.2980     2.7305
11700.0650    25.2340     2.7090
11700.5650    25.9386     2.6920
11701.0650    28.2635     2.6851
11701.5650    25.0364     2.6782
11702.0650    14.3659     2.7153
11702.5650    13.8564     2.7107
11703.0650    14.1932     2.7038
11703.5650    14.6673     2.7572
11704.0650    15.3730     2.7748
11704.5650    16.3101     2.7826
11705.0650    16.5528     2.7857
11705.5650    16.5640     2.7719
11706.0650    16.5756     2.7927
11706.5650    16.5892     2.7905
11707.0650    16.3355     2.7597
11707.5650    15.6857     2.7566
11708.0650    14.3080     2.7505
11708.5650    13.6219     2.7397
11709.0650    13.1000     2.7390
11709.5650    12.9445     2.7475
11710.0650    12.7330     2.7383
11710.5650    12.5149     2.6883
11711.0650    12.4696     2.6837
11711.5650    12.3031     2.6791
11712.0650    12.3736     2.6668
11712.5650    12.5597     2.6637
11713.0650    12.5710     2.6669
11713.5650    12.8140     2.6631
11714.0650    13.0571     2.6477
11714.5650    13.1004     2.6485
11715.0650    13.3130     2.6462
11715.5650    13.7872     2.6494
11716.0650    14.3080     2.6725
11716.5650    14.8445     2.6656
11717.0650    15.6914     2.6834
11717.5650    16.6265     2.6935
11718.0650    17.0867     2.7105
11718.5650    17.5609     2.7236
11719.0650    18.0350     2.7260
11719.5650    18.4114     2.7315
11720.0650    18.7519     2.7449
11720.5650    18.9946     2.7531
11721.0650    18.4798     2.7277
11721.5650    17.8596     2.7362
11722.0650    17.8736     2.7463
11722.5650    17.4218     2.7332
11723.0650    16.8907     2.7183
11723.5650    16.2868     2.7025
11724.0650    15.8348     2.6900
11724.5650    14.9203     2.6871
11725.0650    14.2371     2.7149
11725.5650    14.0168     2.7520
11726.0650    14.3462     2.7651
11726.5650    14.8059     2.7690
11727.0650    15.3815     2.7613
11727.5650    16.1477     2.7791
11728.0650    16.8552     2.7854
11728.5650    17.4163     2.7598
11729.0650    18.0656     2.7184
