~VERSION INFORMATION
 VERS.               2.10:   CWLS LOG ASCII STANDARD - VERSION 2.10
 WRAP.                 NO:   ONE LINE PER DEPTH STEP
~WELL INFORMATION
#MNEM.UNIT      DATA TYPE    INFORMATION
#----------   ------------   ------------------------------
 STRT.F        11000.5654:   START DEPTH
 STOP.F        20211.6523:   STOP DEPTH
 STEP.F            0.5000:   STEP LENGTH
 NULL.          -999.2500:   NO VALUE
 COMP. Exxon Company,  USA:   COMPANY
 WELL.    Gainer Et Al #1:   WELL
 FLD .            Wildcat:   FIELD
 LOC .                   :   LOCATION
 STAT.      West Virginia:   STATE
 COUN.            Calhoun:   COUNTY
 SRVC.       Schlumberger:   SERVICE COMPANY
 DATE.         03/02/1974:   LOGDATE
~CURVE INFORMATION
#MNEM.UNIT       API CODE    CURVE DESCRIPTION
#----------   ------------   ------------------------------
 DEPT.F                  :
 GR  .GAPI   60 310 00 00:   Gamma Ray
 RHOB.gm/cc  42 350 01 00:   Bulk Density
~PARAMETER INFORMATION
#MNEM.UNIT          VALUE    DESCRIPTION
#----------   ------------   ------------------------------
 EKB .F         1230.0000:   Kelly bushing
 EGL .F         1203.0000:   Ground level
 EDF .F         1228.0000:   Drilling floor
 EPD .F         1203.0000:   Permanent datum
 TD  .F            0.0000:   Total depth
 NRUN.             4.0000:   Number of Runs
#--RUN 1---   ------------   The following are for Run 1---
 RUN .             1.0000:   Run 1
#--RUN 2---   ------------   The following are for Run 2---
 RUN .             2.0000:   Run 2
 DATE.mm/dd/yyyy 03/02/1974:   Date Logged
 DD  .ft            16978:   Depth Driller
 DL  .ft            16962:   Depth Logger
 BLI .ft            16961:   Bottom Log Interval
 TLI .ft            14004:   Top Log Interval
 CSS .inch        13  5/8:   Casing Size
 CTD1.ft            11096:   Casing Driller 1
 CTL1.ft            11094:   Casing Logger 1
 BS  .inch        12  1/4:   Bit Size
 DFT .        lingnosulf.:   Type Fluid In Hole
 DFV .sec              39:   Viscosity
 DFPH.               11.2:   pH
 DFL .mL               22:   Fluid Loss
 WSS .         circulated:   Source Of Sample
 RM  .ohmm           0.55:   Rm
 EMT .F                66:   Rm Meas. Temp.
 RMF .ohmm           0.29:   Rmf
 MFT .F                66:   Rmf Meas. Temp.
 RMC .ohmm           0.87:   Rmc
 MCST.F                66:   Rmc Meas. Temp.
 MFSS.                  M:   Source Rmf.
 MCSS.                  M:   Source Rmc.
 RMB .ohmm           0.17:   Rm. At BHT
 BHT .F               219:   BHT.
 MRT .F               219:   Maximum Recorded Temp.
 ENGI.             Bening:   Recorded By
 WITN.           McCormic:   Witnessed By
 DGBY.   Rutledge & McCoy:   Digitized By
#--RUN 3---   ------------   The following are for Run 3---
 RUN .             3.0000:   Run 3
 DATE.mm/dd/yyyy 03/04/1974:   Date Logged
 DD  .ft            19913:   Depth Driller
 DL  .ft            19393:   Depth Logger
 BLI .ft            19392:   Bottom Log Interval
 TLI .ft            16961:   Top Log Interval
 CSS .inch        10  3/4:   Casing Size
 CTD1.ft            16975:   Casing Driller 1
 CTL1.ft            16954:   Casing Logger 1
 BS  .inch         8  3/4:   Bit Size
 DFT .        lingnosulf.:   Type Fluid In Hole
 DFV .sec              49:   Viscosity
 DFPH.               10.8:   pH
 DFL .mL              5.8:   Fluid Loss
 WSS .         circulated:   Source Of Sample
 RM  .ohmm           0.69:   Rm
 EMT .F                72:   Rm Meas. Temp.
 RMF .ohmm           0.32:   Rmf
 MFT .F                80:   Rmf Meas. Temp.
 RMC .ohmm           1.09:   Rmc
 MCST.F                80:   Rmc Meas. Temp.
 MFSS.                  m:   Source Rmf.
 MCSS.                  m:   Source Rmc.
 RMB .ohmm           0.18:   Rm. At BHT
 BHT .F               262:   BHT.
 MRT .F               262:   Maximum Recorded Temp.
 ENGI.             Cannan:   Recorded By
 WITN.           McCormic:   Witnessed By
 DGBY.   Rutledge & McCoy:   Digitized By
#--RUN 4---   ------------   The following are for Run 4---
 RUN .             4.0000:   Run 4
 DATE.mm/dd/yyyy 05/14/1974:   Date Logged
 DD  .ft            20222:   Depth Driller
 DL  .ft            20194:   Depth Logger
 BLI .ft            20192:   Bottom Log Interval
 TLI .ft            19392:   Top Log Interval
 CSS .inch         10 3/4:   Casing Size
 CTD1.ft            16975:   Casing Driller 1
 CTL1.ft            16954:   Casing Logger 1
 BS  .inch         8  3/4:   Bit Size
 DFT .            aquagel:   Type Fluid In Hole
 DFV .sec              43:   Viscosity
 DFPH.               10.0:   pH
 DFL .mL              6.0:   Fluid Loss
 WSS .         circulated:   Source Of Sample
 RM  .ohmm           0.69:   Rm
 EMT .F                75:   Rm Meas. Temp.
 RMF .ohmm           0.30:   Rmf
 MFT .F                70:   Rmf Meas. Temp.
 RMC .ohmm           0.70:   Rmc
 MCST.F                70:   Rmc Meas. Temp.
 MFSS.                  m:   Source Rmf.
 MCSS.                  m:   Source Rmc.
 RMB .ohmm           0.19:   Rm. At BHT
 BHT .F               272:   BHT.
 MRT .F               272:   Maximum Recorded Temp.
 ENGI.             Cannan:   Recorded By
 WITN.            Garrett:   Witnessed By
 DGBY.   Rutledge & McCoy:   Digitized By
~OTHER INFORMATION
# Run 3 - at 16950 there is a scale change from 8-18 to 6-16.
# Run 4 - at 19390
~A  DEPTH       GR       RHOB
# ...
15253.0650    17.0524     2.8200
15253.5650    17.9945     2.8408
15254.0650    18.9365     2.8547
15254.5650    19.6464     2.8351
15255.0650    18.9632     2.8240
15255.5650    17.8123     2.8071
15256.0650    17.3591     2.8179
15256.5650    17.1354     2.8418
15257.0650    17.0696     2.8519
15257.5650    16.9266     2.8642
15258.0650    17.1739     2.8396
15258.5650    16.9441     2.8481
15259.0650    16.0349     2.8505
15259.5650    16.5761     2.8624
15260.0650    17.3125     2.8698
15260.5650    18.6316     2.8714
15261.0650    19.5736     2.8460
15261.5650    19.3529     2.8368
15262.0650    19.1318     2.8160
15262.5650    18.9115     2.8114
15263.0650    19.8762     2.8307
15263.5650    21.7289     2.8485
15264.0650    23.8338     2.8493
15264.5650    24.7729     2.8308
15265.0650    24.0871     2.8247
15265.5650    21.3113     2.8502
15266.0650    21.3231     2.8556
15266.5650    21.5676     2.9003
15267.0650    21.1143     2.9181
15267.5650    20.6610     2.8784
15268.0650    20.2107     2.8381
15268.5650    20.2226     2.8258
15269.0650    20.2345     2.8166
15269.5650    20.4789     2.8292
15270.0650    18.6303     2.8452
15270.5650    17.4789     2.8375
15271.0650    17.2586     2.8221
15271.5650    17.0160     2.8121
15272.0650    15.8900     2.8307
15272.5650    14.9716     2.8438
15273.0650    13.8207     2.8523
15273.5650    13.5970     2.8385
15274.0650    13.8444     2.8471
15274.5650    14.5539     2.8914
15275.0650    15.2635     2.9164
15275.5650    16.2131     2.9003
15276.0650    16.9155     2.9088
15276.5650    17.6276     2.8811
15277.0650    18.1046     2.8534
15277.5650    18.5816     2.8450
15278.0650    18.5934     2.8673
15278.5650    18.8379     2.8712
15279.0650    19.0818     2.8689
15279.5650    18.6290     2.8540
15280.0650    17.4781     2.8559
15280.5650    17.0248     2.8568
15281.0650    17.0397     2.8514
15281.5650    17.2811     2.8468
15282.0650    17.5285     2.8345
15282.5650    17.7729     2.8284
15283.0650    18.0173     2.8438
15283.5650    18.0292     2.8570
15284.0650    17.5759     2.8424
15284.5650    17.1227     2.8174
15285.0650    15.2770     2.8109
15285.5650    14.3587     2.8078
15286.0650    13.9024     2.8171
15286.5650    14.1498     2.8102
15287.0650    15.0919     2.8072
15287.5650    15.8015     2.8257
15288.0650    16.5110     2.8496
15288.5650    17.2208     2.8751
15289.0650    17.2353     2.8689
15289.5650    16.0844     2.8447
15290.0650    14.9335     2.8251
15290.5650    14.7098     2.8144
15291.0650    14.7247     2.8298
15291.5650    15.2016     2.8383
15292.0650    15.6786     2.8599
15292.5650    15.4579     2.8746
15293.0650    14.9716     2.8693
15293.5650    14.3189     2.8616
15294.0650    13.8656     2.8393
15294.5650    14.8106     2.8332
15295.0650    15.6622     2.8371
15295.5650    16.6308     2.8571
15296.0650    17.4044     2.8657
15296.5650    17.4162     2.8734
15297.0650    17.1771     2.8565
15297.5650    15.8150     2.8373
15298.0650    14.8967     2.8096
15298.5650    14.4404     2.8104
15299.0650    13.7546     2.8212
15299.5650    13.2249     2.8344
15300.0650    12.8481     2.8690
15300.5650    12.8629     2.8598
15301.0650    12.9341     2.8406
15301.5650    13.3522     2.8337
15302.0650    14.2968     2.8284
15302.5650    14.5412     2.8390
15303.0650    14.7857     2.8483
15303.5650    15.2626     2.8523
15304.0650    15.5070     2.8585
15304.5650    15.8492     2.8624
15305.0650    16.2283     2.8632
15305.5650    16.1198     2.8463
15306.0650    15.5575     2.8494
15306.5650    15.3338     2.8271
15307.0650    15.1144     2.8286
15307.5650    15.1279     2.8333
15308.0650    15.3723     2.8194
15308.5650    15.8493     2.8203
15309.0650    16.7914     2.8226
15309.5650    17.0358     2.8450
15310.0650    16.5826     2.8227
15310.5650    16.8300     2.8134
15311.0650    17.0744     2.8304
15311.5650    16.9694     2.8158
15312.0650    17.0981     2.8081
15312.5650    17.3425     2.8035
15313.0650    18.0521     2.8228
15313.5650    18.0639     2.8321
15314.0650    17.7178     2.8368
15314.5650    16.4627     2.8283
15315.0650    15.5443     2.8230
15315.5650    14.8585     2.8430
15316.0650    14.8704     2.8523
15316.5650    14.8822     2.8600
15317.0650    15.5918     2.8427
15317.5650    16.3013     2.8470
15318.0650    17.0128     2.8617
15318.5650    17.4882     2.8725
15319.0650    18.4329     2.8802
15319.5650    18.9099     2.8464
15320.0650    18.9217     2.8310
15320.5650    18.4685     2.8225
15321.0650    18.0122     2.8179
15321.5650    16.6317     2.8434
15322.0650    16.6436     2.8488
15322.5650    16.6557     2.8535
15323.0650    16.9028     2.8666
15323.5650    16.6792     2.8612
15324.0650    16.6940     2.8343
15324.5650    16.4703     2.8467
15325.0650    16.0200     2.8568
15325.5650    16.0319     2.8694
15326.0650    16.0438     2.8753
15326.5650    16.2919     2.8460
15327.0650    16.7957     2.8168
15327.5650    17.0096     2.8314
15328.0650    16.5563     2.8415
15328.5650    16.1031     2.8631
15329.0650    15.8824     2.8754
15329.5650    15.1995     2.8855
15330.0650    14.7463     2.8693
15330.5650    14.2930     2.8609
15331.0650    15.2353     2.8694
15331.5650    15.9602     2.8571
15332.0650    16.6571     2.8625
15332.5650    17.1218     2.8533
15333.0650    17.8436     2.8726
15333.5650    18.5532     2.8717
15334.0650    19.0748     2.8569
15334.5650    19.2743     2.8465
15335.0650    19.2865     2.8388
15335.5650    19.2687     2.8535
15336.0650    18.8450     2.8705
15336.5650    17.6971     2.8574
15337.0650    16.3106     2.8243
15337.5650    16.0899     2.8113
15338.0650    16.5699     2.8059
15338.5650    17.2794     2.8244
15339.0650    17.9889     2.8383
15339.5650    17.7682     2.8430
15340.0650    17.5476     2.8484
15340.5650    17.5248     2.8538
15341.0650    17.1062     2.8577
15341.5650    16.4203     2.8639
15342.0650    15.7375     2.8477
15342.5650    15.5168     2.8465
15343.0650    14.8307     2.8201
15343.5650    14.6085     2.8093
15344.0650    14.1275     2.7932
15344.5650    14.1719     2.8148
15345.0650    14.8814     2.8156
15345.5650    15.5909     2.8503
15346.0650    16.5330     2.8611
15346.5650    16.7774     2.8673
15347.0650    15.8591     2.8635
15347.5650    15.8709     2.8358
15348.0650    17.0607     2.8273
15348.5650    17.7581     2.8320
15349.0650    17.7699     2.8559
15349.5650    17.7818     2.8451
15350.0650    16.6293     2.8442
15350.5650    17.3476     2.8629
15351.0650    18.5269     2.8560
15351.5650    22.7295     2.8884
15352.0650    23.2111     2.8984
15352.5650    23.8909     2.8831
15353.0650    24.6395     2.8592
15353.5650    21.4929     2.8646
15354.0650    16.0720     2.8585
15354.5650    15.3867     2.8420
15355.0650    15.4032     2.8648
15355.5650    15.1872     2.8717
15356.0650    14.7427     2.8571
15356.5650    13.5965     2.8671
15357.0650    13.6187     2.8633
15357.5650    14.3650     2.8656
15358.0650    15.7432     2.8587
15358.5650    16.4574     2.8703
15359.0650    17.4041     2.8642
15359.5650    16.9514     2.8419
15360.0650    17.2046     2.8442
15360.5650    17.9188     2.8342
15361.0650    18.1848     2.8165
15361.5650    19.8164     2.8227
15362.0650    21.2283     2.8035
15362.5650    24.0355     2.7981
15363.0650    26.6101     2.8082
15363.5650    28.4871     2.8160
15364.0650    30.1315     2.8398
15364.5650    32.4736     2.8191
15365.0650    32.4419     2.8076
15365.5650    29.4876     2.7953
15366.0650    21.5971     2.7991
15366.5650    19.8100     2.7976
15367.0650    18.1418     2.7715
15367.5650    17.2280     2.7515
15368.0650    13.7562     2.7212
15368.5650    14.4741     2.7076
15369.0650    16.0497     2.6869
15369.5650    17.9959     2.6884
15370.0650    18.9427     2.7023
15370.5650    19.4202     2.7108
15371.0650    18.5065     2.7209
15371.5650    18.5271     2.7093
15372.0650    19.0087     2.6993
15372.5650    19.7232     2.7321
15373.0650    19.9761     2.7919
15373.5650    20.4578     2.8081
15374.0650    20.9394     2.8197
