~VERSION INFORMATION
 VERS.               2.10:   CWLS LOG ASCII STANDARD - VERSION 2.10
 WRAP.                 NO:   ONE LINE PER DEPTH STEP
~WELL INFORMATION
#MNEM.UNIT      DATA TYPE    INFORMATION
#----------   ------------   ------------------------------
 STRT.F        11000.5654:   START DEPTH
 STOP.F        20211.6523:   STOP DEPTH
 STEP.F            0.5000:   STEP LENGTH
 NULL.          -999.2500:   NO VALUE
 COMP. Exxon Company,  USA:   COMPANY
 WELL.    Gainer Et Al #1:   WELL
 FLD .            Wildcat:   FIELD
 LOC .                   :   LOCATION
 STAT.      West Virginia:   STATE
 COUN.            Calhoun:   COUNTY
 SRVC.       Schlumberger:   SERVICE COMPANY
 DATE.         03/02/1974:   LOGDATE
~CURVE INFORMATION
#MNEM.UNIT       API CODE    CURVE DESCRIPTION
#----------   ------------   ------------------------------
 DEPT.F                  :
 GR  .GAPI   60 310 00 00:   Gamma Ray
 RHOB.gm/cc  42 350 01 00:   Bulk Density
~PARAMETER INFORMATION
#MNEM.UNIT          VALUE    DESCRIPTION
#----------   ------------   ------------------------------
 EKB .F         1230.0000:   Kelly bushing
 EGL .F         1203.0000:   Ground level
 EDF .F         1228.0000:   Drilling floor
 EPD .F         1203.0000:   Permanent datum
 TD  .F            0.0000:   Total depth
 NRUN.             4.0000:   Number of Runs
#--RUN 1---   ------------   The following are for Run 1---
 RUN .             1.0000:   Run 1
#--RUN 2---   ------------   The following are for Run 2---
 RUN .             2.0000:   Run 2
 DATE.mm/dd/yyyy 03/02/1974:   Date Logged
 DD  .ft            16978:   Depth Driller
 DL  .ft            16962:   Depth Logger
 BLI .ft            16961:   Bottom Log Interval
 TLI .ft            14004:   Top Log Interval
 CSS .inch        13  5/8:   Casing Size
 CTD1.ft            11096:   Casing Driller 1
 CTL1.ft            11094:   Casing Logger 1
 BS  .inch        12  1/4:   Bit Size
 DFT .        lingnosulf.:   Type Fluid In Hole
 DFV .sec              39:   Viscosity
 DFPH.               11.2:   pH
 DFL .mL               22:   Fluid Loss
 WSS .         circulated:   Source Of Sample
 RM  .ohmm           0.55:   Rm
 EMT .F                66:   Rm Meas. Temp.
 RMF .ohmm           0.29:   Rmf
 MFT .F                66:   Rmf Meas. Temp.
 RMC .ohmm           0.87:   Rmc
 MCST.F                66:   Rmc Meas. Temp.
 MFSS.                  M:   Source Rmf.
 MCSS.                  M:   Source Rmc.
 RMB .ohmm           0.17:   Rm. At BHT
 BHT .F               219:   BHT.
 MRT .F               219:   Maximum Recorded Temp.
 ENGI.             Bening:   Recorded By
 WITN.           McCormic:   Witnessed By
 DGBY.   Rutledge & McCoy:   Digitized By
#--RUN 3---   ------------   The following are for Run 3---
 RUN .             3.0000:   Run 3
 DATE.mm/dd/yyyy 03/04/1974:   Date Logged
 DD  .ft            19913:   Depth Driller
 DL  .ft            19393:   Depth Logger
 BLI .ft            19392:   Bottom Log Interval
 TLI .ft            16961:   Top Log Interval
 CSS .inch        10  3/4:   Casing Size
 CTD1.ft            16975:   Casing Driller 1
 CTL1.ft            16954:   Casing Logger 1
 BS  .inch         8  3/4:   Bit Size
 DFT .        lingnosulf.:   Type Fluid In Hole
 DFV .sec              49:   Viscosity
 DFPH.               10.8:   pH
 DFL .mL              5.8:   Fluid Loss
 WSS .         circulated:   Source Of Sample
 RM  .ohmm           0.69:   Rm
 EMT .F                72:   Rm Meas. Temp.
 RMF .ohmm           0.32:   Rmf
 MFT .F                80:   Rmf Meas. Temp.
 RMC .ohmm           1.09:   Rmc
 MCST.F                80:   Rmc Meas. Temp.
 MFSS.                  m:   Source Rmf.
 MCSS.                  m:   Source Rmc.
 RMB .ohmm           0.18:   Rm. At BHT
 BHT .F               262:   BHT.
 MRT .F               262:   Maximum Recorded Temp.
 ENGI.             Cannan:   Recorded By
 WITN.           McCormic:   Witnessed By
 DGBY.   Rutledge & McCoy:   Digitized By
#--RUN 4---   ------------   The following are for Run 4---
 RUN .             4.0000:   Run 4
 DATE.mm/dd/yyyy 05/14/1974:   Date Logged
 DD  .ft            20222:   Depth Driller
 DL  .ft            20194:   Depth Logger
 BLI .ft            20192:   Bottom Log Interval
 TLI .ft            19392:   Top Log Interval
 CSS .inch         10 3/4:   Casing Size
 CTD1.ft            16975:   Casing Driller 1
 CTL1.ft            16954:   Casing Logger 1
 BS  .inch         8  3/4:   Bit Size
 DFT .            aquagel:   Type Fluid In Hole
 DFV .sec              43:   Viscosity
 DFPH.               10.0:   pH
 DFL .mL              6.0:   Fluid Loss
 WSS .         circulated:   Source Of Sample
 RM  .ohmm           0.69:   Rm
 EMT .F                75:   Rm Meas. Temp.
 RMF .ohmm           0.30:   Rmf
 MFT .F                70:   Rmf Meas. Temp.
 RMC .ohmm           0.70:   Rmc
 MCST.F                70:   Rmc Meas. Temp.
 MFSS.                  m:   Source Rmf.
 MCSS.                  m:   Source Rmc.
 RMB .ohmm           0.19:   Rm. At BHT
 BHT .F               272:   BHT.
 MRT .F               272:   Maximum Recorded Temp.
 ENGI.             Cannan:   Recorded By
 WITN.            Garrett:   Witnessed By
 DGBY.   Rutledge & McCoy:   Digitized By
~OTHER INFORMATION
# Run 3 - at 16950 there is a scale change from 8-18 to 6-16.
# Run 4 - at 19390
~A  DEPTH       GR       RHOB
# ...
20113.0640    61.2188     2.6567
20113.5640    58.9353     2.6498
20114.0640    57.1156     2.6937
20114.5640    59.5776     2.7092
20115.0640    61.9220     2.7239
20115.5640    63.9525     2.7454
20116.0640    65.4287     2.7585
20116.5640    66.6402     2.7609
20117.0640    68.0016     2.7570
20117.5640    71.5111     2.7339
20118.0640    69.9231     2.7000
20118.5640    64.5221     2.6876
20119.0640    59.5197     2.6907
20119.5640    59.3634     2.7077
20120.0640    60.3344     2.6959
20120.5640    61.7605     2.6877
20121.0640    63.0125     2.6981
20121.5640    65.5911     2.7318
20122.0640    67.8239     2.7645
20122.5640    69.5510     2.7802
20123.0640    71.0181     2.7633
20123.5640    73.3390     2.7455
20124.0640    75.2286     2.7270
20124.5640    77.1182     2.7032
20125.0640    79.2399     2.7016
20125.5640    79.9703     2.6993
20126.0640    80.0052     2.6808
20126.5640    79.1127     2.6731
20127.0640    69.8742     2.6708
20127.5640    71.3738     2.6531
20128.0640    74.1259     2.6693
20128.5640    76.4792     2.7040
20129.0640    79.0644     2.7341
20129.5640    79.5543     2.6747
20130.0640    77.5077     2.6678
20130.5640    76.6102     2.6524
20131.0640    79.2043     2.6400
20131.5640    83.3168     2.6515
20132.0640    92.4600     2.6732
20132.5640   101.6031     2.6963
20133.0640   110.7463     2.7025
20133.5640   119.8895     2.6879
20134.0640   129.0327     2.6910
20134.5640   138.1758     2.6792
20135.0640   147.3190     2.6457
20135.5640   160.1128     2.6085
20136.0640   174.4054     2.5992
20136.5640   188.6981     2.6077
20137.0640   202.9907     2.6486
20137.5640   217.2834     2.6332
20138.0640   222.7498     2.6509
20138.5640   216.7658     2.7030
20139.0640   203.3540     2.7604
20139.5640   204.3163     2.7689
20140.0640   205.7423     2.7527
20140.5640   210.1823     2.7193
20141.0640   208.5928     2.6744
20141.5640   199.4030     2.6294
20142.0640   182.4408     2.6040
20142.5640   165.4785     2.6256
20143.0640   151.8179     2.6063
20143.5640   149.3080     2.5865
20144.0640   146.7980     2.5550
20144.5640   142.5445     2.5261
20145.0640   121.2502     2.5046
20145.5640   111.5480     2.5169
20146.0640   104.6277     2.5115
20146.5640    97.7075     2.4984
20147.0640    94.0330     2.5033
20147.5640    92.9085     2.5169
20148.0640    94.6279     2.5092
20148.5640    99.7107     2.5023
20149.0640   107.1645     2.5447
20149.5640   117.8640     2.5463
20150.0640   123.6950     2.5355
20150.5640   127.5733     2.5501
20151.0640   132.8066     2.5416
20151.5640   139.7967     2.5413
20152.0640   142.0682     2.5054
20152.5640   144.0645     2.5278
20153.0640  -999.2500     2.5571
20153.5640  -999.2500     2.5733
20154.0640  -999.2500     2.5849
20154.5640  -999.2500     2.5957
20155.0640  -999.2500     2.5895
20155.5640  -999.2500     2.5849
20156.0640  -999.2500     2.5687
20156.5640  -999.2500     2.5545
20157.0640  -999.2500     2.5453
20157.5640  -999.2500     2.5518
20158.0640  -999.2500     2.5641
20158.5640  -999.2500     2.5757
20159.0640  -999.2500     2.5680
20159.5640  -999.2500     2.5557
20160.0640  -999.2500     2.5341
20160.5640  -999.2500     2.5410
20161.0640  -999.2500     2.5495
20161.5640  -999.2500     2.5475
20162.0640  -999.2500     2.5125
20162.5640  -999.2500     2.5210
20163.0640  -999.2500     2.5164
20163.5640  -999.2500     2.5179
20164.0640  -999.2500     2.5126
20164.5640  -999.2500     2.5064
20165.0640  -999.2500     2.5018
20165.5640  -999.2500     2.5180
20166.0640  -999.2500     2.5411
20166.5640  -999.2500     2.5199
20167.0640  -999.2500     2.5111
20167.5640  -999.2500     2.5157
20168.0640  -999.2500     2.5365
20168.5640  -999.2500     2.5103
20169.0640  -999.2500     2.4964
20169.5640  -999.2500     2.4995
20170.0640  -999.2500     2.4934
20170.5640  -999.2500     2.4995
20171.0640  -999.2500     2.4916
20171.5640  -999.2500     2.4821
20172.0640  -999.2500     2.4441
20172.5640  -999.2500     2.4362
20173.0640  -999.2500     2.4240
20173.5640  -999.2500     2.4364
20174.0640  -999.2500     2.4433
20174.5640  -999.2500     2.4472
20175.0640  -999.2500     2.4646
20175.5640  -999.2500     2.5007
20176.0640  -999.2500     2.5368
20176.5640  -999.2500     2.5729
20177.0640  -999.2500     2.5604
20177.5640  -999.2500     2.5544
20178.0640  -999.2500     2.5606
20178.5640  -999.2500     2.5482
20179.0640  -999.2500     2.5174
20179.5640  -999.2500     2.4673
20180.0640  -999.2500     2.4380
20180.5640  -999.2500     2.4195
20181.0640  -999.2500     2.4403
20181.5640  -999.2500     2.4527
20182.0640  -999.2500     2.4519
20182.5640  -999.2500     2.4535
20183.0640  -999.2500     2.4427
20183.5640  -999.2500     2.4381
20184.0640  -999.2500     2.4404
20184.5640  -999.2500     2.4427
20185.0640  -999.2500     2.4342
20185.5640  -999.2500     2.4420
20186.0640  -999.2500     2.4342
20186.5640  -999.2500     2.4359
20187.0640  -999.2500     2.4466
20187.5640  -999.2500     2.4335
20188.0640  -999.2500     2.4358
20188.5640  -999.2500     2.4505
20189.0640  -999.2500     2.4574
20189.5640  -999.2500     2.4645
20190.0640  -999.2500     2.4797
20190.5640  -999.2500     2.4949
20191.0640  -999.2500     2.5006
20191.5640  -999.2500     2.4929
20192.0640  -999.2500     2.5030
20192.5640  -999.2500     2.5068
20193.0640  -999.2500     2.4837
20193.5640  -999.2500     2.4768
20194.0640  -999.2500     2.4660
20194.5640  -999.2500     2.4722
20195.0640  -999.2500     2.4837
20195.5640  -999.2500     2.4938
20196.0640  -999.2500     2.4837
20196.5640  -999.2500     2.4900
20197.0640  -999.2500     2.4868
20197.5640  -999.2500     2.4984
20198.0640  -999.2500     2.4907
20198.5640  -999.2500     2.4846
20199.0640  -999.2500     2.4792
20199.5640  -999.2500     2.4915
20200.0640  -999.2500     2.4978
20200.5640  -999.2500     2.4792
20201.0640  -999.2500     2.4753
20201.5640  -999.2500     2.4669
20202.0640  -999.2500     2.4738
20202.5640  -999.2500     2.4869
20203.0640  -999.2500     2.4931
20203.5640  -999.2500     2.4977
20204.0640  -999.2500     2.5024
20204.5640  -999.2500     2.5055
20205.0640  -999.2500     2.4716
20205.5640  -999.2500     2.4685
20206.0640  -999.2500     2.4694
20206.5640  -999.2500     2.4777
20207.0640  -999.2500     2.4885
20207.5640  -999.2500     2.4939
20208.0640  -999.2500     2.4785
20208.5640  -999.2500     2.4701
20209.0640  -999.2500     2.4693
20209.5640  -999.2500     2.4747
20210.0640  -999.2500     2.4786
20210.5640  -999.2500     2.4825
20211.0640  -999.2500     2.4832
20211.5640  -999.2500     2.4824
