~VERSION INFORMATION
 VERS.               2.10:   CWLS LOG ASCII STANDARD - VERSION 2.10
 WRAP.                 NO:   ONE LINE PER DEPTH STEP
~WELL INFORMATION
#MNEM.UNIT      DATA TYPE    INFORMATION
#----------   ------------   ------------------------------
 STRT.F        11000.5654:   START DEPTH
 STOP.F        20211.6523:   STOP DEPTH
 STEP.F            0.5000:   STEP LENGTH
 NULL.          -999.2500:   NO VALUE
 COMP. Exxon Company,  USA:   COMPANY
 WELL.    Gainer Et Al #1:   WELL
 FLD .            Wildcat:   FIELD
 LOC .                   :   LOCATION
 STAT.      West Virginia:   STATE
 COUN.            Calhoun:   COUNTY
 SRVC.       Schlumberger:   SERVICE COMPANY
 DATE.         03/02/1974:   LOGDATE
~CURVE INFORMATION
#MNEM.UNIT       API CODE    CURVE DESCRIPTION
#----------   ------------   ------------------------------
 DEPT.F                  :
 GR  .GAPI   60 310 00 00:   Gamma Ray
 RHOB.gm/cc  42 350 01 00:   Bulk Density
~PARAMETER INFORMATION
#MNEM.UNIT          VALUE    DESCRIPTION
#----------   ------------   ------------------------------
 EKB .F         1230.0000:   Kelly bushing
 EGL .F         1203.0000:   Ground level
 EDF .F         1228.0000:   Drilling floor
 EPD .F         1203.0000:   Permanent datum
 TD  .F            0.0000:   Total depth
 NRUN.             4.0000:   Number of Runs
#--RUN 1---   ------------   The following are for Run 1---
 RUN .             1.0000:   Run 1
#--RUN 2---   ------------   The following are for Run 2---
 RUN .             2.0000:   Run 2
 DATE.mm/dd/yyyy 03/02/1974:   Date Logged
 DD  .ft            16978:   Depth Driller
 DL  .ft            16962:   Depth Logger
 BLI .ft            16961:   Bottom Log Interval
 TLI .ft            14004:   Top Log Interval
 CSS .inch        13  5/8:   Casing Size
 CTD1.ft            11096:   Casing Driller 1
 CTL1.ft            11094:   Casing Logger 1
 BS  .inch        12  1/4:   Bit Size
 DFT .        lingnosulf.:   Type Fluid In Hole
 DFV .sec              39:   Viscosity
 DFPH.               11.2:   pH
 DFL .mL               22:   Fluid Loss
 WSS .         circulated:   Source Of Sample
 RM  .ohmm           0.55:   Rm
 EMT .F                66:   Rm Meas. Temp.
 RMF .ohmm           0.29:   Rmf
 MFT .F                66:   Rmf Meas. Temp.
 RMC .ohmm           0.87:   Rmc
 MCST.F                66:   Rmc Meas. Temp.
 MFSS.                  M:   Source Rmf.
 MCSS.                  M:   Source Rmc.
 RMB .ohmm           0.17:   Rm. At BHT
 BHT .F               219:   BHT.
 MRT .F               219:   Maximum Recorded Temp.
 ENGI.             Bening:   Recorded By
 WITN.           McCormic:   Witnessed By
 DGBY.   Rutledge & McCoy:   Digitized By
#--RUN 3---   ------------   The following are for Run 3---
 RUN .             3.0000:   Run 3
 DATE.mm/dd/yyyy 03/04/1974:   Date Logged
 DD  .ft            19913:   Depth Driller
 DL  .ft            19393:   Depth Logger
 BLI .ft            19392:   Bottom Log Interval
 TLI .ft            16961:   Top Log Interval
 CSS .inch        10  3/4:   Casing Size
 CTD1.ft            16975:   Casing Driller 1
 CTL1.ft            16954:   Casing Logger 1
 BS  .inch         8  3/4:   Bit Size
 DFT .        lingnosulf.:   Type Fluid In Hole
 DFV .sec              49:   Viscosity
 DFPH.               10.8:   pH
 DFL .mL              5.8:   Fluid Loss
 WSS .         circulated:   Source Of Sample
 RM  .ohmm           0.69:   Rm
 EMT .F                72:   Rm Meas. Temp.
 RMF .ohmm           0.32:   Rmf
 MFT .F                80:   Rmf Meas. Temp.
 RMC .ohmm           1.09:   Rmc
 MCST.F                80:   Rmc Meas. Temp.
 MFSS.                  m:   Source Rmf.
 MCSS.                  m:   Source Rmc.
 RMB .ohmm           0.18:   Rm. At BHT
 BHT .F               262:   BHT.
 MRT .F               262:   Maximum Recorded Temp.
 ENGI.             Cannan:   Recorded By
 WITN.           McCormic:   Witnessed By
 DGBY.   Rutledge & McCoy:   Digitized By
#--RUN 4---   ------------   The following are for Run 4---
 RUN .             4.0000:   Run 4
 DATE.mm/dd/yyyy 05/14/1974:   Date Logged
 DD  .ft            20222:   Depth Driller
 DL  .ft            20194:   Depth Logger
 BLI .ft            20192:   Bottom Log Interval
 TLI .ft            19392:   Top Log Interval
 CSS .inch         10 3/4:   Casing Size
 CTD1.ft            16975:   Casing Driller 1
 CTL1.ft            16954:   Casing Logger 1
 BS  .inch         8  3/4:   Bit Size
 DFT .            aquagel:   Type Fluid In Hole
 DFV .sec              43:   Viscosity
 DFPH.               10.0:   pH
 DFL .mL              6.0:   Fluid Loss
 WSS .         circulated:   Source Of Sample
 RM  .ohmm           0.69:   Rm
 EMT .F                75:   Rm Meas. Temp.
 RMF .ohmm           0.30:   Rmf
 MFT .F                70:   Rmf Meas. Temp.
 RMC .ohmm           0.70:   Rmc
 MCST.F                70:   Rmc Meas. Temp.
 MFSS.                  m:   Source Rmf.
 MCSS.                  m:   Source Rmc.
 RMB .ohmm           0.19:   Rm. At BHT
 BHT .F               272:   BHT.
 MRT .F               272:   Maximum Recorded Temp.
 ENGI.             Cannan:   Recorded By
 WITN.            Garrett:   Witnessed By
 DGBY.   Rutledge & McCoy:   Digitized By
~OTHER INFORMATION
# Run 3 - at 16950 there is a scale change from 8-18 to 6-16.
# Run 4 - at 19390
~A  DEPTH       GR       RHOB
# ...
17075.5640    39.7100     2.6813
17076.0640    39.2519     2.6944
17076.5640    38.7925     2.7006
17077.0640    38.5677     2.6976
17077.5640    38.8051     2.6868
17078.0640    39.7381     2.6961
17078.5640    41.1557     2.7022
17079.0640    45.7785     2.7046
17079.5640    50.1891     2.6931
17080.0640    60.1637     2.6908
17080.5640    64.3425     2.6900
17081.0640    65.5059     2.6842
17081.5640    61.5716     2.6762
17082.0640    57.8400     2.6909
17082.5640    54.2784     2.6924
17083.0640    55.0983     2.6924
17083.5640    57.8860     2.6840
17084.0640    59.0508     2.6755
17084.5640    60.6793     2.6875
17085.0640    62.0760     2.6956
17085.5640    63.2408     2.7010
17086.0640    64.4057     2.6918
17086.5640    64.1793     2.6841
17087.0640    63.7226     2.6816
17087.5640    62.8009     2.6958
17088.0640    61.4155     2.7011
17088.5640    58.8708     2.6912
17089.0640    56.3262     2.6858
17089.5640    52.5753     2.7074
17090.0640    48.6882     2.6982
17090.5640    44.9843     2.6943
17091.0640    45.6854     2.6805
17091.5640    46.3866     2.6813
17092.0640    44.3056     2.6759
17092.5640    42.9202     2.6721
17093.0640    40.8393     2.6675
17093.5640    41.5723     2.6452
17094.0640    43.4021     2.6445
17094.5640    44.7988     2.6537
17095.0640    46.4272     2.6768
17095.5640    47.1283     2.6830
17096.0640    46.2066     2.6769
17096.5640    43.1983     2.6861
17097.0640    42.7402     2.6785
17097.5640    43.2109     2.6794
17098.0640    44.1439     2.6847
17098.5640    45.5405     2.6901
17099.0640    46.9372     2.6847
17099.5640    46.7095     2.6770
17100.0640    46.3653     2.6701
17100.5640    45.8002     2.6563
17101.0640    45.2351     2.6617
17101.5640    44.6701     2.6764
17102.0640    44.7829     2.6695
17102.5640    47.0405     2.6633
17103.0640    49.2980     2.6649
17103.5640    51.5555     2.6634
17104.0640    53.8130     2.6642
17104.5640    56.0706     2.6757
17105.0640    58.3281     2.6896
17105.5640    60.5856     2.6919
17106.0640    62.8432     2.6927
17106.5640    65.1007     2.6851
17107.0640    67.3582     2.6581
17107.5640    69.6157     2.6487
17108.0640    71.8733     2.6420
17108.5640    74.2412     2.6445
17109.0640    73.0718     2.6513
17109.5640    72.5980     2.6581
17110.0640    73.0515     2.6612
17110.5640    73.2732     2.6728
17111.0640    74.4223     2.6805
17111.5640    72.1950     2.6982
17112.0640    70.1549     2.7067
17112.5640    68.1148     2.6982
17113.0640    66.0747     2.6929
17113.5640    64.0346     2.6897
17114.0640    61.9945     2.6775
17114.5640    59.9544     2.6629
17115.0640    57.9143     2.6667
17115.5640    55.8742     2.6652
17116.0640    53.8341     2.6606
17116.5640    51.7940     2.6529
17117.0640    49.7539     2.6499
17117.5640    47.7138     2.6562
17118.0640    45.6737     2.6822
17118.5640    43.6336     2.6830
17119.0640    41.5935     2.6800
17119.5640    39.7007     2.6861
17120.0640    43.5780     2.6731
17120.5640    47.1942     2.6561
17121.0640    50.8103     2.6585
17121.5640    54.4265     2.6608
17122.0640    58.0427     2.6431
17122.5640    61.6589     2.6339
17123.0640    62.4923     2.6462
17123.5640    59.5418     2.6485
17124.0640    56.5912     2.6532
17124.5640    53.6407     2.6640
17125.0640    50.6902     2.6724
17125.5640    47.7396     2.6796
17126.0640    48.9445     2.6979
17126.5640    54.1466     2.7141
17127.0640    59.3487     2.7179
17127.5640    64.5508     2.6871
17128.0640    69.7529     2.6648
17128.5640    74.9550     2.6618
17129.0640    80.1571     2.6556
17129.5640    85.3592     2.6440
17130.0640    90.5613     2.6394
17130.5640    95.7634     2.6403
17131.0640   100.9655     2.6326
17131.5640   101.6767     2.6188
17132.0640    98.9763     2.6226
17132.5640    96.2759     2.6172
17133.0640    93.5755     2.6096
17133.5640    90.8751     2.6150
17134.0640    88.1747     2.6211
17134.5640    85.4743     2.6319
17135.0640    82.7739     2.6412
17135.5640    82.6871     2.6535
17136.0640    85.5866     2.6651
17136.5640    88.4860     2.6582
17137.0640    91.3854     2.6443
17137.5640    94.7323     2.6397
17138.0640    92.8873     2.6476
17138.5640    90.7055     2.6567
17139.0640    88.5237     2.6513
17139.5640    86.3419     2.6313
17140.0640    84.1601     2.6467
17140.5640    81.9783     2.6614
17141.0640    79.7965     2.6660
17141.5640    77.6147     2.6552
17142.0640    75.4329     2.6717
17142.5640    73.2511     2.6776
17143.0640    71.0693     2.6676
17143.5640    68.8875     2.6499
17144.0640    66.7056     2.6399
17144.5640    64.6814     2.6422
17145.0640    67.2998     2.6569
17145.5640    69.7419     2.6669
17146.0640    70.5436     2.6692
17146.5640    66.0429     2.6700
17147.0640    61.5423     2.6723
17147.5640    57.0416     2.7122
17148.0640    52.5409     2.7209
17148.5640    48.0402     2.7147
17149.0640    42.7921     2.7094
17149.5640    46.9874     2.6894
17150.0640    52.0182     2.6940
17150.5640    57.0491     2.6917
17151.0640    62.0799     2.6809
17151.5640    67.1107     2.6873
17152.0640    72.1415     2.6995
17152.5640    74.2501     2.7079
17153.0640    70.9210     2.7118
17153.5640    67.5919     2.7064
17154.0640    64.2629     2.7126
17154.5640    60.9338     2.7095
17155.0640    57.6047     2.7034
17155.5640    54.2756     2.7080
17156.0640    50.9466     2.7070
17156.5640    47.6175     2.6911
17157.0640    44.2884     2.6965
17157.5640    43.0799     2.6888
17158.0640    42.8379     2.6996
17158.5640    42.7957     2.6927
17159.0640    41.4241     2.6812
17159.5640    42.1094     2.6812
17160.0640    42.3311     2.6772
17160.5640    42.3210     2.6720
17161.0640    42.0790     2.6759
17161.5640    41.3733     2.6651
17162.0640    41.5950     2.6566
17162.5640    41.8259     2.6505
17163.0640    42.7658     2.6775
17163.5640    45.0396     2.6821
17164.0640    45.4957     2.6878
17164.5640    45.4831     2.7052
17165.0640    45.0092     2.7106
17165.5640    43.3762     2.6929
17166.0640    41.5113     2.6930
17166.5640    40.8057     2.6953
17167.0640    40.0999     2.6976
17167.5640    40.1286     2.7015
17168.0640    41.0045     2.6952
17168.5640    41.9218     2.6930
17169.0640    42.6097     2.6815
17169.5640    40.4042     2.6823
17170.0640    36.9587     2.6931
17170.5640    34.6939     2.7139
17171.0640    36.9000     2.7108
17171.5640    39.1060     2.7053
17172.0640    41.3121     2.7093
17172.5640    43.5181     2.7046
17173.0640    45.7242     2.7001
17173.5640    47.9302     2.6955
17174.0640    50.1363     2.6909
17174.5640    52.3423     2.6948
17175.0640    54.5484     2.6909
17175.5640    56.7544     2.6886
17176.0640    58.9605     2.6894
17176.5640    61.1665     2.6876
17177.0640    63.3726     2.6825
17177.5640    65.5786     2.6941
17178.0640    67.7847     2.6964
17178.5640    66.5747     2.6964
17179.0640    64.0913     2.6995
17179.5640    61.6079     2.6964
17180.0640    59.1245     2.6980
17180.5640    56.6412     2.6899
17181.0640    54.1578     2.6826
17181.5640    51.6744     2.6850
17182.0640    49.0599     2.6904
17182.5640    49.5355     2.6996
17183.0640    50.2099     2.7027
17183.5640    47.5010     2.7058
17184.0640    44.5515     2.7058
17184.5640    46.3288     2.6995
17185.0640    48.1060     2.6943
17185.5640    49.8832     2.6859
17186.0640    51.6605     2.6951
17186.5640    53.4762     2.7051
17187.0640    53.1274     2.7098
17187.5640    52.4217     2.6998
17188.0640    53.5707     2.6913
17188.5640    52.8651     2.6983
17189.0640    53.0893     2.6914
17189.5640    53.5428     2.6975
17190.0640    52.9433     2.7022
17190.5640    53.9837     2.7029
17191.0640    53.7413     2.7014
17191.5640    54.1927     2.7037
17192.0640    56.5009     2.6922
17192.5640    57.6500     2.6939
17193.0640    56.7125     2.6976
17193.5640    54.1379     2.6976
17194.0640    51.3030     2.6784
17194.5640    48.4680     2.6723
17195.0640    45.6330     2.6800
17195.5640    42.7980     2.6860
17196.0640    39.9630     2.6995
17196.5640    38.4897     2.7262
