~VERSION INFORMATION
 VERS.               2.10:   CWLS LOG ASCII STANDARD - VERSION 2.10
 WRAP.                 NO:   ONE LINE PER DEPTH STEP
~WELL INFORMATION
#MNEM.UNIT      DATA TYPE    INFORMATION
#----------   ------------   ------------------------------
 STRT.F        11000.5654:   START DEPTH
 STOP.F        20211.6523:   STOP DEPTH
 STEP.F            0.5000:   STEP LENGTH
 NULL.          -999.2500:   NO VALUE
 COMP. Exxon Company,  USA:   COMPANY
 WELL.    Gainer Et Al #1:   WELL
 FLD .            Wildcat:   FIELD
 LOC .                   :   LOCATION
 STAT.      West Virginia:   STATE
 COUN.            Calhoun:   COUNTY
 SRVC.       Schlumberger:   SERVICE COMPANY
 DATE.         03/02/1974:   LOGDATE
~CURVE INFORMATION
#MNEM.UNIT       API CODE    CURVE DESCRIPTION
#----------   ------------   ------------------------------
 DEPT.F                  :
 GR  .GAPI   60 310 00 00:   Gamma Ray
 RHOB.gm/cc  42 350 01 00:   Bulk Density
~PARAMETER INFORMATION
#MNEM.UNIT          VALUE    DESCRIPTION
#----------   ------------   ------------------------------
 EKB .F         1230.0000:   Kelly bushing
 EGL .F         1203.0000:   Ground level
 EDF .F         1228.0000:   Drilling floor
 EPD .F         1203.0000:   Permanent datum
 TD  .F            0.0000:   Total depth
 NRUN.             4.0000:   Number of Runs
#--RUN 1---   ------------   The following are for Run 1---
 RUN .             1.0000:   Run 1
#--RUN 2---   ------------   The following are for Run 2---
 RUN .             2.0000:   Run 2
 DATE.mm/dd/yyyy 03/02/1974:   Date Logged
 DD  .ft            16978:   Depth Driller
 DL  .ft            16962:   Depth Logger
 BLI .ft            16961:   Bottom Log Interval
 TLI .ft            14004:   Top Log Interval
 CSS .inch        13  5/8:   Casing Size
 CTD1.ft            11096:   Casing Driller 1
 CTL1.ft            11094:   Casing Logger 1
 BS  .inch        12  1/4:   Bit Size
 DFT .        lingnosulf.:   Type Fluid In Hole
 DFV .sec              39:   Viscosity
 DFPH.               11.2:   pH
 DFL .mL               22:   Fluid Loss
 WSS .         circulated:   Source Of Sample
 RM  .ohmm           0.55:   Rm
 EMT .F                66:   Rm Meas. Temp.
 RMF .ohmm           0.29:   Rmf
 MFT .F                66:   Rmf Meas. Temp.
 RMC .ohmm           0.87:   Rmc
 MCST.F                66:   Rmc Meas. Temp.
 MFSS.                  M:   Source Rmf.
 MCSS.                  M:   Source Rmc.
 RMB .ohmm           0.17:   Rm. At BHT
 BHT .F               219:   BHT.
 MRT .F               219:   Maximum Recorded Temp.
 ENGI.             Bening:   Recorded By
 WITN.           McCormic:   Witnessed By
 DGBY.   Rutledge & McCoy:   Digitized By
#--RUN 3---   ------------   The following are for Run 3---
 RUN .             3.0000:   Run 3
 DATE.mm/dd/yyyy 03/04/1974:   Date Logged
 DD  .ft            19913:   Depth Driller
 DL  .ft            19393:   Depth Logger
 BLI .ft            19392:   Bottom Log Interval
 TLI .ft            16961:   Top Log Interval
 CSS .inch        10  3/4:   Casing Size
 CTD1.ft            16975:   Casing Driller 1
 CTL1.ft            16954:   Casing Logger 1
 BS  .inch         8  3/4:   Bit Size
 DFT .        lingnosulf.:   Type Fluid In Hole
 DFV .sec              49:   Viscosity
 DFPH.               10.8:   pH
 DFL .mL              5.8:   Fluid Loss
 WSS .         circulated:   Source Of Sample
 RM  .ohmm           0.69:   Rm
 EMT .F                72:   Rm Meas. Temp.
 RMF .ohmm           0.32:   Rmf
 MFT .F                80:   Rmf Meas. Temp.
 RMC .ohmm           1.09:   Rmc
 MCST.F                80:   Rmc Meas. Temp.
 MFSS.                  m:   Source Rmf.
 MCSS.                  m:   Source Rmc.
 RMB .ohmm           0.18:   Rm. At BHT
 BHT .F               262:   BHT.
 MRT .F               262:   Maximum Recorded Temp.
 ENGI.             Cannan:   Recorded By
 WITN.           McCormic:   Witnessed By
 DGBY.   Rutledge & McCoy:   Digitized By
#--RUN 4---   ------------   The following are for Run 4---
 RUN .             4.0000:   Run 4
 DATE.mm/dd/yyyy 05/14/1974:   Date Logged
 DD  .ft            20222:   Depth Driller
 DL  .ft            20194:   Depth Logger
 BLI .ft            20192:   Bottom Log Interval
 TLI .ft            19392:   Top Log Interval
 CSS .inch         10 3/4:   Casing Size
 CTD1.ft            16975:   Casing Driller 1
 CTL1.ft            16954:   Casing Logger 1
 BS  .inch         8  3/4:   Bit Size
 DFT .            aquagel:   Type Fluid In Hole
 DFV .sec              43:   Viscosity
 DFPH.               10.0:   pH
 DFL .mL              6.0:   Fluid Loss
 WSS .         circulated:   Source Of Sample
 RM  .ohmm           0.69:   Rm
 EMT .F                75:   Rm Meas. Temp.
 RMF .ohmm           0.30:   Rmf
 MFT .F                70:   Rmf Meas. Temp.
 RMC .ohmm           0.70:   Rmc
 MCST.F                70:   Rmc Meas. Temp.
 MFSS.                  m:   Source Rmf.
 MCSS.                  m:   Source Rmc.
 RMB .ohmm           0.19:   Rm. At BHT
 BHT .F               272:   BHT.
 MRT .F               272:   Maximum Recorded Temp.
 ENGI.             Cannan:   Recorded By
 WITN.            Garrett:   Witnessed By
 DGBY.   Rutledge & McCoy:   Digitized By
~OTHER INFORMATION
# Run 3 - at 16950 there is a scale change from 8-18 to 6-16.
# Run 4 - at 19390
~A  DEPTH       GR       RHOB
# ...
19505.5640    58.3073     1.5129
19506.0640    57.5918     1.5290
19506.5640    57.1017     1.5098
19507.0640    55.7022     1.4930
19507.5640    54.3450     1.5022
19508.0640    53.4279     1.5223
19508.5640    53.4353     1.5300
19509.0640    54.3338     1.5124
19509.5640    56.4548     1.5078
19510.0640    57.3867     1.4992
19510.5640    57.3942     1.4917
19511.0640    57.1540     1.4856
19511.5640    56.2552     1.4895
19512.0640    55.9296     1.4950
19512.5640    56.0390     1.4935
19513.0640    56.0464     1.4974
19513.5640    56.0539     1.5020
19514.0640    55.5990     1.5075
19514.5640    55.0369     1.5137
19515.0640    54.0951     1.5291
19515.5640    52.5388     1.5385
19516.0640    51.2374     1.5184
19516.5640    51.9400     1.5339
19517.0640    54.0276     1.5501
19517.5640    58.8886     1.5778
19518.0640    61.6696     1.5787
19518.5640    63.5260     1.5872
19519.0640    65.1624     1.5749
19519.5640    66.6164     1.5726
19520.0640    67.7085     1.5665
19520.5640    64.0198     1.5758
19521.0640    62.6405     1.5812
19521.5640    62.8790     1.5798
19522.0640    64.2732     1.5759
19522.5640    64.3364     1.5729
19523.0640    63.3618     1.6014
19523.5640    62.3835     1.6017
19524.0640    60.1445     1.5925
19524.5640    58.5341     1.5869
19525.0640    56.4614     1.5985
19525.5640    53.9264     1.5963
19526.0640    50.2359     1.5863
19526.5640    48.8563     1.5771
19527.0640    48.8640     1.5864
19527.5640    49.1088     1.5911
19528.0640    49.3429     1.5780
19528.5640    49.5815     1.5650
19529.0640    50.5134     1.5743
19529.5640    51.9076     1.6000
19530.0640    52.9082     1.6129
19530.5640    54.2337     1.6060
19531.0640    55.3968     1.5953
19531.5640    55.6355     1.5907
19532.0640    52.4089     1.5939
19532.5640    52.1833     1.5852
19533.0640    53.5793     1.5754
19533.5640    55.4358     1.5755
19534.0640    57.0611     1.5771
19534.5640    55.9129     1.5921
19535.0640    54.3024     1.6139
19535.5640    52.4609     1.6326
19536.0640    54.5503     1.6365
19536.5640    55.2511     1.6419
19537.0640    55.7207     1.6112
19537.5640    56.4216     1.5966
19538.0640    56.8912     1.6034
19538.5640    57.5920     1.6214
19539.0640    57.1372     1.6306
19539.5640    55.9890     1.5906
19540.0640    55.2643     1.5776
19540.5640    54.1567     1.5569
19541.0640    53.3718     1.5342
19541.5640    52.7830     1.5423
19542.0640    52.5593     1.5632
19542.5640    53.4931     1.5717
19543.0640    54.8872     1.5740
19543.5640    58.0952     1.5850
19544.0640    61.3738     1.5980
19544.5640    64.6525     1.5731
19545.0640    67.9311     1.4618
19545.5640    71.2097     1.4488
19546.0640    74.4883     1.3549
19546.5640    77.7669     1.3621
19547.0640    81.0455     1.3750
19547.5640    84.3241     1.3781
19548.0640    87.0904     1.4051
19548.5640    87.0978     1.4690
19549.0640    87.1065     1.5330
19549.5640    87.1133     1.5970
19550.0640    87.1820     1.6501
19550.5640    87.3594     1.5878
19551.0640    87.5982     1.5856
19551.5640    87.8376     1.5833
19552.0640    88.1654     1.5765
19552.5640    88.5951     1.5564
19553.0640    89.2467     1.5362
19553.5640    89.6172     1.5396
19554.0640    89.9553     1.5886
19554.5640    89.9641     1.6875
19555.0640    89.0471     1.5867
19555.5640    87.2055     1.5106
19556.0640    85.1328     1.4721
19556.5640    83.0601     1.4929
19557.0640    81.2106     1.5461
19557.5640    77.0322     1.6090
19558.0640    72.8539     1.6732
19558.5640    68.6755     1.6941
19559.0640    64.4971     1.6756
19559.5640    60.3187     1.6088
19560.0640    58.4986     1.5517
19560.5640    63.4009     1.5983
19561.0640    68.3031     1.6357
19561.5640    73.2053     1.7120
19562.0640    78.1075     1.6905
19562.5640    83.3835     1.7006
19563.0640    83.1598     1.7052
19563.5640    81.5493     1.6852
19564.0640    79.6567     1.6668
19564.5640    75.7612     1.6545
19565.0640    71.8213     1.6477
19565.5640    67.8814     1.6277
19566.0640    63.9415     1.6208
19566.5640    60.0016     1.6108
19567.0640    57.3351     1.5986
19567.5640    56.4178     1.5748
19568.0640    56.8933     1.5756
19568.5640    57.8553     1.5502
19569.0640    59.9090     1.5533
19569.5640    59.4542     1.5349
19570.0640    58.9994     1.5254
19570.5640    57.6201     1.5391
19571.0640    57.1634     1.5628
19571.5640    57.4038     1.5759
19572.0640    56.9481     1.5906
19572.5640    56.4633     1.6022
19573.0640    54.8856     1.6276
19573.5640    53.5062     1.6065
19574.0640    51.8958     1.6146
19574.5640    51.2080     1.6278
19575.0640    52.1418     1.6193
19575.5640    52.8426     1.6109
19576.0640    53.5434     1.6310
19576.5640    56.4998     1.6426
19577.0640    59.4623     1.6318
19577.5640    62.4247     1.6496
19578.0640    65.3871     1.6527
19578.5640    68.3495     1.6364
19579.0640    71.3119     1.6466
19579.5640    74.2744     1.6355
19580.0640    77.2368     1.6125
19580.5640    80.1992     1.5583
19581.0640    80.3227     1.5449
19581.5640    78.5873     1.5337
19582.0640    77.8070     1.5599
19582.5640    76.9860     1.5838
19583.0640    74.6841     1.5947
19583.5640    70.7624     1.5862
19584.0640    67.3029     1.5601
19584.5640    65.2302     1.5848
19585.0640    64.0820     1.5748
19585.5640    64.3206     1.5957
19586.0640    65.3019     1.5880
19586.5640    65.9533     1.5519
19587.0640    64.3447     1.5519
19587.5640    63.1965     1.5527
19588.0640    60.8927     1.5747
19588.5640    59.7445     1.6233
19589.0640    57.9030     1.6353
19589.5640    57.2986     1.6422
19590.0640    56.9731     1.6300
19590.5640    55.6159     1.5730
19591.0640    54.4677     1.5631
19591.5640    54.0110     1.5762
19592.0640    53.0958     1.5816
19592.5640    52.1769     1.5840
19593.0640    52.0499     1.5278
19593.5640    52.3635     1.4971
19594.0640    52.9095     1.4689
19594.5640    54.5215     1.4102
19595.0640    56.1468     1.3810
19595.5640    58.0033     1.3680
19596.0640    60.3219     1.3734
19596.5640    62.4095     1.3890
19597.0640    62.8773     1.4396
19597.5640    60.8065     1.4901
19598.0640    57.7720     1.5406
19598.5640    50.7569     1.5992
19599.0640    51.3545     1.5647
19599.5640    53.2109     1.5287
19600.0640    54.8362     1.4846
19600.5640    56.1766     1.4883
19601.0640    57.6246     1.4929
19601.5640    56.2453     1.4974
19602.0640    57.6505     1.5294
19602.5640    59.1046     1.5410
19603.0640    61.3541     1.5587
19603.5640    62.2861     1.6491
19604.0640    56.9776     1.7158
19604.5640    54.2116     1.6985
19605.0640    54.2186     1.6812
19605.5640    53.9951     1.6639
19606.0640    53.3076     1.6381
19606.5640    52.6234     1.5742
19607.0640    51.9393     1.5103
19607.5640    51.7138     1.5127
19608.0640    52.1853     1.5466
19608.5640    52.4238     1.5805
19609.0640    53.1246     1.6153
19609.5640    53.8254     1.6345
19610.0640    54.7574     1.6315
19610.5640    55.9448     1.6215
19611.0640    57.3165     1.6092
19611.5640    58.2484     1.6299
19612.0640    59.6426     1.6136
19612.5640    60.5745     1.5968
19613.0640    60.1197     1.5495
19613.5640    58.9715     1.5022
19614.0640    57.8232     1.4978
19614.5640    57.0966     1.5063
19615.0640    54.3731     1.4817
19615.5640    52.7627     1.5294
19616.0640    52.5371     1.5024
19616.5640    52.7775     1.4779
19617.0640    53.4783     1.4718
19617.5640    54.6414     1.4849
19618.0640    57.1912     1.4851
19618.5640    61.6302     1.4804
19619.0640    64.0201     1.4758
19619.5640    66.4101     1.4812
19620.0640    68.8001     1.4968
19620.5640    71.1900     1.5755
19621.0640    73.4164     1.6491
19621.5640    73.6549     1.5833
19622.0640    73.6623     1.5144
19622.5640    72.4954     1.4906
19623.0640    70.5556     1.5053
19623.5640    66.5216     1.5269
19624.0640    59.3642     1.5568
19624.5640    58.9075     1.6481
19625.0640    57.9923     1.6634
19625.5640    57.3045     1.6500
19626.0640    57.5449     1.6440
19626.5640    57.8020     1.6494
