~VERSION INFORMATION
 VERS.               2.10:   CWLS LOG ASCII STANDARD - VERSION 2.10
 WRAP.                 NO:   ONE LINE PER DEPTH STEP
~WELL INFORMATION
#MNEM.UNIT      DATA TYPE    INFORMATION
#----------   ------------   ------------------------------
 STRT.F        11000.5654:   START DEPTH
 STOP.F        20211.6523:   STOP DEPTH
 STEP.F            0.5000:   STEP LENGTH
 NULL.          -999.2500:   NO VALUE
 COMP. Exxon Company,  USA:   COMPANY
 WELL.    Gainer Et Al #1:   WELL
 FLD .            Wildcat:   FIELD
 LOC .                   :   LOCATION
 STAT.      West Virginia:   STATE
 COUN.            Calhoun:   COUNTY
 SRVC.       Schlumberger:   SERVICE COMPANY
 DATE.         03/02/1974:   LOGDATE
~CURVE INFORMATION
#MNEM.UNIT       API CODE    CURVE DESCRIPTION
#----------   ------------   ------------------------------
 DEPT.F                  :
 GR  .GAPI   60 310 00 00:   Gamma Ray
 RHOB.gm/cc  42 350 01 00:   Bulk Density
~PARAMETER INFORMATION
#MNEM.UNIT          VALUE    DESCRIPTION
#----------   ------------   ------------------------------
 EKB .F         1230.0000:   Kelly bushing
 EGL .F         1203.0000:   Ground level
 EDF .F         1228.0000:   Drilling floor
 EPD .F         1203.0000:   Permanent datum
 TD  .F            0.0000:   Total depth
 NRUN.             4.0000:   Number of Runs
#--RUN 1---   ------------   The following are for Run 1---
 RUN .             1.0000:   Run 1
#--RUN 2---   ------------   The following are for Run 2---
 RUN .             2.0000:   Run 2
 DATE.mm/dd/yyyy 03/02/1974:   Date Logged
 DD  .ft            16978:   Depth Driller
 DL  .ft            16962:   Depth Logger
 BLI .ft            16961:   Bottom Log Interval
 TLI .ft            14004:   Top Log Interval
 CSS .inch        13  5/8:   Casing Size
 CTD1.ft            11096:   Casing Driller 1
 CTL1.ft            11094:   Casing Logger 1
 BS  .inch        12  1/4:   Bit Size
 DFT .        lingnosulf.:   Type Fluid In Hole
 DFV .sec              39:   Viscosity
 DFPH.               11.2:   pH
 DFL .mL               22:   Fluid Loss
 WSS .         circulated:   Source Of Sample
 RM  .ohmm           0.55:   Rm
 EMT .F                66:   Rm Meas. Temp.
 RMF .ohmm           0.29:   Rmf
 MFT .F                66:   Rmf Meas. Temp.
 RMC .ohmm           0.87:   Rmc
 MCST.F                66:   Rmc Meas. Temp.
 MFSS.                  M:   Source Rmf.
 MCSS.                  M:   Source Rmc.
 RMB .ohmm           0.17:   Rm. At BHT
 BHT .F               219:   BHT.
 MRT .F               219:   Maximum Recorded Temp.
 ENGI.             Bening:   Recorded By
 WITN.           McCormic:   Witnessed By
 DGBY.   Rutledge & McCoy:   Digitized By
#--RUN 3---   ------------   The following are for Run 3---
 RUN .             3.0000:   Run 3
 DATE.mm/dd/yyyy 03/04/1974:   Date Logged
 DD  .ft            19913:   Depth Driller
 DL  .ft            19393:   Depth Logger
 BLI .ft            19392:   Bottom Log Interval
 TLI .ft            16961:   Top Log Interval
 CSS .inch        10  3/4:   Casing Size
 CTD1.ft            16975:   Casing Driller 1
 CTL1.ft            16954:   Casing Logger 1
 BS  .inch         8  3/4:   Bit Size
 DFT .        lingnosulf.:   Type Fluid In Hole
 DFV .sec              49:   Viscosity
 DFPH.               10.8:   pH
 DFL .mL              5.8:   Fluid Loss
 WSS .         circulated:   Source Of Sample
 RM  .ohmm           0.69:   Rm
 EMT .F                72:   Rm Meas. Temp.
 RMF .ohmm           0.32:   Rmf
 MFT .F                80:   Rmf Meas. Temp.
 RMC .ohmm           1.09:   Rmc
 MCST.F                80:   Rmc Meas. Temp.
 MFSS.                  m:   Source Rmf.
 MCSS.                  m:   Source Rmc.
 RMB .ohmm           0.18:   Rm. At BHT
 BHT .F               262:   BHT.
 MRT .F               262:   Maximum Recorded Temp.
 ENGI.             Cannan:   Recorded By
 WITN.           McCormic:   Witnessed By
 DGBY.   Rutledge & McCoy:   Digitized By
#--RUN 4---   ------------   The following are for Run 4---
 RUN .             4.0000:   Run 4
 DATE.mm/dd/yyyy 05/14/1974:   Date Logged
 DD  .ft            20222:   Depth Driller
 DL  .ft            20194:   Depth Logger
 BLI .ft            20192:   Bottom Log Interval
 TLI .ft            19392:   Top Log Interval
 CSS .inch         10 3/4:   Casing Size
 CTD1.ft            16975:   Casing Driller 1
 CTL1.ft            16954:   Casing Logger 1
 BS  .inch         8  3/4:   Bit Size
 DFT .            aquagel:   Type Fluid In Hole
 DFV .sec              43:   Viscosity
 DFPH.               10.0:   pH
 DFL .mL              6.0:   Fluid Loss
 WSS .         circulated:   Source Of Sample
 RM  .ohmm           0.69:   Rm
 EMT .F                75:   Rm Meas. Temp.
 RMF .ohmm           0.30:   Rmf
 MFT .F                70:   Rmf Meas. Temp.
 RMC .ohmm           0.70:   Rmc
 MCST.F                70:   Rmc Meas. Temp.
 MFSS.                  m:   Source Rmf.
 MCSS.                  m:   Source Rmc.
 RMB .ohmm           0.19:   Rm. At BHT
 BHT .F               272:   BHT.
 MRT .F               272:   Maximum Recorded Temp.
 ENGI.             Cannan:   Recorded By
 WITN.            Garrett:   Witnessed By
 DGBY.   Rutledge & McCoy:   Digitized By
~OTHER INFORMATION
# Run 3 - at 16950 there is a scale change from 8-18 to 6-16.
# Run 4 - at 19390
~A  DEPTH       GR       RHOB
# ...
13430.5650    30.3476     2.8535
13431.0650    30.3743     2.8334
13431.5650    30.8580     2.8406
13432.0650    31.5727     2.8350
13432.5650    32.2875     2.8367
13433.0650    32.5400     2.8476
13433.5650    32.3249     2.8614
13434.0650    32.0994     2.8599
13434.5650    32.6078     2.8607
13435.0650    33.8113     2.8530
13435.5650    34.5012     2.8391
13436.0650    34.7537     2.8322
13436.5650    35.2374     2.8207
13437.0650    33.6408     2.8355
13437.5650    33.4258     2.8454
13438.0650    33.2160     2.8396
13438.5650    33.7050     2.8218
13439.0650    34.8820     2.8039
13439.5650    37.7220     2.7908
13440.0650    38.8592     2.8078
13440.5650    39.1117     2.8194
13441.0650    38.9020     2.8186
13441.5650    37.5313     2.8210
13442.0650    38.0202     2.8334
13442.5650    39.1972     2.8280
13443.0650    40.3742     2.8141
13443.5650    40.6267     2.8026
13444.0650    40.6481     2.7969
13444.5650    39.7503     2.7865
13445.0650    38.6161     2.8050
13445.5650    37.9387     2.8012
13446.0650    37.9655     2.7966
13446.5650    38.2180     2.8074
13447.0650    37.7718     2.8082
13447.5650    36.8731     2.8152
13448.0650    38.7444     2.8638
13448.5650    39.4704     2.8646
13449.0650    39.1795     2.8337
13449.5650    38.8085     2.8181
13450.0650    38.5988     2.7938
13450.5650    38.8566     2.7915
13451.0650    39.3380     2.7923
13451.5650    39.3616     2.8039
13452.0650    38.9207     2.8093
13452.5650    37.3242     2.8232
13453.0650    37.5768     2.8364
13453.5650    37.8292     2.8593
13454.0650    37.3883     2.8595
13454.5650    37.4151     2.8642
13455.0650    37.2000     2.8650
13455.5650    36.9283     2.8465
13456.0650    36.5494     2.8373
13456.5650    37.0383     2.8281
13457.0650    37.5220     2.8189
13457.5650    38.0056     2.8243
13458.0650    38.5138     2.8382
13458.5650    38.7417     2.8483
13459.0650    36.4572     2.8537
13459.5650    34.3984     2.8645
13460.0650    32.8020     2.8645
13460.5650    31.8988     2.8701
13461.0650    31.9202     2.8738
13461.5650    32.1727     2.8592
13462.0650    32.8875     2.8431
13462.5650    33.8706     2.8223
13463.0650    35.7091     2.8277
13463.5650    37.3483     2.8162
13464.0650    38.7564     2.7954
13464.5650    39.7023     2.7877
13465.0650    40.4171     2.7793
13465.5650    38.3583     2.7855
13466.0650    37.3797     2.7949
13466.5650    38.4011     2.8035
13467.0650    39.3472     2.8318
13467.5650    40.0998     2.8349
13468.0650    41.2441     2.8172
13468.5650    41.7277     2.8180
13469.0650    40.8246     2.8258
13469.5650    39.4592     2.8281
13470.0650    39.7117     2.8305
13470.5650    40.6576     2.8359
13471.0650    40.4478     2.8367
13471.5650    39.5447     2.8432
13472.0650    38.8421     2.8468
13472.5650    37.9696     2.8322
13473.0650    37.9963     2.8384
13473.5650    37.7812     2.8422
13474.0650    37.8080     2.8322
13474.5650    38.0604     2.8477
13475.0650    37.8453     2.8416
13475.5650    36.0231     2.8239
13476.0650    33.9643     2.8247
13476.5650    34.2433     2.8424
13477.0650    35.6303     2.8510
13477.5650    36.5762     2.8363
13478.0650    34.0552     2.8379
13478.5650    33.3832     2.8179
13479.0650    32.9370     2.8040
13479.5650    32.7272     2.7956
13480.0650    32.9851     2.8064
13480.5650    33.6998     2.8203
13481.0650    35.5702     2.8535
13481.5650    34.6724     2.8481
13482.0650    34.9249     2.8428
13482.5650    35.8708     2.8467
13483.0650    36.5856     2.8375
13483.5650    37.3003     2.8174
13484.0650    38.0151     2.8267
13484.5650    38.9610     2.8298
13485.0650    39.4446     2.8352
13485.5650    39.9285     2.8175
13486.0650    39.6030     2.8145
13486.5650    35.8107     2.8022
13487.0650    36.2997     2.7899
13487.5650    36.5522     2.7911
13488.0650    37.2669     2.8098
13488.5650    37.5194     2.8284
13489.0650    37.3097     2.8131
13489.5650    38.4867     2.8301
13490.0650    39.2090     2.8394
13490.5650    40.4124     2.8290
13491.0650    40.8674     2.8210
13491.5650    41.5768     2.8395
13492.0650    41.8347     2.8364
13492.5650    42.7805     2.8334
13493.0650    44.4198     2.8211
13493.5650    45.5914     2.8149
13494.0650    43.7692     2.8258
13494.5650    41.9416     2.8227
13495.0650    43.4094     2.8228
13495.5650    45.2254     2.8158
13496.0650    46.8647     2.8156
13496.5650    47.5794     2.8213
13497.0650    48.0577     2.8352
13497.5650    46.4666     2.8491
13498.0650    45.5634     2.8391
13498.5650    44.8908     2.8338
13499.0650    43.7572     2.8538
13499.5650    43.2945     2.8492
13500.0650    42.8754     2.8408
13500.5650    41.0931     2.8277
13501.0650    40.3920     2.8309
13501.5650    39.2265     2.8397
13502.0650    38.0610     2.8579
13502.5650    37.5921     2.8726
13503.0650    37.8198     2.8610
13503.5650    38.5342     2.8433
13504.0650    40.8282     2.8364
13504.5650    41.0571     2.8349
13505.0650    40.8192     2.8303
13505.5650    38.9571     2.8219
13506.0650    38.0238     2.7803
13506.5650    38.3366     2.7821
13507.0650    38.9437     2.8011
13507.5650    39.8679     2.8201
13508.0650    40.7922     2.8391
13508.5650    40.7866     2.8581
13509.0650    41.2465     2.8549
13509.5650    41.2420     2.8268
13510.0650    40.3087     2.8257
13510.5650    39.1432     2.8149
13511.0650    37.2811     2.8413
13511.5650    36.0594     2.8560
13512.0650    33.7880     2.8460
13512.5650    30.5327     2.8753
13513.0650    24.2589     2.8907
13513.5650    22.6290     2.8938
13514.0650    21.6957     2.8707
13514.5650    19.8336     2.8885
13515.0650    18.4341     2.8800
13515.5650    17.2385     2.8799
13516.0650    16.8004     2.8616
13516.5650    17.0288     2.8655
13517.0650    17.7202     2.8801
13517.5650    18.8767     2.8894
13518.0650    20.0343     2.8809
13518.5650    20.0287     2.8740
13519.0650    19.5598     2.8532
13519.5650    19.8210     2.8664
13520.0650    20.2474     2.8659
13520.5650    20.4751     2.8772
13521.0650    20.4694     2.8741
13521.5650    22.0903     2.8757
13522.0650    22.7835     2.8514
13522.5650    23.2424     2.8153
13523.0650    23.9418     2.8121
13523.5650    25.1281     2.8238
13524.0650    26.2463     2.8355
13524.5650    28.2953     2.8378
13525.0650    32.2369     2.8234
13525.5650    36.1785     2.8227
13526.0650    40.1201     2.8019
13526.5650    44.0617     2.7888
13527.0650    48.0033     2.7834
13527.5650    49.2024     2.7708
13528.0650    45.7601     2.7142
13528.5650    42.4595     2.6577
13529.0650    39.1589     2.6184
13529.5650    35.8582     2.6430
13530.0650    32.5576     2.6710
13530.5650    29.2052     2.7186
13531.0650    28.7231     2.7603
13531.5650    27.1053     2.7867
13532.0650    26.8686     2.8137
13532.5650    26.8641     2.8076
13533.0650    27.0929     2.8271
13533.5650    27.0873     2.8716
13534.0650    26.8508     2.8655
13534.5650    26.8461     2.8871
13535.0650    26.8331     2.8686
13535.5650    26.1394     2.8421
13536.0650    25.5948     2.8193
13536.5650    24.7372     2.8317
13537.0650    23.3395     2.8417
13537.5650    21.9418     2.8610
13538.0650    21.4729     2.8664
13538.5650    21.2362     2.8541
13539.0650    20.0706     2.8611
13539.5650    19.6007     2.8431
13540.0650    19.8295     2.7689
13540.5650    19.8239     2.6946
13541.0650    20.0527     2.6204
13541.5650    20.0471     2.5914
13542.0650    19.8104     2.6006
13542.5650    21.1991     2.6325
13543.0650    22.6102     2.6948
13543.5650    23.2798     2.7571
13544.0650    23.0420     2.8194
13544.5650    22.8053     2.8271
13545.0650    22.3364     2.8014
13545.5650    22.0997     2.7750
13546.0650    22.3276     2.7584
13546.5650    22.7873     2.7743
13547.0650    23.2472     2.7859
13547.5650    23.7060     2.7589
13548.0650    23.2371     2.7482
13548.5650    23.0004     2.7374
13549.0650    19.0485     2.7313
13549.5650    17.6508     2.6389
13550.0650    17.4141     2.5310
13550.5650    16.9551     2.4669
13551.0650    17.1396     2.4027
13551.5650    17.6979     2.3410
