~VERSION INFORMATION
 VERS.               2.10:   CWLS LOG ASCII STANDARD - VERSION 2.10
 WRAP.                 NO:   ONE LINE PER DEPTH STEP
~WELL INFORMATION
#MNEM.UNIT      DATA TYPE    INFORMATION
#----------   ------------   ------------------------------
 STRT.F        11000.5654:   START DEPTH
 STOP.F        20211.6523:   STOP DEPTH
 STEP.F            0.5000:   STEP LENGTH
 NULL.          -999.2500:   NO VALUE
 COMP. Exxon Company,  USA:   COMPANY
 WELL.    Gainer Et Al #1:   WELL
 FLD .            Wildcat:   FIELD
 LOC .                   :   LOCATION
 STAT.      West Virginia:   STATE
 COUN.            Calhoun:   COUNTY
 SRVC.       Schlumberger:   SERVICE COMPANY
 DATE.         03/02/1974:   LOGDATE
~CURVE INFORMATION
#MNEM.UNIT       API CODE    CURVE DESCRIPTION
#----------   ------------   ------------------------------
 DEPT.F                  :
 GR  .GAPI   60 310 00 00:   Gamma Ray
 RHOB.gm/cc  42 350 01 00:   Bulk Density
~PARAMETER INFORMATION
#MNEM.UNIT          VALUE    DESCRIPTION
#----------   ------------   ------------------------------
 EKB .F         1230.0000:   Kelly bushing
 EGL .F         1203.0000:   Ground level
 EDF .F         1228.0000:   Drilling floor
 EPD .F         1203.0000:   Permanent datum
 TD  .F            0.0000:   Total depth
 NRUN.             4.0000:   Number of Runs
#--RUN 1---   ------------   The following are for Run 1---
 RUN .             1.0000:   Run 1
#--RUN 2---   ------------   The following are for Run 2---
 RUN .             2.0000:   Run 2
 DATE.mm/dd/yyyy 03/02/1974:   Date Logged
 DD  .ft            16978:   Depth Driller
 DL  .ft            16962:   Depth Logger
 BLI .ft            16961:   Bottom Log Interval
 TLI .ft            14004:   Top Log Interval
 CSS .inch        13  5/8:   Casing Size
 CTD1.ft            11096:   Casing Driller 1
 CTL1.ft            11094:   Casing Logger 1
 BS  .inch        12  1/4:   Bit Size
 DFT .        lingnosulf.:   Type Fluid In Hole
 DFV .sec              39:   Viscosity
 DFPH.               11.2:   pH
 DFL .mL               22:   Fluid Loss
 WSS .         circulated:   Source Of Sample
 RM  .ohmm           0.55:   Rm
 EMT .F                66:   Rm Meas. Temp.
 RMF .ohmm           0.29:   Rmf
 MFT .F                66:   Rmf Meas. Temp.
 RMC .ohmm           0.87:   Rmc
 MCST.F                66:   Rmc Meas. Temp.
 MFSS.                  M:   Source Rmf.
 MCSS.                  M:   Source Rmc.
 RMB .ohmm           0.17:   Rm. At BHT
 BHT .F               219:   BHT.
 MRT .F               219:   Maximum Recorded Temp.
 ENGI.             Bening:   Recorded By
 WITN.           McCormic:   Witnessed By
 DGBY.   Rutledge & McCoy:   Digitized By
#--RUN 3---   ------------   The following are for Run 3---
 RUN .             3.0000:   Run 3
 DATE.mm/dd/yyyy 03/04/1974:   Date Logged
 DD  .ft            19913:   Depth Driller
 DL  .ft            19393:   Depth Logger
 BLI .ft            19392:   Bottom Log Interval
 TLI .ft            16961:   Top Log Interval
 CSS .inch        10  3/4:   Casing Size
 CTD1.ft            16975:   Casing Driller 1
 CTL1.ft            16954:   Casing Logger 1
 BS  .inch         8  3/4:   Bit Size
 DFT .        lingnosulf.:   Type Fluid In Hole
 DFV .sec              49:   Viscosity
 DFPH.               10.8:   pH
 DFL .mL              5.8:   Fluid Loss
 WSS .         circulated:   Source Of Sample
 RM  .ohmm           0.69:   Rm
 EMT .F                72:   Rm Meas. Temp.
 RMF .ohmm           0.32:   Rmf
 MFT .F                80:   Rmf Meas. Temp.
 RMC .ohmm           1.09:   Rmc
 MCST.F                80:   Rmc Meas. Temp.
 MFSS.                  m:   Source Rmf.
 MCSS.                  m:   Source Rmc.
 RMB .ohmm           0.18:   Rm. At BHT
 BHT .F               262:   BHT.
 MRT .F               262:   Maximum Recorded Temp.
 ENGI.             Cannan:   Recorded By
 WITN.           McCormic:   Witnessed By
 DGBY.   Rutledge & McCoy:   Digitized By
#--RUN 4---   ------------   The following are for Run 4---
 RUN .             4.0000:   Run 4
 DATE.mm/dd/yyyy 05/14/1974:   Date Logged
 DD  .ft            20222:   Depth Driller
 DL  .ft            20194:   Depth Logger
 BLI .ft            20192:   Bottom Log Interval
 TLI .ft            19392:   Top Log Interval
 CSS .inch         10 3/4:   Casing Size
 CTD1.ft            16975:   Casing Driller 1
 CTL1.ft            16954:   Casing Logger 1
 BS  .inch         8  3/4:   Bit Size
 DFT .            aquagel:   Type Fluid In Hole
 DFV .sec              43:   Viscosity
 DFPH.               10.0:   pH
 DFL .mL              6.0:   Fluid Loss
 WSS .         circulated:   Source Of Sample
 RM  .ohmm           0.69:   Rm
 EMT .F                75:   Rm Meas. Temp.
 RMF .ohmm           0.30:   Rmf
 MFT .F                70:   Rmf Meas. Temp.
 RMC .ohmm           0.70:   Rmc
 MCST.F                70:   Rmc Meas. Temp.
 MFSS.                  m:   Source Rmf.
 MCSS.                  m:   Source Rmc.
 RMB .ohmm           0.19:   Rm. At BHT
 BHT .F               272:   BHT.
 MRT .F               272:   Maximum Recorded Temp.
 ENGI.             Cannan:   Recorded By
 WITN.            Garrett:   Witnessed By
 DGBY.   Rutledge & McCoy:   Digitized By
~OTHER INFORMATION
# Run 3 - at 16950 there is a scale change from 8-18 to 6-16.
# Run 4 - at 19390
~A  DEPTH       GR       RHOB
# ...
18898.0640    42.2051     2.7157
18898.5640    41.7719     2.7261
18899.0640    41.0839     2.7177
18899.5640    41.0926     2.7216
18900.0640    40.8010     2.6986
18900.5640    38.7580     2.6948
18901.0640    39.4354     2.6872
18901.5640    39.7840     2.6896
18902.0640    40.1014     2.6804
18902.5640    40.5392     2.6666
18903.0640    41.2166     2.6659
18903.5640    43.2873     2.6559
18904.0640    44.5409     2.6623
18904.5640    45.1115     2.6738
18905.0640    44.6232     2.6853
18905.5640    43.6753     2.6975
18906.0640    42.9196     2.6911
18906.5640    42.4613     2.7122
18907.0640    41.9974     2.7045
18907.5640    42.2572     2.7362
18908.0640    42.4732     2.7493
18908.5640    42.6385     2.7524
18909.0640    42.6176     2.7278
18909.5640    41.6697     2.7402
18910.0640    41.6506     2.7171
18910.5640    41.6354     2.7062
18911.0640    42.0816     2.7025
18911.5640    41.8303     2.7049
18912.0640    41.3474     2.6849
18912.5640    41.4159     2.6819
18913.0640    41.5456     2.6773
18913.5640    41.0573     2.6673
18914.0640    41.7348     2.6485
18914.5640    42.8766     2.6405
18915.0640    43.8376     2.6513
18915.5640    44.9782     2.6790
18916.0640    46.0749     2.6737
18916.5640    46.7524     2.6168
18917.0640    46.7344     2.6076
18917.5640    46.7142     2.6145
18918.0640    46.6951     2.6169
18918.5640    46.6786     2.6669
18919.0640    46.6569     2.6762
18919.5640    46.4056     2.6632
18920.0640    46.3907     2.6663
18920.5640    46.1400     2.6579
18921.0640    45.4243     2.6672
18921.5640    45.0964     2.6845
18922.0640    44.6895     2.6918
18922.5640    43.9738     2.6773
18923.0640    43.9547     2.6827
18923.5640    43.2390     2.6750
18924.0640    45.6774     2.6720
18924.5640    46.6853     2.6828
18925.0640    47.5998     2.7029
18925.5640    47.8129     2.6952
18926.0640    47.5610     2.7060
18926.5640    47.3103     2.7153
18927.0640    46.9230     2.7061
18927.5640    46.8077     2.7146
18928.0640    46.7886     2.7216
18928.5640    46.7695     2.7206
18929.0640    46.7504     2.7147
18929.5640    47.1957     2.6932
18930.0640    46.9444     2.6901
18930.5640    45.9708     2.7025
18931.0640    45.2803     2.7318
18931.5640    44.4649     2.7345
18932.0640    44.0864     2.7180
18932.5640    44.6932     2.7119
18933.0640    45.5788     2.7050
18933.5640    46.8155     2.7151
18934.0640    47.2638     2.7043
18934.5640    47.7109     2.6836
18935.0640    47.6911     2.6698
18935.5640    47.5538     2.6658
18936.0640    47.0831     2.6503
18936.5640    46.7057     2.6375
18937.0640    45.2934     2.6407
18937.5640    43.9944     2.6461
18938.0640    42.9332     2.6469
18938.5640    41.9853     2.6438
18939.0640    41.4762     2.7024
18939.5640    41.0224     2.6855
18940.0640    40.7629     2.6948
18940.5640    40.1814     2.7179
18941.0640    39.8047     2.7195
18941.5640    39.5518     2.7203
18942.0640    39.3054     2.6966
18942.5640    39.5177     2.6686
18943.0640    39.4991     2.6472
18943.5640    39.4805     2.6365
18944.0640    39.6299     2.6296
18944.5640    40.0309     2.6158
18945.0640    40.1214     2.6275
18945.5640    40.3350     2.6367
18946.0640    40.7843     2.6129
18946.5640    40.9974     2.5983
18947.0640    41.2105     2.5968
18947.5640    40.7222     2.6068
18948.0640    40.7032     2.5876
18948.5640    41.1532     2.5653
18949.0640    41.3663     2.5623
18949.5640    42.1002     2.5827
18950.0640    43.2633     2.6031
18950.5640    44.4264     2.6271
18951.0640    45.5895     2.6387
18951.5640    46.7526     2.6456
18952.0640    47.9156     2.6846
18952.5640    49.0787     2.6980
18953.0640    50.2418     2.6873
18953.5640    51.4049     2.6858
18954.0640    50.9084     2.6651
18954.5640    47.2001     2.6566
18955.0640    46.0458     2.6465
18955.5640    46.7494     2.6521
18956.0640    47.2299     2.6637
18956.5640    48.3887     2.6706
18957.0640    48.3957     2.6468
18957.5640    48.4026     2.6576
18958.0640    45.6244     2.6677
18958.5640    42.8448     2.6747
18959.0640    41.4585     2.6793
18959.5640    40.0721     2.6793
18960.0640    39.3824     2.6447
18960.5640    39.6215     2.6317
18961.0640    39.8605     2.6510
18961.5640    40.7961     2.6495
18962.0640    42.8927     2.6457
18962.5640    43.9753     2.6318
18963.0640    44.3051     2.6488
18963.5640    44.6915     2.6818
18964.0640    45.2617     2.6781
18964.5640    45.4815     2.6920
18965.0640    45.2575     2.6836
18965.5640    45.0305     2.6890
18966.0640    45.0390     2.6952
18966.5640    45.2781     2.7053
18967.0640    45.7493     2.7045
18967.5640    46.6850     2.7084
18968.0640    47.6206     2.6969
18968.5640    49.0206     2.7016
18969.0640    50.6529     2.7001
18969.5640    52.0529     2.6940
18970.0640    53.9209     2.6837
18970.5640    53.9077     2.6474
18971.0640    53.2344     2.6040
18971.5640    52.7786     2.6051
18972.0640    50.6956     2.5795
18972.5640    49.5398     2.5641
18973.0640    50.0128     2.5749
18973.5640    50.4840     2.5703
18974.0640    50.7223     2.5727
18974.5640    50.9621     2.5704
18975.0640    50.7350     2.5991
18975.5640    50.5097     2.6138
18976.0640    50.2857     2.5826
18976.5640    49.5963     2.5559
18977.0640    49.2171     2.5431
18977.5640    48.6721     2.5294
18978.0640    46.5709     2.5337
18978.5640    45.6763     2.5361
18979.0640    44.7560     2.5453
18979.5640    44.5290     2.5331
18980.0640    44.7697     2.5362
18980.5640    46.6342     2.5308
18981.0640    47.8003     2.5317
18981.5640    45.2547     2.5151
18982.0640    44.0988     2.5156
18982.5640    44.1074     2.4671
18983.0640    43.8817     2.4510
18983.5640    44.1211     2.4464
18984.0640    44.5923     2.4426
18984.5640    43.9026     2.4357
18985.0640    43.1891     2.4286
18985.5640    42.2909     2.4242
18986.0640    42.9960     2.4320
18986.5640    43.9317     2.4305
18987.0640    44.6351     2.4243
18987.5640    45.1063     2.4082
18988.0640    45.8390     2.3859
18988.5640    46.2810     2.3535
18989.0640    46.6473     2.3335
18989.5640    47.2235     2.3221
18990.0640    47.4626     2.3114
18990.5640    47.4694     2.3099
18991.0640    47.8180     2.3232
18991.5640    48.1806     2.3457
18992.0640    48.6676     2.3870
18992.5640    49.3896     2.4527
18993.0640    50.5756     2.5582
18993.5640    51.6917     2.6143
18994.0640    53.0918     2.6281
18994.5640    55.4206     2.6204
18995.0640    57.2850     2.6086
18995.5640    58.9173     2.5512
18996.0640    59.1563     2.5351
18996.5640    59.6276     2.5375
18997.0640    58.9378     2.5229
18997.5640    53.8363     2.5252
18998.0640    53.1466     2.5260
18998.5640    52.6890     2.5397
18999.0640    53.1603     2.5376
18999.5640    53.8952     2.5500
19000.0640    54.1124     2.5662
19000.5640    54.3094     2.5301
19001.0640    54.5065     2.5178
19001.5640    54.7093     2.4832
19002.0640    54.4838     2.4640
19002.5640    54.5166     2.4710
19003.0640    54.7263     2.4795
19003.5640    55.1931     2.5003
19004.0640    56.1214     2.5011
19004.5640    57.1805     2.5042
19005.0640    58.4396     2.4950
19005.5640    59.3679     2.4966
19006.0640    63.7577     2.4905
19006.5640    63.0525     2.5028
19007.0640    60.9286     2.5013
19007.5640    59.5589     2.5021
19008.0640    58.2415     2.5152
19008.5640    56.4006     2.5253
19009.0640    54.5597     2.5362
19009.5640    54.1021     2.5384
19010.0640    54.5702     2.5326
19010.5640    54.8062     2.5268
19011.0640    54.5643     2.5205
19011.5640    53.4333     2.5428
19012.0640    52.7449     2.5359
19012.5640    53.2130     2.5390
19013.0640    54.3721     2.5429
19013.5640    52.7619     2.5383
19014.0640    51.6133     2.5437
19014.5640    50.9549     2.5605
19015.0640    50.1257     2.5792
19015.5640    50.0136     2.5946
19016.0640    50.9433     2.5730
19016.5640    49.3331     2.5669
19017.0640    47.2614     2.5581
19017.5640    44.9590     2.5434
19018.0640    43.1180     2.5300
19018.5640    41.5079     2.6163
19019.0640    40.3593     2.6163
