~VERSION INFORMATION
 VERS.               2.10:   CWLS LOG ASCII STANDARD - VERSION 2.10
 WRAP.                 NO:   ONE LINE PER DEPTH STEP
~WELL INFORMATION
#MNEM.UNIT      DATA TYPE    INFORMATION
#----------   ------------   ------------------------------
 STRT.F        11000.5654:   START DEPTH
 STOP.F        20211.6523:   STOP DEPTH
 STEP.F            0.5000:   STEP LENGTH
 NULL.          -999.2500:   NO VALUE
 COMP. Exxon Company,  USA:   COMPANY
 WELL.    Gainer Et Al #1:   WELL
 FLD .            Wildcat:   FIELD
 LOC .                   :   LOCATION
 STAT.      West Virginia:   STATE
 COUN.            Calhoun:   COUNTY
 SRVC.       Schlumberger:   SERVICE COMPANY
 DATE.         03/02/1974:   LOGDATE
~CURVE INFORMATION
#MNEM.UNIT       API CODE    CURVE DESCRIPTION
#----------   ------------   ------------------------------
 DEPT.F                  :
 GR  .GAPI   60 310 00 00:   Gamma Ray
 RHOB.gm/cc  42 350 01 00:   Bulk Density
~PARAMETER INFORMATION
#MNEM.UNIT          VALUE    DESCRIPTION
#----------   ------------   ------------------------------
 EKB .F         1230.0000:   Kelly bushing
 EGL .F         1203.0000:   Ground level
 EDF .F         1228.0000:   Drilling floor
 EPD .F         1203.0000:   Permanent datum
 TD  .F            0.0000:   Total depth
 NRUN.             4.0000:   Number of Runs
#--RUN 1---   ------------   The following are for Run 1---
 RUN .             1.0000:   Run 1
#--RUN 2---   ------------   The following are for Run 2---
 RUN .             2.0000:   Run 2
 DATE.mm/dd/yyyy 03/02/1974:   Date Logged
 DD  .ft            16978:   Depth Driller
 DL  .ft            16962:   Depth Logger
 BLI .ft            16961:   Bottom Log Interval
 TLI .ft            14004:   Top Log Interval
 CSS .inch        13  5/8:   Casing Size
 CTD1.ft            11096:   Casing Driller 1
 CTL1.ft            11094:   Casing Logger 1
 BS  .inch        12  1/4:   Bit Size
 DFT .        lingnosulf.:   Type Fluid In Hole
 DFV .sec              39:   Viscosity
 DFPH.               11.2:   pH
 DFL .mL               22:   Fluid Loss
 WSS .         circulated:   Source Of Sample
 RM  .ohmm           0.55:   Rm
 EMT .F                66:   Rm Meas. Temp.
 RMF .ohmm           0.29:   Rmf
 MFT .F                66:   Rmf Meas. Temp.
 RMC .ohmm           0.87:   Rmc
 MCST.F                66:   Rmc Meas. Temp.
 MFSS.                  M:   Source Rmf.
 MCSS.                  M:   Source Rmc.
 RMB .ohmm           0.17:   Rm. At BHT
 BHT .F               219:   BHT.
 MRT .F               219:   Maximum Recorded Temp.
 ENGI.             Bening:   Recorded By
 WITN.           McCormic:   Witnessed By
 DGBY.   Rutledge & McCoy:   Digitized By
#--RUN 3---   ------------   The following are for Run 3---
 RUN .             3.0000:   Run 3
 DATE.mm/dd/yyyy 03/04/1974:   Date Logged
 DD  .ft            19913:   Depth Driller
 DL  .ft            19393:   Depth Logger
 BLI .ft            19392:   Bottom Log Interval
 TLI .ft            16961:   Top Log Interval
 CSS .inch        10  3/4:   Casing Size
 CTD1.ft            16975:   Casing Driller 1
 CTL1.ft            16954:   Casing Logger 1
 BS  .inch         8  3/4:   Bit Size
 DFT .        lingnosulf.:   Type Fluid In Hole
 DFV .sec              49:   Viscosity
 DFPH.               10.8:   pH
 DFL .mL              5.8:   Fluid Loss
 WSS .         circulated:   Source Of Sample
 RM  .ohmm           0.69:   Rm
 EMT .F                72:   Rm Meas. Temp.
 RMF .ohmm           0.32:   Rmf
 MFT .F                80:   Rmf Meas. Temp.
 RMC .ohmm           1.09:   Rmc
 MCST.F                80:   Rmc Meas. Temp.
 MFSS.                  m:   Source Rmf.
 MCSS.                  m:   Source Rmc.
 RMB .ohmm           0.18:   Rm. At BHT
 BHT .F               262:   BHT.
 MRT .F               262:   Maximum Recorded Temp.
 ENGI.             Cannan:   Recorded By
 WITN.           McCormic:   Witnessed By
 DGBY.   Rutledge & McCoy:   Digitized By
#--RUN 4---   ------------   The following are for Run 4---
 RUN .             4.0000:   Run 4
 DATE.mm/dd/yyyy 05/14/1974:   Date Logged
 DD  .ft            20222:   Depth Driller
 DL  .ft            20194:   Depth Logger
 BLI .ft            20192:   Bottom Log Interval
 TLI .ft            19392:   Top Log Interval
 CSS .inch         10 3/4:   Casing Size
 CTD1.ft            16975:   Casing Driller 1
 CTL1.ft            16954:   Casing Logger 1
 BS  .inch         8  3/4:   Bit Size
 DFT .            aquagel:   Type Fluid In Hole
 DFV .sec              43:   Viscosity
 DFPH.               10.0:   pH
 DFL .mL              6.0:   Fluid Loss
 WSS .         circulated:   Source Of Sample
 RM  .ohmm           0.69:   Rm
 EMT .F                75:   Rm Meas. Temp.
 RMF .ohmm           0.30:   Rmf
 MFT .F                70:   Rmf Meas. Temp.
 RMC .ohmm           0.70:   Rmc
 MCST.F                70:   Rmc Meas. Temp.
 MFSS.                  m:   Source Rmf.
 MCSS.                  m:   Source Rmc.
 RMB .ohmm           0.19:   Rm. At BHT
 BHT .F               272:   BHT.
 MRT .F               272:   Maximum Recorded Temp.
 ENGI.             Cannan:   Recorded By
 WITN.            Garrett:   Witnessed By
 DGBY.   Rutledge & McCoy:   Digitized By
~OTHER INFORMATION
# Run 3 - at 16950 there is a scale change from 8-18 to 6-16.
# Run 4 - at 19390
~A  DEPTH       GR       RHOB
# ...
12823.0650    28.4725     2.7643
12823.5650    26.3923     2.7550
12824.0650    26.1729     2.7612
12824.5650    26.6533     2.7743
12825.0650    25.2728     2.7889
12825.5650    23.6511     2.8059
12826.0650    23.9058     2.8062
12826.5650    24.3856     2.7974
12827.0650    25.7916     2.7804
12827.5650    27.4298     2.7822
12828.0650    27.6748     2.7951
12828.5650    27.2232     2.7827
12829.0650    26.0750     2.7773
12829.5650    24.2302     2.7342
12830.0650    23.0489     2.7010
12830.5650    22.1692     2.6686
12831.0650    21.8958     2.6547
12831.5650    21.7272     2.6817
12832.0650    21.5078     2.7257
12832.5650    20.5950     2.7465
12833.0650    19.2146     2.7526
12833.5650    18.5303     2.7102
12834.0650    18.1966     2.7024
12834.5650    18.0919     2.7027
12835.0650    19.2689     2.7125
12835.5650    19.9783     2.7179
12836.0650    20.6877     2.7033
12836.5650    22.7903     2.6940
12837.0650    23.9641     2.7033
12837.5650    25.1379     2.7179
12838.0650    28.1692     2.7603
12838.5650    29.3504     2.7588
12839.0650    30.3165     2.7626
12839.5650    31.2294     2.7858
12840.0650    30.0812     2.7641
12840.5650    28.9330     2.7640
12841.0650    28.7104     2.7560
12841.5650    28.4942     2.7402
12842.0650    29.2035     2.7310
12842.5650    31.9718     2.7132
12843.0650    39.0253     2.7240
12843.5650    46.0789     2.7302
12844.0650    53.1324     2.7556
12844.5650    60.1859     2.7610
12845.0650    67.2395     2.7556
12845.5650    70.3943     2.7371
12846.0650    70.4073     2.7194
12846.5650    68.1011     2.7302
12847.0650    66.4885     2.7348
12847.5650    65.3403     2.7205
12848.0650    63.2633     2.7178
12848.5650    63.7405     2.7248
12849.0650    65.8431     2.7140
12849.5650    66.3203     2.7178
12850.0650    66.3330     2.7301
12850.5650    66.0289     2.7371
12851.0650    65.8942     2.7209
12851.5650    64.9814     2.7255
12852.0650    63.6010     2.7055
12852.5650    61.5240     2.6823
12853.0650    55.5725     2.6392
12853.5650    48.5371     2.5575
12854.0650    41.5017     2.5150
12854.5650    34.4663     2.6368
12855.0650    27.4309     2.7545
12855.5650    24.2180     2.8181
12856.0650    23.5287     2.8303
12856.5650    23.0512     2.8172
12857.0650    22.3987     2.8211
12857.5650    21.9503     2.8342
12858.0650    21.4955     2.8272
12858.5650    21.0471     2.8203
12859.0650    21.7565     2.8157
12859.5650    22.4659     2.8264
12860.0650    23.4075     2.8473
12860.5650    29.2513     2.8596
12861.0650    30.9032     2.8550
12861.5650    32.2726     2.8426
12862.0650    31.8178     2.8155
12862.5650    31.5984     2.8056
12863.0650    28.1314     2.8079
12863.5650    26.5188     2.8179
12864.0650    26.2989     2.8326
12864.5650    26.0799     2.8472
12865.0650    26.8100     2.8565
12865.5650    28.1986     2.8611
12866.0650    29.3723     2.8464
12866.5650    31.2427     2.8187
12867.0650    32.1843     2.8202
12867.5650    31.5005     2.8110
12868.0650    30.5845     2.8101
12868.5650    28.7397     2.8203
12869.0650    22.4831     2.8177
12869.5650    20.8706     2.8125
12870.0650    21.5831     2.8202
12870.5650    23.4535     2.8279
12871.0650    25.0917     2.8472
12871.5650    26.5288     2.8425
12872.0650    29.0647     2.8233
12872.5650    30.0030     2.8163
12873.0650    28.1614     2.7863
12873.5650    25.1556     2.7456
12874.0650    26.3636     2.7617
12874.5650    27.0420     2.7716
12875.0650    26.1228     2.7772
12875.5650    26.1388     2.7999
12876.0650    26.5064     2.8047
12876.5650    27.3254     2.8024
12877.0650    24.7840     2.8155
12877.5650    22.7070     2.8101
12878.0650    21.7781     2.8201
12878.5650    20.3296     2.8224
12879.0650    19.4946     2.7936
12879.5650    19.2765     2.7338
12880.0650    19.2896     2.7276
12880.5650    19.3040     2.7253
12881.0650    19.5482     2.7245
12881.5650    20.2605     2.7213
12882.0650    20.2733     2.7128
12882.5650    20.5183     2.7016
12883.0650    20.9955     2.7060
12883.5650    21.4726     2.7214
12884.0650    23.8074     2.7438
12884.5650    24.5168     2.7507
12885.0650    24.7618     2.7322
12885.5650    24.7749     2.7576
12886.0650    24.7906     2.7792
12886.5650    24.8034     2.7946
12887.0650    24.5808     2.8096
12887.5650    24.8290     2.8108
12888.0650    24.8417     2.8193
12888.5650    24.6191     2.8278
12889.0650    24.8673     2.8163
12889.5650    25.8200     2.8139
12890.0650    27.0165     2.8039
12890.5650    28.3919     2.7861
12891.0650    29.5657     2.7838
12891.5650    29.8075     2.7915
12892.0650    29.1269     2.7745
12892.5650    27.5143     2.7622
12893.0650    27.7592     2.7699
12893.5650    28.0042     2.7676
12894.0650    28.7267     2.7673
12894.5650    28.4555     2.7877
12895.0650    27.8104     2.7923
12895.5650    27.5910     2.7722
12896.0650    28.3036     2.7876
12896.5650    28.5486     2.8023
12897.0650    28.5614     2.8015
12897.5650    28.1093     2.7999
12898.0650    27.8903     2.7976
12898.5650    27.9034     2.7807
12899.0650    27.9191     2.7876
12899.5650    27.6997     2.7830
12900.0650    27.4803     2.7860
12900.5650    27.7253     2.7884
12901.0650    27.9703     2.7961
12901.5650    28.9119     2.7999
12902.0650    29.1569     2.7824
12902.5650    29.1697     2.7583
12903.0650    29.1828     2.7737
12903.5650    29.1985     2.7860
12904.0650    28.5147     2.7976
12904.5650    27.8309     2.8076
12905.0650    26.4505     2.8130
12905.5650    25.9957     2.8107
12906.0650    26.3361     2.7952
12906.5650    26.6577     2.7636
12907.0650    26.9698     2.7505
12907.5650    27.2451     2.7597
12908.0650    27.6914     2.7616
12908.5650    27.7042     2.7576
12909.0650    27.9492     2.7839
12909.5650    27.9620     2.7947
12910.0650    27.7426     2.7885
12910.5650    26.1300     2.7893
12911.0650    25.6782     2.7955
12911.5650    25.7062     2.8016
12912.0650    25.9393     2.7923
12912.5650    24.5590     2.7798
12913.0650    21.7854     2.7778
12913.5650    20.4050     2.7986
12914.0650    19.9502     2.8194
12914.5650    20.4306     2.8256
12915.0650    20.9077     2.8025
12915.5650    21.8436     2.7917
12916.0650    22.5692     2.7625
12916.5650    23.5035     2.7732
12917.0650    24.4451     2.7809
12917.5650    25.6189     2.7886
12918.0650    26.2214     2.8095
12918.5650    26.8054     2.8249
12919.0650    26.5860     2.8180
12919.5650    26.1344     2.8195
12920.0650    24.5182     2.8452
12920.5650    22.5933     2.8658
12921.0650    20.3710     2.8912
12921.5650    19.9162     2.8673
12922.0650    19.4646     2.8581
12922.5650    19.2452     2.8327
12923.0650    19.4934     2.8211
12923.5650    19.7384     2.8078
12924.0650    20.3226     2.8049
12924.5650    21.1665     2.8072
12925.0650    22.3987     2.8096
12925.5650    24.2045     2.8165
12926.0650    25.1461     2.8103
12926.5650    26.0877     2.8064
12927.0650    27.4937     2.8173
12927.5650    28.4353     2.8227
12928.0650    27.7515     2.8173
12928.5650    26.1389     2.8235
12929.0650    25.9195     2.8297
12929.5650    26.6321     2.8320
12930.0650    27.3414     2.8251
12930.5650    28.0508     2.8343
12931.0650    29.2246     2.8366
12931.5650    30.1662     2.8280
12932.0650    30.8756     2.8081
12932.5650    31.0893     2.8043
12933.0650    31.2518     2.8043
12933.5650    30.8919     2.8074
12934.0650    30.2301     2.8143
12934.5650    30.0108     2.8159
12935.0650    30.2589     2.8080
12935.5650    30.5025     2.7874
12936.0650    30.5167     2.7743
12936.5650    29.6007     2.7828
12937.0650    28.4525     2.7936
12937.5650    26.8290     2.8020
12938.0650    24.1506     2.8036
12938.5650    20.8316     2.8160
12939.0650    19.9156     2.8329
12939.5650    16.9098     2.8291
12940.0650    15.0650     2.8491
12940.5650    13.9168     2.8699
12941.0650    13.4620     2.8846
12941.5650    15.3355     2.9047
12942.0650    17.9213     2.9347
12942.5650    20.0766     2.9448
12943.0650    22.5753     2.9340
12943.5650    25.6066     2.9047
12944.0650    29.0992     2.8785
