~VERSION INFORMATION
 VERS.               2.10:   CWLS LOG ASCII STANDARD - VERSION 2.10
 WRAP.                 NO:   ONE LINE PER DEPTH STEP
~WELL INFORMATION
#MNEM.UNIT      DATA TYPE    INFORMATION
#----------   ------------   ------------------------------
 STRT.F        11000.5654:   START DEPTH
 STOP.F        20211.6523:   STOP DEPTH
 STEP.F            0.5000:   STEP LENGTH
 NULL.          -999.2500:   NO VALUE
 COMP. Exxon Company,  USA:   COMPANY
 WELL.    Gainer Et Al #1:   WELL
 FLD .            Wildcat:   FIELD
 LOC .                   :   LOCATION
 STAT.      West Virginia:   STATE
 COUN.            Calhoun:   COUNTY
 SRVC.       Schlumberger:   SERVICE COMPANY
 DATE.         03/02/1974:   LOGDATE
~CURVE INFORMATION
#MNEM.UNIT       API CODE    CURVE DESCRIPTION
#----------   ------------   ------------------------------
 DEPT.F                  :
 GR  .GAPI   60 310 00 00:   Gamma Ray
 RHOB.gm/cc  42 350 01 00:   Bulk Density
~PARAMETER INFORMATION
#MNEM.UNIT          VALUE    DESCRIPTION
#----------   ------------   ------------------------------
 EKB .F         1230.0000:   Kelly bushing
 EGL .F         1203.0000:   Ground level
 EDF .F         1228.0000:   Drilling floor
 EPD .F         1203.0000:   Permanent datum
 TD  .F            0.0000:   Total depth
 NRUN.             4.0000:   Number of Runs
#--RUN 1---   ------------   The following are for Run 1---
 RUN .             1.0000:   Run 1
#--RUN 2---   ------------   The following are for Run 2---
 RUN .             2.0000:   Run 2
 DATE.mm/dd/yyyy 03/02/1974:   Date Logged
 DD  .ft            16978:   Depth Driller
 DL  .ft            16962:   Depth Logger
 BLI .ft            16961:   Bottom Log Interval
 TLI .ft            14004:   Top Log Interval
 CSS .inch        13  5/8:   Casing Size
 CTD1.ft            11096:   Casing Driller 1
 CTL1.ft            11094:   Casing Logger 1
 BS  .inch        12  1/4:   Bit Size
 DFT .        lingnosulf.:   Type Fluid In Hole
 DFV .sec              39:   Viscosity
 DFPH.               11.2:   pH
 DFL .mL               22:   Fluid Loss
 WSS .         circulated:   Source Of Sample
 RM  .ohmm           0.55:   Rm
 EMT .F                66:   Rm Meas. Temp.
 RMF .ohmm           0.29:   Rmf
 MFT .F                66:   Rmf Meas. Temp.
 RMC .ohmm           0.87:   Rmc
 MCST.F                66:   Rmc Meas. Temp.
 MFSS.                  M:   Source Rmf.
 MCSS.                  M:   Source Rmc.
 RMB .ohmm           0.17:   Rm. At BHT
 BHT .F               219:   BHT.
 MRT .F               219:   Maximum Recorded Temp.
 ENGI.             Bening:   Recorded By
 WITN.           McCormic:   Witnessed By
 DGBY.   Rutledge & McCoy:   Digitized By
#--RUN 3---   ------------   The following are for Run 3---
 RUN .             3.0000:   Run 3
 DATE.mm/dd/yyyy 03/04/1974:   Date Logged
 DD  .ft            19913:   Depth Driller
 DL  .ft            19393:   Depth Logger
 BLI .ft            19392:   Bottom Log Interval
 TLI .ft            16961:   Top Log Interval
 CSS .inch        10  3/4:   Casing Size
 CTD1.ft            16975:   Casing Driller 1
 CTL1.ft            16954:   Casing Logger 1
 BS  .inch         8  3/4:   Bit Size
 DFT .        lingnosulf.:   Type Fluid In Hole
 DFV .sec              49:   Viscosity
 DFPH.               10.8:   pH
 DFL .mL              5.8:   Fluid Loss
 WSS .         circulated:   Source Of Sample
 RM  .ohmm           0.69:   Rm
 EMT .F                72:   Rm Meas. Temp.
 RMF .ohmm           0.32:   Rmf
 MFT .F                80:   Rmf Meas. Temp.
 RMC .ohmm           1.09:   Rmc
 MCST.F                80:   Rmc Meas. Temp.
 MFSS.                  m:   Source Rmf.
 MCSS.                  m:   Source Rmc.
 RMB .ohmm           0.18:   Rm. At BHT
 BHT .F               262:   BHT.
 MRT .F               262:   Maximum Recorded Temp.
 ENGI.             Cannan:   Recorded By
 WITN.           McCormic:   Witnessed By
 DGBY.   Rutledge & McCoy:   Digitized By
#--RUN 4---   ------------   The following are for Run 4---
 RUN .             4.0000:   Run 4
 DATE.mm/dd/yyyy 05/14/1974:   Date Logged
 DD  .ft            20222:   Depth Driller
 DL  .ft            20194:   Depth Logger
 BLI .ft            20192:   Bottom Log Interval
 TLI .ft            19392:   Top Log Interval
 CSS .inch         10 3/4:   Casing Size
 CTD1.ft            16975:   Casing Driller 1
 CTL1.ft            16954:   Casing Logger 1
 BS  .inch         8  3/4:   Bit Size
 DFT .            aquagel:   Type Fluid In Hole
 DFV .sec              43:   Viscosity
 DFPH.               10.0:   pH
 DFL .mL              6.0:   Fluid Loss
 WSS .         circulated:   Source Of Sample
 RM  .ohmm           0.69:   Rm
 EMT .F                75:   Rm Meas. Temp.
 RMF .ohmm           0.30:   Rmf
 MFT .F                70:   Rmf Meas. Temp.
 RMC .ohmm           0.70:   Rmc
 MCST.F                70:   Rmc Meas. Temp.
 MFSS.                  m:   Source Rmf.
 MCSS.                  m:   Source Rmc.
 RMB .ohmm           0.19:   Rm. At BHT
 BHT .F               272:   BHT.
 MRT .F               272:   Maximum Recorded Temp.
 ENGI.             Cannan:   Recorded By
 WITN.            Garrett:   Witnessed By
 DGBY.   Rutledge & McCoy:   Digitized By
~OTHER INFORMATION
# Run 3 - at 16950 there is a scale change from 8-18 to 6-16.
# Run 4 - at 19390
~A  DEPTH       GR       RHOB
# ...
12215.5650    27.6749     2.3816
12216.0650    28.1521     2.2767
12216.5650    24.9199     2.2213
12217.0650    21.3526     2.3314
12217.5650    14.0539     2.4416
12218.0650    12.6730     2.5897
12218.5650    14.4547     2.7416
12219.0650    15.9492     2.7860
12219.5650    17.0563     2.7783
12220.0650    18.5276     2.7552
12220.5650    19.4684     2.7445
12221.0650    20.4157     2.7314
12221.5650    21.3496     2.7226
12222.0650    21.5978     2.7399
12222.5650    21.3761     2.7463
12223.0650    21.3930     2.7624
12223.5650    20.9415     2.7832
12224.0650    21.4201     2.7632
12224.5650    20.5062     2.7548
12225.0650    15.8830     2.7170
12225.5650    16.1520     2.6978
12226.0650    17.7681     2.6940
12226.5650    18.2453     2.7002
12227.0650    18.7225     2.6925
12227.5650    18.2723     2.6879
12228.0650    17.3585     2.6746
12228.5650    16.9050     2.6570
12229.0650    16.3563     2.6272
12229.5650    14.6170     2.5974
12230.0650    14.3987     2.5802
12230.5650    14.7984     2.5733
12231.0650    15.5883     2.5233
12231.5650    16.0636     2.4672
12232.0650    16.3529     2.4112
12232.5650    17.0199     2.4330
12233.0650    17.7290     2.4745
12233.5650    18.4380     2.5159
12234.0650    18.6833     2.5635
12234.5650    17.0078     2.5636
12235.0650    16.3929     2.5736
12235.5650    16.8726     2.5359
12236.0650    17.3498     2.5275
12236.5650    18.5225     2.5337
12237.0650    20.3907     2.5589
12237.5650    23.6500     2.5882
12238.0650    26.4456     2.6175
12238.5650    28.8298     2.6464
12239.0650    32.6233     2.6706
12239.5650    34.3721     2.7102
12240.0650    32.7627     2.7498
12240.5650    28.1395     2.7464
12241.0650    25.8346     2.7283
12241.5650    23.7616     2.7018
12242.0650    23.0475     2.6798
12242.5650    23.6702     2.6621
12243.0650    24.3931     2.6467
12243.5650    24.7679     2.6761
12244.0650    24.9917     2.7304
12244.5650    24.5416     2.7877
12245.0650    24.0880     2.7995
12245.5650    24.8005     2.7965
12246.0650    25.3215     2.7788
12246.5650    25.9867     2.7943
12247.0650    26.2358     2.8143
12247.5650    27.2032     2.8221
12248.0650    28.1172     2.7921
12248.5650    28.8241     2.7836
12249.0650    28.8398     2.7929
12249.5650    28.3896     2.8040
12250.0650    27.0121     2.7884
12250.5650    27.0256     2.7784
12251.0650    27.2710     2.7730
12251.5650    25.4189     2.7815
12252.0650    24.3815     2.8018
12252.5650    24.0692     2.8078
12253.0650    23.3872     2.8164
12253.5650    22.9370     2.8195
12254.0650    22.2516     2.8149
12254.5650    21.1094     2.7897
12255.0650    19.5000     2.7645
12255.5650    18.3543     2.7664
12256.0650    17.6723     2.7340
12256.5650    17.9211     2.7056
12257.0650    18.1664     2.7118
12257.5650    18.4118     2.7095
12258.0650    17.2661     2.6848
12258.5650    17.0444     2.6738
12259.0650    17.9887     2.6642
12259.5650    19.2376     2.6808
12260.0650    20.7978     2.7162
12260.5650    22.7082     2.7516
12261.0650    24.3058     2.7871
12261.5650    25.2467     2.8070
12262.0650    26.1875     2.8163
12262.5650    27.3603     2.8413
12263.0650    27.3738     2.8534
12263.5650    26.4566     2.8565
12264.0650    25.5991     2.8234
12264.5650    22.9911     2.8100
12265.0650    20.8999     2.7686
12265.5650    20.2544     2.7629
12266.0650    20.9668     2.8097
12266.5650    23.0669     2.8192
12267.0650    24.7033     2.8321
12267.5650    25.6442     2.8313
12268.0650    24.4985     2.8268
12268.5650    23.8164     2.8222
12269.0650    25.4716     2.8119
12269.5650    27.5563     2.8003
12270.0650    29.4246     2.7953
12270.5650    30.8258     2.8046
12271.0650    23.8875     2.7854
12271.5650    22.7418     2.7808
12272.0650    22.7545     2.7978
12272.5650    23.6962     2.8094
12273.0650    25.7963     2.7978
12273.5650    27.4849     2.7694
12274.0650    28.3736     2.7523
12274.5650    23.5218     2.7471
12275.0650    22.3762     2.7772
12275.5650    21.2305     2.7834
12276.0650    20.6998     2.7734
12276.5650    20.3268     2.7788
12277.0650    20.3437     2.7742
12277.5650    20.1254     2.7647
12278.0650    19.9071     2.7418
12278.5650    20.6195     2.7219
12279.0650    22.4877     2.7019
12279.5650    24.8196     2.7035
12280.0650    25.9923     2.7074
12280.5650    26.8996     2.7005
12281.0650    27.6422     2.7125
12281.5650    27.6556     2.7436
12282.0650    27.6844     2.7754
12282.5650    27.9180     2.7972
12283.0650    29.5544     2.8325
12283.5650    30.9590     2.8272
12284.0650    31.6680     2.8195
12284.5650    32.1452     2.8404
12285.0650    32.3872     2.8242
12285.5650    30.3175     2.8273
12286.0650    29.6355     2.8266
12286.5650    28.6980     2.8143
12287.0650    28.0431     2.8063
12287.5650    28.2885     2.7936
12288.0650    28.5338     2.7512
12288.5650    28.0837     2.7135
12289.0650    26.0107     2.6680
12289.5650    23.4739     2.6742
12290.0650    20.2417     2.6673
12290.5650    18.1632     2.6390
12291.0650    16.9933     2.6080
12291.5650    16.1092     2.5526
12292.0650    16.3579     2.5410
12292.5650    16.8351     2.5418
12293.0650    17.0805     2.5504
12293.5650    19.8761     2.5658
12294.0650    19.8896     2.5863
12294.5650    20.3668     2.6025
12295.0650    22.4929     2.6130
12295.5650    24.4141     2.6400
12296.0650    28.2933     2.6608
12296.5650    33.4072     2.6586
12297.0650    35.7392     2.6517
12297.5650    36.4448     2.6617
12298.0650    35.0707     2.6980
12298.5650    32.0703     2.7304
12299.0650    28.1426     2.7328
12299.5650    26.5113     2.7092
12300.0650    27.3213     2.6997
12300.5650    28.6258     2.7136
12301.0650    29.9303     2.7229
12301.5650    31.4718     2.7422
12302.0650    29.6339     2.7531
12302.5650    28.7192     2.7328
12303.0650    28.7403     2.7393
12303.5650    28.5211     2.7455
12304.0650    28.5422     2.7509
12304.5650    28.6374     2.7525
12305.0650    29.0719     2.7444
12305.5650    29.9880     2.7341
12306.0650    30.7004     2.7433
12306.5650    31.6446     2.7279
12307.0650    32.3569     2.7126
12307.5650    30.9827     2.6941
12308.0650    30.3041     2.6862
12308.5650    28.9227     2.6474
12309.0650    28.2512     2.5759
12309.5650    28.5042     2.4869
12310.0650    29.2165     2.4730
12310.5650    28.0742     2.4903
12311.0650    26.2363     2.5952
12311.5650    25.0940     2.7001
12312.0650    24.1835     2.7967
12312.5650    22.1047     2.7983
12313.0650    21.6669     2.8153
12313.5650    21.2244     2.8127
12314.0650    21.0051     2.7879
12314.5650    20.7902     2.7692
12315.0650    20.5752     2.7377
12315.5650    20.5963     2.7308
12316.0650    20.1494     2.7239
12316.5650    19.9234     2.7170
12317.0650    19.9555     2.7124
12317.5650    20.2042     2.7153
12318.0650    20.4529     2.7272
12318.5650    20.7016     2.7123
12319.0650    20.9503     2.6942
12319.5650    20.0398     2.6697
12320.0650    20.2885     2.6204
12320.5650    20.6608     2.5810
12321.0650    22.4129     2.5927
12321.5650    23.3572     2.5951
12322.0650    24.5332     2.5874
12322.5650    24.7819     2.5689
12323.0650    23.6395     2.5559
12323.5650    21.1054     2.5976
12324.0650    21.1230     2.6292
12324.5650    21.3905     2.6285
12325.0650    21.8565     2.6209
12325.5650    22.1406     2.6360
12326.0650    22.5834     2.6595
12326.5650    22.8326     2.6650
12327.0650    22.8512     2.6434
12327.5650    22.8681     2.6497
12328.0650    23.3486     2.6567
12328.5650    24.1027     2.6413
12329.0650    25.4731     2.6159
12329.5650    25.9776     2.5972
12330.0650    26.2023     2.6002
12330.5650    26.2175     2.6406
12331.0650    26.2360     2.6809
12331.5650    26.0210     2.7064
12332.0650    26.0379     2.7165
12332.5650    25.8229     2.7389
12333.0650    25.8440     2.7421
12333.5650    25.8608     2.7390
12334.0650    26.3414     2.7368
12334.5650    27.0537     2.7515
12335.0650    27.7661     2.7454
12335.5650    28.0148     2.7470
12336.0650    29.8864     2.7509
12336.5650    31.5826     2.7271
