~VERSION INFORMATION
 VERS.               2.10:   CWLS LOG ASCII STANDARD - VERSION 2.10
 WRAP.                 NO:   ONE LINE PER DEPTH STEP
~WELL INFORMATION
#MNEM.UNIT      DATA TYPE    INFORMATION
#----------   ------------   ------------------------------
 STRT.F        11000.5654:   START DEPTH
 STOP.F        20211.6523:   STOP DEPTH
 STEP.F            0.5000:   STEP LENGTH
 NULL.          -999.2500:   NO VALUE
 COMP. Exxon Company,  USA:   COMPANY
 WELL.    Gainer Et Al #1:   WELL
 FLD .            Wildcat:   FIELD
 LOC .                   :   LOCATION
 STAT.      West Virginia:   STATE
 COUN.            Calhoun:   COUNTY
 SRVC.       Schlumberger:   SERVICE COMPANY
 DATE.         03/02/1974:   LOGDATE
~CURVE INFORMATION
#MNEM.UNIT       API CODE    CURVE DESCRIPTION
#----------   ------------   ------------------------------
 DEPT.F                  :
 GR  .GAPI   60 310 00 00:   Gamma Ray
 RHOB.gm/cc  42 350 01 00:   Bulk Density
~PARAMETER INFORMATION
#MNEM.UNIT          VALUE    DESCRIPTION
#----------   ------------   ------------------------------
 EKB .F         1230.0000:   Kelly bushing
 EGL .F         1203.0000:   Ground level
 EDF .F         1228.0000:   Drilling floor
 EPD .F         1203.0000:   Permanent datum
 TD  .F            0.0000:   Total depth
 NRUN.             4.0000:   Number of Runs
#--RUN 1---   ------------   The following are for Run 1---
 RUN .             1.0000:   Run 1
#--RUN 2---   ------------   The following are for Run 2---
 RUN .             2.0000:   Run 2
 DATE.mm/dd/yyyy 03/02/1974:   Date Logged
 DD  .ft            16978:   Depth Driller
 DL  .ft            16962:   Depth Logger
 BLI .ft            16961:   Bottom Log Interval
 TLI .ft            14004:   Top Log Interval
 CSS .inch        13  5/8:   Casing Size
 CTD1.ft            11096:   Casing Driller 1
 CTL1.ft            11094:   Casing Logger 1
 BS  .inch        12  1/4:   Bit Size
 DFT .        lingnosulf.:   Type Fluid In Hole
 DFV .sec              39:   Viscosity
 DFPH.               11.2:   pH
 DFL .mL               22:   Fluid Loss
 WSS .         circulated:   Source Of Sample
 RM  .ohmm           0.55:   Rm
 EMT .F                66:   Rm Meas. Temp.
 RMF .ohmm           0.29:   Rmf
 MFT .F                66:   Rmf Meas. Temp.
 RMC .ohmm           0.87:   Rmc
 MCST.F                66:   Rmc Meas. Temp.
 MFSS.                  M:   Source Rmf.
 MCSS.                  M:   Source Rmc.
 RMB .ohmm           0.17:   Rm. At BHT
 BHT .F               219:   BHT.
 MRT .F               219:   Maximum Recorded Temp.
 ENGI.             Bening:   Recorded By
 WITN.           McCormic:   Witnessed By
 DGBY.   Rutledge & McCoy:   Digitized By
#--RUN 3---   ------------   The following are for Run 3---
 RUN .             3.0000:   Run 3
 DATE.mm/dd/yyyy 03/04/1974:   Date Logged
 DD  .ft            19913:   Depth Driller
 DL  .ft            19393:   Depth Logger
 BLI .ft            19392:   Bottom Log Interval
 TLI .ft            16961:   Top Log Interval
 CSS .inch        10  3/4:   Casing Size
 CTD1.ft            16975:   Casing Driller 1
 CTL1.ft            16954:   Casing Logger 1
 BS  .inch         8  3/4:   Bit Size
 DFT .        lingnosulf.:   Type Fluid In Hole
 DFV .sec              49:   Viscosity
 DFPH.               10.8:   pH
 DFL .mL              5.8:   Fluid Loss
 WSS .         circulated:   Source Of Sample
 RM  .ohmm           0.69:   Rm
 EMT .F                72:   Rm Meas. Temp.
 RMF .ohmm           0.32:   Rmf
 MFT .F                80:   Rmf Meas. Temp.
 RMC .ohmm           1.09:   Rmc
 MCST.F                80:   Rmc Meas. Temp.
 MFSS.                  m:   Source Rmf.
 MCSS.                  m:   Source Rmc.
 RMB .ohmm           0.18:   Rm. At BHT
 BHT .F               262:   BHT.
 MRT .F               262:   Maximum Recorded Temp.
 ENGI.             Cannan:   Recorded By
 WITN.           McCormic:   Witnessed By
 DGBY.   Rutledge & McCoy:   Digitized By
#--RUN 4---   ------------   The following are for Run 4---
 RUN .             4.0000:   Run 4
 DATE.mm/dd/yyyy 05/14/1974:   Date Logged
 DD  .ft            20222:   Depth Driller
 DL  .ft            20194:   Depth Logger
 BLI .ft            20192:   Bottom Log Interval
 TLI .ft            19392:   Top Log Interval
 CSS .inch         10 3/4:   Casing Size
 CTD1.ft            16975:   Casing Driller 1
 CTL1.ft            16954:   Casing Logger 1
 BS  .inch         8  3/4:   Bit Size
 DFT .            aquagel:   Type Fluid In Hole
 DFV .sec              43:   Viscosity
 DFPH.               10.0:   pH
 DFL .mL              6.0:   Fluid Loss
 WSS .         circulated:   Source Of Sample
 RM  .ohmm           0.69:   Rm
 EMT .F                75:   Rm Meas. Temp.
 RMF .ohmm           0.30:   Rmf
 MFT .F                70:   Rmf Meas. Temp.
 RMC .ohmm           0.70:   Rmc
 MCST.F                70:   Rmc Meas. Temp.
 MFSS.                  m:   Source Rmf.
 MCSS.                  m:   Source Rmc.
 RMB .ohmm           0.19:   Rm. At BHT
 BHT .F               272:   BHT.
 MRT .F               272:   Maximum Recorded Temp.
 ENGI.             Cannan:   Recorded By
 WITN.            Garrett:   Witnessed By
 DGBY.   Rutledge & McCoy:   Digitized By
~OTHER INFORMATION
# Run 3 - at 16950 there is a scale change from 8-18 to 6-16.
# Run 4 - at 19390
~A  DEPTH       GR       RHOB
11000.5650  -999.2500  -999.2500
11001.0650  -999.2500     2.0200
11001.5650  -999.2500     1.9722
11002.0650  -999.2500     1.9599
11002.5650  -999.2500     1.9660
11003.0650  -999.2500     1.9745
11003.5650  -999.2500     1.9791
11004.0650  -999.2500     1.9807
11004.5650  -999.2500     1.9783
11005.0650  -999.2500     1.9719
11005.5650  -999.2500     1.9583
11006.0650  -999.2500     1.9613
11006.5650  -999.2500     1.9652
11007.0650  -999.2500     1.9899
11007.5650  -999.2500     2.0138
11008.0650  -999.2500     2.0137
11008.5650  -999.2500     2.0186
11009.0650  -999.2500     2.0300
11009.5650  -999.2500     2.0392
11010.0650  -999.2500     2.0660
11010.5650  -999.2500     2.0979
11011.0650  -999.2500     2.1329
11011.5650  -999.2500     2.2857
11012.0650  -999.2500     2.3508
11012.5650  -999.2500     2.4196
11013.0650  -999.2500     2.4667
11013.5650  -999.2500     2.4206
11014.0650  -999.2500     2.3231
11014.5650  -999.2500     2.2491
11015.0650  -999.2500     2.1954
11015.5650  -999.2500     2.1595
11016.0650  -999.2500     2.1599
11016.5650  -999.2500     2.1620
11017.0650  -999.2500     2.1801
11017.5650  -999.2500     2.2023
11018.0650  -999.2500     2.2421
11018.5650  -999.2500     2.2598
11019.0650  -999.2500     2.2698
11019.5650  -999.2500     2.2667
11020.0650  -999.2500     2.2899
11020.5650  -999.2500     2.3007
11021.0650  -999.2500     2.3084
11021.5650  -999.2500     2.3042
11022.0650  -999.2500     2.2953
11022.5650  -999.2500     2.3022
11023.0650  -999.2500     2.2999
11023.5650  -999.2500     2.2860
11024.0650  -999.2500     2.2729
11024.5650  -999.2500     2.2351
11025.0650  -999.2500     2.2226
11025.5650  -999.2500     2.2095
11026.0650  -999.2500     2.1964
11026.5650  -999.2500     2.1833
11027.0650  -999.2500     2.1903
11027.5650  -999.2500     2.2282
11028.0650  -999.2500     2.2654
11028.5650  -999.2500     2.2864
11029.0650  -999.2500     2.3114
11029.5650  -999.2500     2.3415
11030.0650  -999.2500     2.3546
11030.5650  -999.2500     2.3592
11031.0650  -999.2500     2.3669
11031.5650  -999.2500     2.3631
11032.0650  -999.2500     2.3692
11032.5650  -999.2500     2.3769
11033.0650  -999.2500     2.3700
11033.5650  -999.2500     2.3476
11034.0650  -999.2500     2.3407
11034.5650  -999.2500     2.3376
11035.0650  -999.2500     2.3538
11035.5650  -999.2500     2.3592
11036.0650  -999.2500     2.3507
11036.5650  -999.2500     2.3653
11037.0650  -999.2500     2.3699
11037.5650  -999.2500     2.3627
11038.0650  -999.2500     2.3746
11038.5650  -999.2500     2.3703
11039.0650  -999.2500     2.3475
11039.5650  -999.2500     2.3560
11040.0650  -999.2500     2.3622
11040.5650  -999.2500     2.3514
11041.0650  -999.2500     2.3406
11041.5650  -999.2500     2.3305
11042.0650  -999.2500     2.3282
11042.5650  -999.2500     2.3251
11043.0650  -999.2500     2.3506
11043.5650  -999.2500     2.3637
11044.0650  -999.2500     2.3652
11044.5650  -999.2500     2.3344
11045.0650  -999.2500     2.3228
11045.5650  -999.2500     2.3135
11046.0650  -999.2500     2.3042
11046.5650  -999.2500     2.3012
11047.0650  -999.2500     2.2859
11047.5650  -999.2500     2.2603
11048.0650  -999.2500     2.2200
11048.5650  -999.2500     2.1754
11049.0650  -999.2500     2.1429
11049.5650  -999.2500     2.1641
11050.0650  -999.2500     2.1853
11050.5650  -999.2500     2.2170
11051.0650  -999.2500     2.2845
11051.5650  -999.2500     2.3543
11052.0650  -999.2500     2.3953
11052.5650  -999.2500     2.4744
11053.0650  -999.2500     2.5565
11053.5650  -999.2500     2.5308
11054.0650  -999.2500     2.5081
11054.5650  -999.2500     2.2795
11055.0650  -999.2500     2.1826
11055.5650  -999.2500     2.1104
11056.0650  -999.2500     2.0191
11056.5650  -999.2500     1.9824
11057.0650  -999.2500     1.9762
11057.5650  -999.2500     2.0024
11058.0650  -999.2500     2.0016
11058.5650  -999.2500     2.0009
11059.0650  -999.2500     1.9993
11059.5650  -999.2500     1.9947
11060.0650  -999.2500     1.9892
11060.5650  -999.2500     1.9920
11061.0650  -999.2500     1.9954
11061.5650  -999.2500     1.9931
11062.0650  -999.2500     1.9831
11062.5650  -999.2500     1.9823
11063.0650  -999.2500     2.0039
11063.5650  -999.2500     2.0533
11064.0650  -999.2500     2.0737
11064.5650  -999.2500     2.0903
11065.0650  -999.2500     2.1003
11065.5650  -999.2500     2.1034
11066.0650  -999.2500     2.1034
11066.5650  -999.2500     2.0980
11067.0650  -999.2500     2.0880
11067.5650  -999.2500     2.0625
11068.0650  -999.2500     2.0309
11068.5650  -999.2500     2.0007
11069.0650  -999.2500     1.9714
11069.5650  -999.2500     1.9683
11070.0650  -999.2500     1.9822
11070.5650  -999.2500     2.0054
11071.0650  -999.2500     2.0169
11071.5650  -999.2500     2.0316
11072.0650  -999.2500     2.0385
11072.5650  -999.2500     2.0200
11073.0650  -999.2500     1.9845
11073.5650  -999.2500     1.9891
11074.0650  -999.2500     1.9984
11074.5650  -999.2500     2.0169
11075.0650  -999.2500     2.0296
11075.5650  -999.2500     2.0503
11076.0650  -999.2500     2.0786
11076.5650  -999.2500     2.0925
11077.0650  -999.2500     2.0994
11077.5650  -999.2500     2.1272
11078.0650  -999.2500     2.1650
11078.5650  -999.2500     2.1613
11079.0650  -999.2500     2.1266
11079.5650  -999.2500     2.1234
11080.0650  -999.2500     2.1511
11080.5650  -999.2500     2.1786
11081.0650  -999.2500     2.2036
11081.5650  -999.2500     2.2268
11082.0650  -999.2500     2.2469
11082.5650  -999.2500     2.2610
11083.0650  -999.2500     2.2475
11083.5650  -999.2500     2.2498
11084.0650  -999.2500     2.2120
11084.5650  -999.2500     2.1914
11085.0650  -999.2500     2.1172
11085.5650  -999.2500     2.0577
11086.0650  -999.2500     2.0438
11086.5650  -999.2500     2.0606
11087.0650  -999.2500     2.0879
11087.5650  -999.2500     2.1152
11088.0650  -999.2500     2.0923
11088.5650  -999.2500     2.0761
11089.0650  -999.2500     2.0661
11089.5650  -999.2500     2.0483
11090.0650  -999.2500     2.0267
11090.5650  -999.2500     2.0221
11091.0650  -999.2500     2.0286
11091.5650  -999.2500     2.0622
11092.0650  -999.2500     2.0730
11092.5650  -999.2500     2.1191
11093.0650  -999.2500     2.1947
11093.5650  -999.2500     2.2668
11094.0650  -999.2500     2.3220
11094.5650  -999.2500     2.3411
11095.0650  -999.2500     2.2952
11095.5650  -999.2500     2.2736
11096.0650  -999.2500     2.1494
11096.5650  -999.2500     2.1237
11097.0650  -999.2500     2.0129
11097.5650  -999.2500     1.9793
11098.0650  -999.2500     1.9649
11098.5650  -999.2500     1.9610
11099.0650  -999.2500     1.9610
11099.5650  -999.2500     1.9634
11100.0650  -999.2500     1.9649
11100.5650    26.8121     1.9811
11101.0650    25.8897     1.9911
11101.5650    25.8914     2.0061
11102.0650    26.2974     2.0564
11102.5650    27.2819     2.1164
11103.0650    28.4392     2.1875
11103.5650    28.9675     2.3445
11104.0650    29.3669     2.4070
11104.5650    29.3687     2.4284
11105.0650    27.0592     2.3990
11105.5650    26.1045     2.3697
11106.0650    25.6758     2.3398
11106.5650    22.6732     2.3778
11107.0650    22.9059     2.4293
11107.5650    22.9077     2.4417
11108.0650    23.8339     2.4478
11108.5650    24.2978     2.4186
11109.0650    24.0683     2.3210
11109.5650    23.8393     2.2359
11110.0650    22.9161     2.1721
11110.5650    22.6866     2.1048
11111.0650    22.9197     2.0249
11111.5650    22.9215     1.9671
11112.0650    23.2554     1.9609
11112.5650    23.8869     1.9856
11113.0650    24.5448     1.9941
11113.5650    24.7776     2.0010
11114.0650    25.0104     2.0072
11114.5650    24.7810     2.0704
11115.0650    23.3959     2.1437
11115.5650    22.7042     2.1746
11116.0650    22.4747     2.1741
11116.5650    22.4768     2.1568
11117.0650    22.9948     2.0835
11117.5650    23.5473     2.0750
11118.0650    24.3308     2.0866
11118.5650    25.0259     2.1522
11119.0650    25.7339     2.1715
11119.5650    26.1853     2.1861
11120.0650    27.3426     2.1769
11120.5650    28.0376     2.1984
11121.0650    28.7327     2.2108
11121.5650    28.7343     2.1977
