~VERSION INFORMATION
 VERS.               2.10:   CWLS LOG ASCII STANDARD - VERSION 2.10
 WRAP.                 NO:   ONE LINE PER DEPTH STEP
~WELL INFORMATION
#MNEM.UNIT      DATA TYPE    INFORMATION
#----------   ------------   ------------------------------
 STRT.F        11000.5654:   START DEPTH
 STOP.F        20211.6523:   STOP DEPTH
 STEP.F            0.5000:   STEP LENGTH
 NULL.          -999.2500:   NO VALUE
 COMP. Exxon Company,  USA:   COMPANY
 WELL.    Gainer Et Al #1:   WELL
 FLD .            Wildcat:   FIELD
 LOC .                   :   LOCATION
 STAT.      West Virginia:   STATE
 COUN.            Calhoun:   COUNTY
 SRVC.       Schlumberger:   SERVICE COMPANY
 DATE.         03/02/1974:   LOGDATE
~CURVE INFORMATION
#MNEM.UNIT       API CODE    CURVE DESCRIPTION
#----------   ------------   ------------------------------
 DEPT.F                  :
 GR  .GAPI   60 310 00 00:   Gamma Ray
 RHOB.gm/cc  42 350 01 00:   Bulk Density
~PARAMETER INFORMATION
#MNEM.UNIT          VALUE    DESCRIPTION
#----------   ------------   ------------------------------
 EKB .F         1230.0000:   Kelly bushing
 EGL .F         1203.0000:   Ground level
 EDF .F         1228.0000:   Drilling floor
 EPD .F         1203.0000:   Permanent datum
 TD  .F            0.0000:   Total depth
 NRUN.             4.0000:   Number of Runs
#--RUN 1---   ------------   The following are for Run 1---
 RUN .             1.0000:   Run 1
#--RUN 2---   ------------   The following are for Run 2---
 RUN .             2.0000:   Run 2
 DATE.mm/dd/yyyy 03/02/1974:   Date Logged
 DD  .ft            16978:   Depth Driller
 DL  .ft            16962:   Depth Logger
 BLI .ft            16961:   Bottom Log Interval
 TLI .ft            14004:   Top Log Interval
 CSS .inch        13  5/8:   Casing Size
 CTD1.ft            11096:   Casing Driller 1
 CTL1.ft            11094:   Casing Logger 1
 BS  .inch        12  1/4:   Bit Size
 DFT .        lingnosulf.:   Type Fluid In Hole
 DFV .sec              39:   Viscosity
 DFPH.               11.2:   pH
 DFL .mL               22:   Fluid Loss
 WSS .         circulated:   Source Of Sample
 RM  .ohmm           0.55:   Rm
 EMT .F                66:   Rm Meas. Temp.
 RMF .ohmm           0.29:   Rmf
 MFT .F                66:   Rmf Meas. Temp.
 RMC .ohmm           0.87:   Rmc
 MCST.F                66:   Rmc Meas. Temp.
 MFSS.                  M:   Source Rmf.
 MCSS.                  M:   Source Rmc.
 RMB .ohmm           0.17:   Rm. At BHT
 BHT .F               219:   BHT.
 MRT .F               219:   Maximum Recorded Temp.
 ENGI.             Bening:   Recorded By
 WITN.           McCormic:   Witnessed By
 DGBY.   Rutledge & McCoy:   Digitized By
#--RUN 3---   ------------   The following are for Run 3---
 RUN .             3.0000:   Run 3
 DATE.mm/dd/yyyy 03/04/1974:   Date Logged
 DD  .ft            19913:   Depth Driller
 DL  .ft            19393:   Depth Logger
 BLI .ft            19392:   Bottom Log Interval
 TLI .ft            16961:   Top Log Interval
 CSS .inch        10  3/4:   Casing Size
 CTD1.ft            16975:   Casing Driller 1
 CTL1.ft            16954:   Casing Logger 1
 BS  .inch         8  3/4:   Bit Size
 DFT .        lingnosulf.:   Type Fluid In Hole
 DFV .sec              49:   Viscosity
 DFPH.               10.8:   pH
 DFL .mL              5.8:   Fluid Loss
 WSS .         circulated:   Source Of Sample
 RM  .ohmm           0.69:   Rm
 EMT .F                72:   Rm Meas. Temp.
 RMF .ohmm           0.32:   Rmf
 MFT .F                80:   Rmf Meas. Temp.
 RMC .ohmm           1.09:   Rmc
 MCST.F                80:   Rmc Meas. Temp.
 MFSS.                  m:   Source Rmf.
 MCSS.                  m:   Source Rmc.
 RMB .ohmm           0.18:   Rm. At BHT
 BHT .F               262:   BHT.
 MRT .F               262:   Maximum Recorded Temp.
 ENGI.             Cannan:   Recorded By
 WITN.           McCormic:   Witnessed By
 DGBY.   Rutledge & McCoy:   Digitized By
#--RUN 4---   ------------   The following are for Run 4---
 RUN .             4.0000:   Run 4
 DATE.mm/dd/yyyy 05/14/1974:   Date Logged
 DD  .ft            20222:   Depth Driller
 DL  .ft            20194:   Depth Logger
 BLI .ft            20192:   Bottom Log Interval
 TLI .ft            19392:   Top Log Interval
 CSS .inch         10 3/4:   Casing Size
 CTD1.ft            16975:   Casing Driller 1
 CTL1.ft            16954:   Casing Logger 1
 BS  .inch         8  3/4:   Bit Size
 DFT .            aquagel:   Type Fluid In Hole
 DFV .sec              43:   Viscosity
 DFPH.               10.0:   pH
 DFL .mL              6.0:   Fluid Loss
 WSS .         circulated:   Source Of Sample
 RM  .ohmm           0.69:   Rm
 EMT .F                75:   Rm Meas. Temp.
 RMF .ohmm           0.30:   Rmf
 MFT .F                70:   Rmf Meas. Temp.
 RMC .ohmm           0.70:   Rmc
 MCST.F                70:   Rmc Meas. Temp.
 MFSS.                  m:   Source Rmf.
 MCSS.                  m:   Source Rmc.
 RMB .ohmm           0.19:   Rm. At BHT
 BHT .F               272:   BHT.
 MRT .F               272:   Maximum Recorded Temp.
 ENGI.             Cannan:   Recorded By
 WITN.            Garrett:   Witnessed By
 DGBY.   Rutledge & McCoy:   Digitized By
~OTHER INFORMATION
# Run 3 - at 16950 there is a scale change from 8-18 to 6-16.
# Run 4 - at 19390
~A  DEPTH       GR       RHOB
# ...
16468.0640    30.0016     2.8602
16468.5640    30.7044     2.8279
16469.0640    34.1102     2.8232
16469.5640    37.7898     2.7961
16470.0640    41.4694     2.7657
16470.5640    45.1490     2.7352
16471.0640    48.1442     2.7377
16471.5640    48.3489     2.7285
16472.0640    48.1274     2.7161
16472.5640    46.2840     2.7530
16473.0640    43.5147     2.7561
16473.5640    40.7453     2.7697
16474.0640    35.8927     2.7949
16474.5640    27.5678     2.8202
16475.0640    22.0007     2.8560
16475.5640    21.3346     2.8637
16476.0640    22.2711     2.8629
16476.5640    25.0573     2.8475
16477.0640    26.9176     2.8506
16477.5640    28.0834     2.8413
16478.0640    26.4715     2.8513
16478.5640    23.7022     2.8420
16479.0640    22.0885     2.8543
16479.5640    21.1451     2.8681
16480.0640    20.9497     2.8879
16480.5640    23.7380     2.9114
16481.0640    24.2094     2.9222
16481.5640    23.9843     2.8961
16482.0640    24.9207     2.8834
16482.5640    27.7069     2.8919
16483.0640    31.0063     2.9119
16483.5640    36.5321     2.9211
16484.0640    42.0579     2.9010
16484.5640    47.5837     2.8676
16485.0640    53.1095     2.8253
16485.5640    58.6353     2.8116
16486.0640    64.1611     2.8063
16486.5640    62.5334     2.8039
16487.0640    53.9160     2.7985
16487.5640    45.2987     2.7931
16488.0640    36.6813     2.7754
16488.5640    27.8110     2.8108
16489.0640    23.4213     2.8215
16489.5640    23.1710     2.8457
16490.0640    23.6718     2.8636
16490.5640    26.6895     2.8607
16491.0640    28.7812     2.8561
16491.5640    29.2505     2.8584
16492.0640    29.9555     2.8314
16492.5640    31.1214     2.8298
16493.0640    35.0650     2.8437
16493.5640    38.0919     2.8598
16494.0640    39.5125     2.8698
16494.5640    38.7961     2.8459
16495.0640    36.2709     2.8212
16495.5640    32.3315     2.8151
16496.0640    23.7751     2.8158
16496.5640    24.0150     2.8219
16497.0640    25.8753     2.8420
16497.5640    31.4393     2.8621
16498.0640    33.6222     2.8596
16498.5640    43.2638     2.8711
16499.0640    45.1241     2.8834
16499.5640    46.5215     2.8539
16500.0640    46.3252     2.8441
16500.5640    45.4511     2.8341
16501.0640    42.0270     2.8248
16501.5640    38.4961     2.8132
16502.0640    34.9652     2.7755
16502.5640    31.4343     2.7786
16503.0640    27.9034     2.7901
16503.5640    24.3725     2.8035
16504.0640    23.7317     2.8181
16504.5640    26.3275     2.8327
16505.0640    28.4775     2.8297
16505.5640    30.0680     2.8428
16506.0640    30.7772     2.8374
16506.5640    29.6318     2.8374
16507.0640    28.0227     2.8341
16507.5640    27.3410     2.8235
16508.0640    26.1955     2.8413
16508.5640    23.6591     2.8591
16509.0640    22.0500     2.8729
16509.5640    22.0672     2.8830
16510.0640    22.5842     2.8784
16510.5640    23.4858     2.8899
16511.0640    25.1224     2.8938
16511.5640    27.2227     2.8575
16512.0640    28.8594     2.8419
16512.5640    30.0324     2.8315
16513.0640    30.5102     2.8454
16513.5640    34.7001     2.8647
16514.0640    37.2642     2.8577
16514.5640    39.3645     2.8647
16515.0640    47.2608     2.8447
16515.5640    47.9700     2.8332
16516.0640    46.1292     2.8394
16516.5640    40.3469     2.8259
16517.0640    33.9988     2.8101
16517.5640    28.7859     2.7917
16518.0640    27.8689     2.7878
16518.5640    26.9553     2.8060
16519.0640    27.2044     2.8510
16519.5640    29.0729     2.8580
16520.0640    31.4870     2.8687
16520.5640    35.3485     2.8665
16521.0640    39.2099     2.8705
16521.5640    43.0713     2.8734
16522.0640    46.9327     2.8550
16522.5640    50.7941     2.8488
16523.0640    54.6555     2.8481
16523.5640    58.5169     2.8366
16524.0640    62.3783     2.8296
16524.5640    66.2397     2.8235
16525.0640    70.1011     2.8112
16525.5640    71.2288     2.8151
16526.0640    65.8191     2.8120
16526.5640    60.4093     2.8105
16527.0640    54.9996     2.7967
16527.5640    49.5899     2.8013
16528.0640    44.1801     2.8236
16528.5640    38.7704     2.8298
16529.0640    33.3607     2.8206
16529.5640    28.6585     2.8224
16530.0640    32.6170     2.8355
16530.5640    32.3990     2.8580
16531.0640    27.3119     2.8923
16531.5640    28.2646     2.8646
16532.0640    31.9204     2.8677
16532.5640    37.6059     2.8608
16533.0640    43.2914     2.8662
16533.5640    48.9769     2.8670
16534.0640    54.6624     2.8331
16534.5640    60.3479     2.8193
16535.0640    66.0334     2.7913
16535.5640    67.7797     2.7580
16536.0640    58.7295     2.7246
16536.5640    47.7840     2.7193
16537.0640    36.8386     2.7582
16537.5640    25.8931     2.8107
16538.0640    19.8613     2.8632
16538.5640    18.9477     2.8972
16539.0640    19.4252     2.8910
16539.5640    21.9946     2.8980
16540.0640    23.6897     2.8934
16540.5640    25.2659     2.8819
16541.0640    25.7433     2.8749
16541.5640    26.2208     2.8812
16542.0640    28.0893     2.8573
16542.5640    31.5806     2.8629
16543.0640    34.1446     2.8773
16543.5640    38.8116     2.8766
16544.0640    43.5399     2.8789
16544.5640    46.2450     2.8543
16545.0640    47.6498     2.8374
16545.5640    46.7362     2.8151
16546.0640    46.0511     2.8059
16546.5640    45.1409     2.7997
16547.0640    42.6045     2.7819
16547.5640    39.6007     2.7886
16548.0640    37.9677     2.7990
16548.5640    34.3030     2.8044
16549.0640    33.8497     2.7960
16549.5640    35.2579     2.8043
16550.0640    38.9812     2.8315
16550.5640    40.3860     2.8622
16551.0640    40.1679     2.8622
16551.5640    41.1090     2.8623
16552.0640    41.1232     2.8530
16552.5640    36.7351     2.8608
16553.0640    34.8941     2.8654
16553.5640    34.2124     2.8808
16554.0640    34.2261     2.8762
16554.5640    34.2399     2.8493
16555.0640    33.5577     2.8401
16555.5640    31.2535     2.8455
16556.0640    31.9912     2.8417
16556.5640    33.3711     2.8370
16557.0640    38.7250     2.8471
16557.5640    45.2678     2.8463
16558.0640    51.8106     2.8456
16558.5640    58.3534     2.8533
16559.0640    64.0404     2.8341
16559.5640    60.0226     2.8164
16560.0640    55.5627     2.7795
16560.5640    51.1029     2.7579
16561.0640    48.1009     2.7379
16561.5640    49.5092     2.7541
16562.0640    50.2184     2.7795
16562.5640    50.9277     2.7633
16563.0640    52.3326     2.7657
16563.5640    54.2010     2.7657
16564.0640    55.3984     2.7750
16564.5640    57.9414     2.7966
16565.0640    57.4881     2.7904
16565.5640    56.5780     2.7820
16566.0640    51.4187     2.7751
16566.5640    45.4821     2.7835
16567.0640    39.5456     2.7990
16567.5640    33.6090     2.8022
16568.0640    30.9104     2.8005
16568.5640    33.9415     2.8106
16569.0640    38.1375     2.8252
16569.5640    40.6928     2.8191
16570.0640    40.4743     2.8145
16570.5640    39.5642     2.8271
16571.0640    37.2561     2.8260
16571.5640    37.5052     2.8341
16572.0640    39.1418     2.8573
16572.5640    44.6179     2.8281
16573.0640    52.1349     2.8015
16573.5640    59.6518     2.7839
16574.0640    67.9473     2.7708
16574.5640    67.4939     2.7569
16575.0640    66.5838     2.7231
16575.5640    64.7428     2.7138
16576.0640    60.7474     2.6992
16576.5640    58.5142     2.7247
16577.0640    62.2374     2.7247
16577.5640    67.5834     2.7255
16578.0640    70.3793     2.7256
16578.5640    72.0125     2.7055
16579.0640    67.4616     2.7024
16579.5640    59.7511     2.7178
16580.0640    52.0405     2.7233
16580.5640    44.3299     2.7702
16581.0640    36.6193     2.7764
16581.5640    28.9087     2.7703
16582.0640    21.1111     2.7927
16582.5640    19.9657     2.8160
16583.0640    19.5124     2.8392
16583.5640    21.1525     2.8624
16584.0640    23.0715     2.8856
16584.5640    25.5884     2.8755
16585.0640    27.6887     2.8507
16585.5640    31.1801     2.8282
16586.0640    34.3774     2.8313
16586.5640    39.7117     2.8228
16587.0640    45.0460     2.8375
16587.5640    50.3802     2.8259
16588.0640    55.7145     2.8136
16588.5640    61.0488     2.8043
16589.0640    63.8611     2.7896
