~VERSION INFORMATION
 VERS.               2.10:   CWLS LOG ASCII STANDARD - VERSION 2.10
 WRAP.                 NO:   ONE LINE PER DEPTH STEP
~WELL INFORMATION
#MNEM.UNIT      DATA TYPE    INFORMATION
#----------   ------------   ------------------------------
 STRT.F        11000.5654:   START DEPTH
 STOP.F        20211.6523:   STOP DEPTH
 STEP.F            0.5000:   STEP LENGTH
 NULL.          -999.2500:   NO VALUE
 COMP. Exxon Company,  USA:   COMPANY
 WELL.    Gainer Et Al #1:   WELL
 FLD .            Wildcat:   FIELD
 LOC .                   :   LOCATION
 STAT.      West Virginia:   STATE
 COUN.            Calhoun:   COUNTY
 SRVC.       Schlumberger:   SERVICE COMPANY
 DATE.         03/02/1974:   LOGDATE
~CURVE INFORMATION
#MNEM.UNIT       API CODE    CURVE DESCRIPTION
#----------   ------------   ------------------------------
 DEPT.F                  :
 GR  .GAPI   60 310 00 00:   Gamma Ray
 RHOB.gm/cc  42 350 01 00:   Bulk Density
~PARAMETER INFORMATION
#MNEM.UNIT          VALUE    DESCRIPTION
#----------   ------------   ------------------------------
 EKB .F         1230.0000:   Kelly bushing
 EGL .F         1203.0000:   Ground level
 EDF .F         1228.0000:   Drilling floor
 EPD .F         1203.0000:   Permanent datum
 TD  .F            0.0000:   Total depth
 NRUN.             4.0000:   Number of Runs
#--RUN 1---   ------------   The following are for Run 1---
 RUN .             1.0000:   Run 1
#--RUN 2---   ------------   The following are for Run 2---
 RUN .             2.0000:   Run 2
 DATE.mm/dd/yyyy 03/02/1974:   Date Logged
 DD  .ft            16978:   Depth Driller
 DL  .ft            16962:   Depth Logger
 BLI .ft            16961:   Bottom Log Interval
 TLI .ft            14004:   Top Log Interval
 CSS .inch        13  5/8:   Casing Size
 CTD1.ft            11096:   Casing Driller 1
 CTL1.ft            11094:   Casing Logger 1
 BS  .inch        12  1/4:   Bit Size
 DFT .        lingnosulf.:   Type Fluid In Hole
 DFV .sec              39:   Viscosity
 DFPH.               11.2:   pH
 DFL .mL               22:   Fluid Loss
 WSS .         circulated:   Source Of Sample
 RM  .ohmm           0.55:   Rm
 EMT .F                66:   Rm Meas. Temp.
 RMF .ohmm           0.29:   Rmf
 MFT .F                66:   Rmf Meas. Temp.
 RMC .ohmm           0.87:   Rmc
 MCST.F                66:   Rmc Meas. Temp.
 MFSS.                  M:   Source Rmf.
 MCSS.                  M:   Source Rmc.
 RMB .ohmm           0.17:   Rm. At BHT
 BHT .F               219:   BHT.
 MRT .F               219:   Maximum Recorded Temp.
 ENGI.             Bening:   Recorded By
 WITN.           McCormic:   Witnessed By
 DGBY.   Rutledge & McCoy:   Digitized By
#--RUN 3---   ------------   The following are for Run 3---
 RUN .             3.0000:   Run 3
 DATE.mm/dd/yyyy 03/04/1974:   Date Logged
 DD  .ft            19913:   Depth Driller
 DL  .ft            19393:   Depth Logger
 BLI .ft            19392:   Bottom Log Interval
 TLI .ft            16961:   Top Log Interval
 CSS .inch        10  3/4:   Casing Size
 CTD1.ft            16975:   Casing Driller 1
 CTL1.ft            16954:   Casing Logger 1
 BS  .inch         8  3/4:   Bit Size
 DFT .        lingnosulf.:   Type Fluid In Hole
 DFV .sec              49:   Viscosity
 DFPH.               10.8:   pH
 DFL .mL              5.8:   Fluid Loss
 WSS .         circulated:   Source Of Sample
 RM  .ohmm           0.69:   Rm
 EMT .F                72:   Rm Meas. Temp.
 RMF .ohmm           0.32:   Rmf
 MFT .F                80:   Rmf Meas. Temp.
 RMC .ohmm           1.09:   Rmc
 MCST.F                80:   Rmc Meas. Temp.
 MFSS.                  m:   Source Rmf.
 MCSS.                  m:   Source Rmc.
 RMB .ohmm           0.18:   Rm. At BHT
 BHT .F               262:   BHT.
 MRT .F               262:   Maximum Recorded Temp.
 ENGI.             Cannan:   Recorded By
 WITN.           McCormic:   Witnessed By
 DGBY.   Rutledge & McCoy:   Digitized By
#--RUN 4---   ------------   The following are for Run 4---
 RUN .             4.0000:   Run 4
 DATE.mm/dd/yyyy 05/14/1974:   Date Logged
 DD  .ft            20222:   Depth Driller
 DL  .ft            20194:   Depth Logger
 BLI .ft            20192:   Bottom Log Interval
 TLI .ft            19392:   Top Log Interval
 CSS .inch         10 3/4:   Casing Size
 CTD1.ft            16975:   Casing Driller 1
 CTL1.ft            16954:   Casing Logger 1
 BS  .inch         8  3/4:   Bit Size
 DFT .            aquagel:   Type Fluid In Hole
 DFV .sec              43:   Viscosity
 DFPH.               10.0:   pH
 DFL .mL              6.0:   Fluid Loss
 WSS .         circulated:   Source Of Sample
 RM  .ohmm           0.69:   Rm
 EMT .F                75:   Rm Meas. Temp.
 RMF .ohmm           0.30:   Rmf
 MFT .F                70:   Rmf Meas. Temp.
 RMC .ohmm           0.70:   Rmc
 MCST.F                70:   Rmc Meas. Temp.
 MFSS.                  m:   Source Rmf.
 MCSS.                  m:   Source Rmc.
 RMB .ohmm           0.19:   Rm. At BHT
 BHT .F               272:   BHT.
 MRT .F               272:   Maximum Recorded Temp.
 ENGI.             Cannan:   Recorded By
 WITN.            Garrett:   Witnessed By
 DGBY.   Rutledge & McCoy:   Digitized By
~OTHER INFORMATION
# Run 3 - at 16950 there is a scale change from 8-18 to 6-16.
# Run 4 - at 19390
~A  DEPTH       GR       RHOB
# ...
14038.0650    28.4500     2.7821
14038.5650    27.7371     2.8313
14039.0650    26.1526     2.8540
14039.5650    25.4639     2.8340
14040.0650    24.5456     2.8320
14040.5650    22.9354     2.8300
14041.0650    22.0155     2.8279
14041.5650    21.3299     2.8185
14042.0650    21.5672     2.8109
14042.5650    22.9936     2.8064
14043.0650    24.1234     2.8010
14043.5650    24.5918     2.8589
14044.0650    24.5980     2.8736
14044.5650    24.3730     2.8366
14045.0650    23.6859     2.8258
14045.5650    22.6759     2.8220
14046.0650    21.8492     2.8159
14046.5650    21.1620     2.8090
14047.0650    20.6360     2.7483
14047.5650    19.3269     2.6780
14048.0650    18.4086     2.6710
14048.5650    17.2591     2.6405
14049.0650    16.3408     2.5727
14049.5650    15.6536     2.5069
14050.0650    15.1973     2.5278
14050.5650    14.7414     2.5347
14051.0650    14.7607     2.5271
14051.5650    15.2175     2.5518
14052.0650    15.2237     2.5973
14052.5650    15.2299     2.6120
14053.0650    15.4672     2.6413
14053.5650    15.7045     2.6598
14054.0650    16.4040     2.6691
14054.5650    19.1837     2.6953
14055.0650    20.1312     2.7725
14055.5650    21.2777     2.8610
14056.0650    21.7461     2.8964
14056.5650    22.6768     2.8846
14057.0650    23.8386     2.8662
14057.5650    25.9249     2.8559
14058.0650    27.5489     2.8652
14058.5650    29.1730     2.8542
14059.0650    30.5806     2.8439
14059.5650    33.6444     2.8357
14060.0650    34.7400     2.8175
14060.5650    32.8972     2.8075
14061.0650    30.5921     2.7929
14061.5650    28.7493     2.8014
14062.0650    22.9773     2.8107
14062.5650    21.3656     2.8238
14063.0650    21.1407     2.8377
14063.5650    21.1470     2.8609
14064.0650    21.3857     2.8548
14064.5650    22.0852     2.8416
14065.0650    22.5536     2.8504
14065.5650    23.7154     2.8541
14066.0650    25.5706     2.8325
14066.5650    27.4258     2.8241
14067.0650    28.3564     2.8441
14067.5650    26.4469     2.8334
14068.0650    24.4412     2.8458
14068.5650    24.2147     2.8612
14069.0650    24.9158     2.8713
14069.5650    26.3087     2.8636
14070.0650    27.4705     2.8667
14070.5650    27.9374     2.8772
14071.0650    27.7139     2.8907
14071.5650    27.7202     2.8583
14072.0650    27.4952     2.8537
14072.5650    27.2718     2.8638
14073.0650    26.5846     2.8792
14073.5650    26.1270     2.8623
14074.0650    25.2102     2.8492
14074.5650    23.8296     2.8323
14075.0650    22.4490     2.8485
14075.5650    20.3751     2.8601
14076.0650    19.2256     2.8686
14076.5650    20.8512     2.8571
14077.0650    20.6247     2.8455
14077.5650    19.7064     2.8294
14078.0650    19.7141     2.8125
14078.5650    20.6448     2.8256
14079.0650    22.4999     2.8403
14079.5650    21.3505     2.8542
14080.0650    20.1844     2.8218
14080.5650    19.7449     2.8026
14081.0650    19.2904     2.8049
14081.5650    19.2966     2.8104
14082.0650    20.2273     2.8174
14082.5650    21.1579     2.8090
14083.0650    21.8575     2.8182
14083.5650    22.6622     2.8120
14084.0650    23.0255     2.8028
14084.5650    23.2630     2.8105
14085.0650    23.0393     2.8337
14085.5650    22.5817     2.8237
14086.0650    21.6649     2.8099
14086.5650    20.5155     2.8184
14087.0650    19.1349     2.8193
14087.5650    16.1364     2.8145
14088.0650    14.0625     2.8216
14088.5650    14.2999     2.8316
14089.0650    14.7697     2.8293
14089.5650    14.7759     2.8656
14090.0650    14.3198     2.8602
14090.5650    10.8591     2.8471
14091.0650    10.6326     2.8904
14091.5650    10.4090     2.9071
14092.0650    10.4154     2.9297
14092.5650    10.4217     2.9064
14093.0650    10.8915     2.8797
14093.5650    11.3599     2.8666
14094.0650    12.0595     2.8720
14094.5650    12.9902     2.8775
14095.0650    13.9208     2.8860
14095.5650    14.6204     2.8760
14096.0650    15.0888     2.8806
14096.5650    15.5573     2.8783
14097.0650    15.8298     2.8977
14097.5650    16.9578     2.9108
14098.0650    17.8885     2.9216
14098.5650    18.5881     2.9266
14099.0650    19.0565     2.9092
14099.5650    19.2938     2.8958
14100.0650    19.7622     2.8986
14100.5650    20.2346     2.8940
14101.0650    21.8614     2.9056
14101.5650    23.4882     2.8933
14102.0650    23.7285     2.8802
14102.5650    22.3527     2.8864
14103.0650    20.7438     2.8880
14103.5650    18.6726     2.8665
14104.0650    15.6769     2.8719
14104.5650    14.9902     2.8920
14105.0650    15.0014     2.8810
14105.5650    15.9536     2.8840
14106.0650    18.2573     2.8928
14106.5650    20.1152     2.8682
14107.0650    21.9732     2.8752
14107.5650    23.6000     2.8628
14108.0650    23.3755     2.8627
14108.5650    22.6933     2.8684
14109.0650    21.5467     2.8845
14109.5650    20.5365     2.9132
14110.0650    18.3310     2.9131
14110.5650    17.6466     2.8947
14111.0650    16.9622     2.8855
14111.5650    16.5066     2.8963
14112.0650    17.1222     2.9016
14112.5650    17.9030     2.9128
14113.0650    18.8676     2.9239
14113.5650    19.7826     2.9350
14114.0650    20.2538     2.9265
14114.5650    20.2627     2.8989
14115.0650    20.0383     2.8966
14115.5650    20.4608     2.8581
14116.0650    21.6763     2.8727
14116.5650    23.0888     2.8936
14117.0650    25.3944     2.8821
14117.5650    28.8702     2.8821
14118.0650    31.6526     2.8675
14118.5650    34.2040     2.8775
14119.0650    35.8308     2.8822
14119.5650    37.6887     2.8668
14120.0650    39.0844     2.8607
14120.5650    39.5878     2.8707
14121.0650    41.6469     2.8731
14121.5650    43.9671     2.8352
14122.0650    46.9806     2.8416
14122.5650    48.8386     2.8508
14123.0650    48.1541     2.8640
14123.5650    32.9088     2.8771
14124.0650    31.5088     2.8702
14124.5650    29.4621     2.8602
14125.0650    24.8485     2.8425
14125.5650    22.7751     2.8378
14126.0650    22.3218     2.8333
14126.5650    24.1820     2.8280
14127.0650    26.2335     2.8141
14127.5650    27.6798     2.8126
14128.0650    29.2958     2.8235
14128.5650    30.2292     2.8327
14129.0650    30.7004     2.8397
14129.5650    31.4027     2.8326
14130.0650    31.4968     2.8267
14130.5650    31.4206     2.8452
14131.0650    28.4176     2.8553
14131.5650    27.0471     2.8368
14132.0650    27.0583     2.8345
14132.5650    27.5295     2.8284
14133.0650    25.4583     2.8447
14133.5650    22.4626     2.8462
14134.0650    20.3914     2.8316
14134.5650    19.7012     2.8247
14135.0650    21.1273     2.8486
14135.5650    22.9628     2.8479
14136.0650    23.4340     2.8456
14136.5650    24.1363     2.8395
14137.0650    24.8386     2.8589
14137.5650    25.7231     2.8686
14138.0650    26.9197     2.8882
14138.5650    28.2392     2.8851
14139.0650    29.7303     2.8643
14139.5650    30.8948     2.8613
14140.0650    32.2905     2.8505
14140.5650    33.4551     2.8182
14141.0650    33.2329     2.8010
14141.5650    32.0862     2.7835
14142.0650    30.6974     2.7921
14142.5650    29.0642     2.7759
14143.0650    27.2617     2.7890
14143.5650    25.4216     2.8091
14144.0650    24.5060     2.8223
14144.5650    23.3593     2.8292
14145.0650    21.9815     2.8817
14145.5650    20.8348     2.9026
14146.0650    19.6622     2.8941
14146.5650    18.5437     2.8803
14147.0650    18.3193     2.8911
14147.5650    19.4861     2.8957
14148.0650    20.6284     2.8887
14148.5650    22.2775     2.8812
14149.0650    23.6731     2.8462
14149.5650    25.3336     2.8435
14150.0650    27.1601     2.8504
14150.5650    29.2492     2.8566
14151.0650    28.7959     2.8628
14151.5650    28.1092     2.8567
14152.0650    29.5071     2.8452
14152.5650    26.9737     2.8437
14153.0650    23.9634     2.8602
14153.5650    22.7942     2.8661
14154.0650    22.3780     2.8592
14154.5650    21.9247     2.8870
14155.0650    21.7048     2.8994
14155.5650    21.0203     2.9071
14156.0650    20.1048     2.9310
14156.5650    19.8826     2.9164
14157.0650    19.1982     2.9180
14157.5650    19.2077     2.9065
14158.0650    19.6805     2.8934
14158.5650    20.0373     2.8695
14159.0650    20.8540     2.8858
