~VERSION INFORMATION 
VERS.            2.0: LAS LOG ASCII STANDARD VERSION 2.0 
WRAP.             NO: ONE LINE PER DEPTH STEP 
~WELL INFORMATION 
#MNEM.UNIT     DATA                   DESCRIPTION    
#------------------------------------------------
STRT.F      72.0000                    : 
STOP.F    10204.0000                    : 
STEP.F       1.0000                    : 
NULL.       -999.25                    : 
WELL.        ROY BIRNEY #11                 : WELL NAME       
LONG.        0.0000000                      : LONGITUDE       
LAT.         0.0000000                      : LATITUDE        
SEC.         28                             : SECTION         
STAT.        OH                             : STATE           
TWP.         GREEN                            : TOWNSHIP        
DATE.        68/10/23                       : DATE            
DFM.         RSRN                           : DEEPEST FM      
OPER.        SANFORD E. MCCORMICK           : OPERATOR        
ORIG.        KB                             : LOG ORIGIN      
API.         3406720103                       : API             
CMNT1.       PERMIT #P-103                  : COMMENT 1       
RGE.         1                              : RANGE           
CNTY.        HARRISON                          : COUNTY          
LOC.         1266'FNL & 1966'FWL OF NW1/4   : LOCATION DESC   
#~TOPS
INJUN                  815.00
BEREA                 1410.00
DEV. SHALE            1460.00
BIG LIME              4628.00
ORISKANY              4805.00
PACKER SHELL          6662.00
ORDOV. SHALE          6971.00
TRENTON               8612.00
BLACK RIVER           8880.00
GULL RIVER            9438.00
GLENWOOD SHALE        9500.00
BEEKMANTOWN           9654.00
ROSE RUN SD.         10168.00
~CURVE INFORMATION 
#MNEM.UNIT     API CODE               CURVE DESCRIPTION
#------------------------------------------------------
DEPT.F                                 : 1 DEPTH
DT  .usec/ft                        : 2 SONIC
RHOB.gm/cc                          : 3 DENSITY
GR  .API UNITS                      : 4 GAMMA RAY
~PARAMETER INFORMATION 
#MNEM.UNIT     VALUE                  DESCRIPTION
#------------------------------------------------
EKB.F        1126.900                 : ELEVATION KB
~A   DEPTH           DT        RHOB          GR
# ...
  907.0000      82.2344   -999.2500     24.7812
  908.0000      82.7031   -999.2500     24.1250
  909.0000      82.0781   -999.2500     23.0625
  910.0000      82.9531   -999.2500     22.6406
  911.0000      83.3594   -999.2500     22.8906
  912.0000      80.6562   -999.2500     24.8281
  913.0000      78.9531   -999.2500     27.5000
  914.0000      81.9844   -999.2500     26.8906
  915.0000      83.0938   -999.2500     23.7344
  916.0000      82.6719   -999.2500     23.8438
  917.0000      82.3750   -999.2500     23.6875
  918.0000      83.2969   -999.2500     23.2812
  919.0000      94.6406   -999.2500     25.2812
  920.0000      99.1406   -999.2500     26.3438
  921.0000      99.3906   -999.2500     25.2031
  922.0000      98.0000   -999.2500     25.1094
  923.0000      85.5625   -999.2500     25.7969
  924.0000      82.5469   -999.2500     25.4688
  925.0000      80.3125   -999.2500     26.5781
  926.0000      79.0312   -999.2500     27.3594
  927.0000      77.2031   -999.2500     29.4219
  928.0000      77.1562   -999.2500     33.6406
  929.0000      76.8906   -999.2500     44.7188
  930.0000      74.7500   -999.2500     64.4844
  931.0000      72.3125   -999.2500     65.5000
  932.0000      71.5938   -999.2500     57.5469
  933.0000      73.7344   -999.2500     40.0938
  934.0000      77.9375   -999.2500     33.3125
  935.0000      78.6875   -999.2500     34.1406
  936.0000      75.7812   -999.2500     45.7188
  937.0000      71.0000   -999.2500     68.8906
  938.0000      71.4531   -999.2500     76.5625
  939.0000      73.2344   -999.2500     80.3125
  940.0000      74.7812   -999.2500     91.9531
  941.0000      77.2656   -999.2500     91.5781
  942.0000      81.1719   -999.2500     60.6094
  943.0000      83.4062   -999.2500     28.8594
  944.0000      81.3438   -999.2500     23.9375
  945.0000      80.5938   -999.2500     26.0938
  946.0000      77.1562   -999.2500     30.7344
  947.0000      75.2031   -999.2500     39.4844
  948.0000      76.5938   -999.2500     50.2969
  949.0000      77.5469   -999.2500     48.0156
  950.0000      78.5312   -999.2500     43.6406
  951.0000      79.8750   -999.2500     46.2344
  952.0000      79.2969   -999.2500     56.8125
  953.0000      76.4219   -999.2500     70.7500
  954.0000      74.8438   -999.2500     85.2500
  955.0000      74.9375   -999.2500     81.1875
  956.0000      74.0469   -999.2500     76.3750
  957.0000      71.0781   -999.2500     88.4375
  958.0000      69.3125   -999.2500     97.6406
  959.0000      70.3281   -999.2500     98.3438
  960.0000      70.8906   -999.2500    102.3438
  961.0000      74.4375   -999.2500    110.5625
  962.0000      76.6406   -999.2500    107.4062
  963.0000      76.1094   -999.2500    104.7656
  964.0000      76.1719   -999.2500    106.4062
  965.0000      76.8750   -999.2500    102.5938
  966.0000      75.7812   -999.2500     89.1250
  967.0000      76.5156   -999.2500     68.6250
  968.0000      78.6875   -999.2500     66.5781
  969.0000      79.2031   -999.2500     60.2031
  970.0000      78.1406   -999.2500     53.5156
  971.0000      77.2656   -999.2500     54.5469
  972.0000      77.8438   -999.2500     50.5000
  973.0000      79.2969   -999.2500     46.2500
  974.0000      79.1719   -999.2500     51.9844
  975.0000      76.7344   -999.2500     70.6562
  976.0000      72.2500   -999.2500     85.6094
  977.0000      70.6094   -999.2500     86.0625
  978.0000      72.1094   -999.2500     81.4531
  979.0000      75.0312   -999.2500     77.6875
  980.0000      76.2344   -999.2500     75.0938
  981.0000      77.1562   -999.2500     79.3594
  982.0000      75.7812   -999.2500     92.0312
  983.0000      72.5781   -999.2500     88.3125
  984.0000      72.4375   -999.2500     65.8281
  985.0000      76.2031   -999.2500     44.8438
  986.0000      78.8750   -999.2500     46.7500
  987.0000      79.3750   -999.2500     55.9844
  988.0000      78.7344   -999.2500     59.4375
  989.0000      75.1875   -999.2500     54.8750
  990.0000      74.4688   -999.2500     53.9531
  991.0000      74.1719   -999.2500     52.4375
  992.0000      74.5781   -999.2500     48.3125
  993.0000      75.0625   -999.2500     45.6719
  994.0000      74.2344   -999.2500     46.9531
  995.0000      75.0312   -999.2500     52.8281
  996.0000      76.0156   -999.2500     58.3281
  997.0000      75.6875   -999.2500     59.0312
  998.0000      75.0312   -999.2500     51.5625
  999.0000      76.2188   -999.2500     45.8281
 1000.0000      77.0938   -999.2500     42.9531
 1001.0000      78.1094   -999.2500     40.0938
 1002.0000      77.2656   -999.2500     40.1094
 1003.0000      77.1094   -999.2500     39.6406
 1004.0000      77.1094   -999.2500     34.8750
 1005.0000      78.4219   -999.2500     35.4688
 1006.0000      78.6094   -999.2500     37.4688
 1007.0000      78.1875   -999.2500     38.6250
 1008.0000      77.7500   -999.2500     43.2656
 1009.0000      75.9688   -999.2500     49.9688
 1010.0000      73.9062   -999.2500     51.0312
 1011.0000      76.1562   -999.2500     48.5469
 1012.0000      77.1875   -999.2500     44.5938
 1013.0000      76.3906   -999.2500     44.4531
 1014.0000      75.6562   -999.2500     48.4688
 1015.0000      77.2500   -999.2500     59.6094
 1016.0000      77.2500   -999.2500     72.8125
 1017.0000      76.1875   -999.2500     74.7344
 1018.0000      79.5625   -999.2500     52.0312
 1019.0000      80.9375   -999.2500     39.1562
 1020.0000      81.9844   -999.2500     34.2500
 1021.0000      83.4688   -999.2500     29.2031
 1022.0000      84.7031   -999.2500     28.8906
 1023.0000      83.3750   -999.2500     29.7344
 1024.0000      83.4844   -999.2500     37.2344
 1025.0000      83.5781   -999.2500     58.2031
 1026.0000      81.3281   -999.2500     77.1562
 1027.0000      77.9531   -999.2500     93.2031
 1028.0000      71.8594   -999.2500     93.6875
 1029.0000      71.3125   -999.2500     91.9219
 1030.0000      72.4688   -999.2500     95.1875
 1031.0000      73.0469   -999.2500     98.2812
 1032.0000      73.3438   -999.2500     98.8750
 1033.0000      73.2500   -999.2500     99.2344
 1034.0000      73.0156   -999.2500     97.4531
 1035.0000      72.8125   -999.2500     93.6094
 1036.0000      72.6250   -999.2500     93.0625
 1037.0000      72.3906   -999.2500     86.9688
 1038.0000      72.1250   -999.2500     80.2500
 1039.0000      71.6406   -999.2500     79.6250
 1040.0000      70.8125   -999.2500     82.6719
 1041.0000      70.4062   -999.2500     74.5156
 1042.0000      69.3281   -999.2500     71.2656
 1043.0000      67.9844   -999.2500     76.1875
 1044.0000      68.8906   -999.2500     70.8125
 1045.0000      76.5938   -999.2500     53.6094
 1046.0000      78.6719   -999.2500     55.7969
 1047.0000      78.6406   -999.2500     54.4688
 1048.0000      77.2969   -999.2500     52.1250
 1049.0000      76.2500   -999.2500     52.2812
 1050.0000      77.5156   -999.2500     52.6562
 1051.0000      77.1406   -999.2500     54.3906
 1052.0000      76.8438   -999.2500     54.6250
 1053.0000      77.3750   -999.2500     51.7188
 1054.0000      79.4844   -999.2500     48.8906
 1055.0000      80.6875   -999.2500     50.4062
 1056.0000      79.8594   -999.2500     67.4219
 1057.0000      77.6562   -999.2500     94.4531
 1058.0000      77.0000   -999.2500     99.7031
 1059.0000      76.9688   -999.2500    100.9375
 1060.0000      76.2656   -999.2500    100.6875
 1061.0000      75.3906   -999.2500    101.9844
 1062.0000      74.0000   -999.2500    103.8281
 1063.0000      74.4062   -999.2500    100.0781
 1064.0000      74.6719   -999.2500     95.7812
 1065.0000      73.9219   -999.2500     93.2031
 1066.0000      73.3750   -999.2500     95.5938
 1067.0000      70.9688   -999.2500     99.4531
 1068.0000      70.5312   -999.2500     99.7656
 1069.0000      73.4844   -999.2500     97.3594
 1070.0000      75.7188   -999.2500     95.6562
 1071.0000      76.4688   -999.2500    101.3750
 1072.0000      75.0625   -999.2500    105.1719
 1073.0000      75.3750   -999.2500    107.1094
