~VERSION INFORMATION 
VERS.            2.0: LAS LOG ASCII STANDARD VERSION 2.0 
WRAP.             NO: ONE LINE PER DEPTH STEP 
~WELL INFORMATION 
#MNEM.UNIT     DATA                   DESCRIPTION    
#------------------------------------------------
STRT.F      72.0000                    : 
STOP.F    10204.0000                    : 
STEP.F       1.0000                    : 
NULL.       -999.25                    : 
WELL.        ROY BIRNEY #11                 : WELL NAME       
LONG.        0.0000000                      : LONGITUDE       
LAT.         0.0000000                      : LATITUDE        
SEC.         28                             : SECTION         
STAT.        OH                             : STATE           
TWP.         GREEN                            : TOWNSHIP        
DATE.        68/10/23                       : DATE            
DFM.         RSRN                           : DEEPEST FM      
OPER.        SANFORD E. MCCORMICK           : OPERATOR        
ORIG.        KB                             : LOG ORIGIN      
API.         3406720103                       : API             
CMNT1.       PERMIT #P-103                  : COMMENT 1       
RGE.         1                              : RANGE           
CNTY.        HARRISON                          : COUNTY          
LOC.         1266'FNL & 1966'FWL OF NW1/4   : LOCATION DESC   
#~TOPS
INJUN                  815.00
BEREA                 1410.00
DEV. SHALE            1460.00
BIG LIME              4628.00
ORISKANY              4805.00
PACKER SHELL          6662.00
ORDOV. SHALE          6971.00
TRENTON               8612.00
BLACK RIVER           8880.00
GULL RIVER            9438.00
GLENWOOD SHALE        9500.00
BEEKMANTOWN           9654.00
ROSE RUN SD.         10168.00
~CURVE INFORMATION 
#MNEM.UNIT     API CODE               CURVE DESCRIPTION
#------------------------------------------------------
DEPT.F                                 : 1 DEPTH
DT  .usec/ft                        : 2 SONIC
RHOB.gm/cc                          : 3 DENSITY
GR  .API UNITS                      : 4 GAMMA RAY
~PARAMETER INFORMATION 
#MNEM.UNIT     VALUE                  DESCRIPTION
#------------------------------------------------
EKB.F        1126.900                 : ELEVATION KB
~A   DEPTH           DT        RHOB          GR
# ...
 1575.0000      70.5938      2.6764     89.2344
 1576.0000      72.6094      2.6506     94.8750
 1577.0000      73.9219      2.6561     99.2812
 1578.0000      74.9531      2.6738    103.4844
 1579.0000      72.5625      2.6939    103.2656
 1580.0000      74.9375      2.7011    104.6562
 1581.0000      75.4844      2.7108    111.5312
 1582.0000      75.3438      2.7094    110.7031
 1583.0000      75.3906      2.6949    111.2656
 1584.0000      74.7188      2.7171    105.1562
 1585.0000      75.0312      2.7221    104.5156
 1586.0000      74.3125      2.6829    103.8594
 1587.0000      72.1250      2.6809    103.2188
 1588.0000      71.5000      2.7013    102.5625
 1589.0000      72.3438      2.6791     98.5156
 1590.0000      69.9375      2.6851     98.9375
 1591.0000      71.4531      2.6899     99.6875
 1592.0000      73.9219      2.6878     97.2969
 1593.0000      70.2031      2.6899     94.3125
 1594.0000      68.9219      2.6850     94.5156
 1595.0000      69.9375      2.7179    100.5469
 1596.0000      71.7344      2.7371    103.1094
 1597.0000      70.9688      2.7266     98.7812
 1598.0000      69.0469      2.7098     91.9531
 1599.0000      69.2031      2.5769     87.9062
 1600.0000      70.4531      2.5528     88.5156
 1601.0000      71.4844      2.5554     88.7188
 1602.0000      70.1094      2.5925     88.0469
 1603.0000      70.7188      2.5528     90.3438
 1604.0000      72.5156      2.5363     98.5156
 1605.0000      75.4688      2.5904    103.1250
 1606.0000      74.1094      2.5803    105.7969
 1607.0000      73.9531      2.5743    107.9531
 1608.0000      75.5312      2.5858    110.1250
 1609.0000      74.9844      2.5853    104.8750
 1610.0000      75.1406      2.5815    103.8750
 1611.0000      78.1250      2.5839    106.0781
 1612.0000      78.9062      2.5938    108.7188
 1613.0000      78.8125      2.5776    110.6719
 1614.0000      77.3906      2.5651    110.6719
 1615.0000      73.3594      2.5434    105.9531
 1616.0000      71.4531      2.5368     95.2031
 1617.0000      71.1562      2.5485     91.9062
 1618.0000      70.5469      2.5606     94.6406
 1619.0000      69.6719      2.5616     91.5781
 1620.0000      69.4062      2.5506     91.6250
 1621.0000      73.9219      2.5433     95.2031
 1622.0000      75.3750      2.5354     97.0469
 1623.0000      73.1250      2.5154     95.7812
 1624.0000      71.7188      2.5219     93.5312
 1625.0000      72.2344      2.5264     93.8125
 1626.0000      73.3125      2.5139     99.2969
 1627.0000      74.5938      2.5043    105.5625
 1628.0000      76.1562      2.4990    106.9375
 1629.0000      76.7656      2.5276    105.6250
 1630.0000      77.5156      2.5669    103.6562
 1631.0000      76.8906      2.5694    103.5312
 1632.0000      75.6250      2.5640    103.2969
 1633.0000      76.0781      2.5530    104.4062
 1634.0000      75.7812      2.5373    103.9844
 1635.0000      74.6719      2.5273    100.2031
 1636.0000      72.6719      2.5308     96.6562
 1637.0000      71.5000      2.5366     93.1875
 1638.0000      71.7969      2.5364     96.2188
 1639.0000      74.2969      2.5405     99.8750
 1640.0000      75.1719      2.5403    100.1719
 1641.0000      72.7344      2.5293     96.1094
 1642.0000      70.0625      2.5394     88.5312
 1643.0000      67.0469      2.5449     88.4531
 1644.0000      70.3438      2.5493     94.8438
 1645.0000      76.4375      2.5719    106.5938
 1646.0000      76.5000      2.5770    108.8281
 1647.0000      73.8438      2.5818    104.3438
 1648.0000      75.3438      2.5626    106.5000
 1649.0000      78.5625      2.5356    108.5469
 1650.0000      79.4375      2.5298    110.6406
 1651.0000      79.2969      2.5171    113.5938
 1652.0000      78.4844      2.5190    111.6562
 1653.0000      77.6406      2.5289    109.6250
 1654.0000      77.7812      2.5391    107.5000
 1655.0000      78.2656      2.5404    105.2812
 1656.0000      78.2188      2.5316    102.4062
 1657.0000      75.1719      2.5425    100.9531
 1658.0000      71.3125      2.5665    103.8594
 1659.0000      72.7344      2.5613    107.0938
 1660.0000      76.9219      2.5704    108.4844
 1661.0000      77.0469      2.5965    108.5156
 1662.0000      73.6875      2.5988    107.6719
 1663.0000      73.5312      2.5831    105.7188
 1664.0000      73.0781      2.5743    102.3125
 1665.0000      71.2500      2.5604     99.1875
 1666.0000      71.3125      2.5555     98.5312
 1667.0000      70.5781      2.5521     96.3125
 1668.0000      69.2188      2.5449     94.7188
 1669.0000      70.4375      2.5429     96.0938
 1670.0000      71.5000      2.5441     97.3438
 1671.0000      73.3594      2.5510    100.0781
 1672.0000      74.2031      2.5718    100.4375
 1673.0000      75.1719      2.6088    101.5312
 1674.0000      75.2188      2.6043    104.9219
 1675.0000      75.4062      2.5823    105.8438
 1676.0000      75.8750      2.5638    104.1406
 1677.0000      75.2969      2.5571    104.5000
 1678.0000      74.2344      2.5468    105.8750
 1679.0000      74.7500      2.5385    107.7969
 1680.0000      75.6094      2.5556    108.2812
 1681.0000      75.8750      2.5814    108.5312
 1682.0000      75.4375      2.5899    110.0625
 1683.0000      74.3125      2.5800    108.7031
 1684.0000      73.3750      2.5685    105.3906
 1685.0000      72.9219      2.5596    105.2188
 1686.0000      72.1875      2.5511    103.1094
 1687.0000      70.3438      2.5545    100.5938
 1688.0000      71.4062      2.5701    102.1562
 1689.0000      74.0938      2.5753    106.0625
 1690.0000      75.2969      2.5916    107.9531
 1691.0000      74.5781      2.6058    107.6094
 1692.0000      73.1562      2.5988    104.8438
 1693.0000      72.1562      2.5903    102.4531
 1694.0000      73.1875      2.6013    103.3281
 1695.0000      74.8438      2.6160    105.2812
 1696.0000      74.9688      2.6024    105.6875
 1697.0000      73.8125      2.5961    105.7500
 1698.0000      72.0000      2.6068    103.0938
 1699.0000      70.5625      2.6500     98.7500
 1700.0000      67.1250      2.6068     92.4531
 1701.0000      70.8906      2.6004     91.0000
 1702.0000      74.9844      2.6070     96.8438
 1703.0000      76.2656      2.6085    104.5625
 1704.0000      73.4375      2.6081    103.9844
 1705.0000      72.5781      2.5998    101.8594
 1706.0000      71.7656      2.5914    100.7969
 1707.0000      69.1406      2.6026     96.3125
 1708.0000      67.6094      2.5943     87.5312
 1709.0000      68.4375      2.5793     87.8438
 1710.0000      70.0000      2.5733     94.1094
 1711.0000      74.4844      2.5654    104.5938
 1712.0000      76.3906      2.6144    106.5781
 1713.0000      68.4844      2.5974     98.1562
 1714.0000      66.5156      2.5830     90.3125
 1715.0000      69.7500      2.5974     92.6719
 1716.0000      72.6562      2.6073     98.5156
 1717.0000      71.8750      2.6158    100.0156
 1718.0000      71.1875      2.6313     99.9062
 1719.0000      70.9219      2.6280    100.9062
 1720.0000      70.3281      2.6048     99.2031
 1721.0000      69.7500      2.5811     96.3438
 1722.0000      69.1406      2.5874     94.6094
 1723.0000      69.2188      2.5866     95.7812
 1724.0000      71.1562      2.5954    101.7344
 1725.0000      72.5312      2.6249    104.7188
 1726.0000      76.0312      2.6166    105.7812
 1727.0000      76.2969      2.5983    103.2188
 1728.0000      73.7812      2.5869     95.5469
 1729.0000      69.7969      2.5825     90.3125
 1730.0000      73.6406      2.5885     96.8750
 1731.0000      77.5781      2.5835     98.9219
 1732.0000      74.1875      2.5850     96.1250
 1733.0000      70.7500      2.6073     93.1094
 1734.0000      71.7344      2.6164     95.6719
 1735.0000      74.8750      2.6124    101.2031
 1736.0000      76.2344      2.6188    105.3906
 1737.0000      76.0156      2.6174    109.1719
 1738.0000      76.3281      2.6033    111.5000
 1739.0000      76.0938      2.5980    112.9844
 1740.0000      75.3750      2.6045    113.0000
 1741.0000      73.0156      2.6039    107.4375
