~VERSION INFORMATION 
VERS.            2.0: LAS LOG ASCII STANDARD VERSION 2.0 
WRAP.             NO: ONE LINE PER DEPTH STEP 
~WELL INFORMATION 
#MNEM.UNIT     DATA                   DESCRIPTION    
#------------------------------------------------
STRT.F      72.0000                    : 
STOP.F    10204.0000                    : 
STEP.F       1.0000                    : 
NULL.       -999.25                    : 
WELL.        ROY BIRNEY #11                 : WELL NAME       
LONG.        0.0000000                      : LONGITUDE       
LAT.         0.0000000                      : LATITUDE        
SEC.         28                             : SECTION         
STAT.        OH                             : STATE           
TWP.         GREEN                            : TOWNSHIP        
DATE.        68/10/23                       : DATE            
DFM.         RSRN                           : DEEPEST FM      
OPER.        SANFORD E. MCCORMICK           : OPERATOR        
ORIG.        KB                             : LOG ORIGIN      
API.         3406720103                       : API             
CMNT1.       PERMIT #P-103                  : COMMENT 1       
RGE.         1                              : RANGE           
CNTY.        HARRISON                          : COUNTY          
LOC.         1266'FNL & 1966'FWL OF NW1/4   : LOCATION DESC   
#~TOPS
INJUN                  815.00
BEREA                 1410.00
DEV. SHALE            1460.00
BIG LIME              4628.00
ORISKANY              4805.00
PACKER SHELL          6662.00
ORDOV. SHALE          6971.00
TRENTON               8612.00
BLACK RIVER           8880.00
GULL RIVER            9438.00
GLENWOOD SHALE        9500.00
BEEKMANTOWN           9654.00
ROSE RUN SD.         10168.00
~CURVE INFORMATION 
#MNEM.UNIT     API CODE               CURVE DESCRIPTION
#------------------------------------------------------
DEPT.F                                 : 1 DEPTH
DT  .usec/ft                        : 2 SONIC
RHOB.gm/cc                          : 3 DENSITY
GR  .API UNITS                      : 4 GAMMA RAY
~PARAMETER INFORMATION 
#MNEM.UNIT     VALUE                  DESCRIPTION
#------------------------------------------------
EKB.F        1126.900                 : ELEVATION KB
~A   DEPTH           DT        RHOB          GR
# ...
10092.0000      43.6875      2.8739     33.4062
10093.0000      44.2969      2.8791     33.2656
10094.0000      45.6719      2.8876     34.1250
10095.0000      45.7031      2.8778     39.0625
10096.0000      45.2500      2.8479     49.1719
10097.0000      44.9062      2.8363     59.9688
10098.0000      44.9844      2.8489     53.7656
10099.0000      44.8906      2.8611     41.2812
10100.0000      45.1875      2.8801     39.8750
10101.0000      45.2188      2.8768     41.9219
10102.0000      44.7969      2.8766     42.8906
10103.0000      44.4375      2.8925     42.0781
10104.0000      44.8750      2.9149     38.2812
10105.0000      44.8906      2.9315     32.2812
10106.0000      44.9375      2.9291     30.5625
10107.0000      45.1875      2.9074     27.8906
10108.0000      44.9375      2.8816     25.9844
10109.0000      44.5938      2.8843     28.1250
10110.0000      44.8281      2.8944     30.0156
10111.0000      45.3594      2.9208     34.4688
10112.0000      45.3906      2.9323     41.5781
10113.0000      45.4219      2.8553     44.4219
10114.0000      45.4688      2.8295     43.5156
10115.0000      45.3906      2.8551     40.8906
10116.0000      45.3906      2.8676     39.1562
10117.0000      45.3438      2.8881     35.7656
10118.0000      45.0625      2.9121     35.2031
10119.0000      44.6250      2.9085     35.6875
10120.0000      44.4375      2.9256     34.1406
10121.0000      44.4688      2.9141     32.2031
10122.0000      44.1719      2.8948     32.0156
10123.0000      43.9688      2.8838     31.1094
10124.0000      44.2031      2.9309     30.1875
10125.0000      45.5312      2.9264     32.2656
10126.0000      47.8750      2.9435     46.3281
10127.0000      47.9219      2.9013     65.0938
10128.0000      46.9219      2.8648     80.9531
10129.0000      46.1094      2.8453     78.7031
10130.0000      46.4688      2.8573     66.3906
10131.0000      46.2656      2.8703     65.2812
10132.0000      45.6562      2.8505     71.9062
10133.0000      45.3906      2.8339     61.7344
10134.0000      44.9531      2.8361     47.5312
10135.0000      44.3594      2.8519     43.7188
10136.0000      44.8594      2.9033     33.7969
10137.0000      45.6406      2.8944     31.3906
10138.0000      46.3594      2.8909     44.7656
10139.0000      48.3750      2.8799     51.6250
10140.0000      49.4531      2.8499     62.0469
10141.0000      48.5312      2.8295     96.4844
10142.0000      47.1719      2.8088     87.4375
10143.0000      46.3750      2.8040     73.7188
10144.0000      46.5469      2.8658     64.8594
10145.0000      46.6562      2.8650     57.3438
10146.0000      47.3281      2.8496     60.7812
10147.0000      50.9531      2.8368     58.4375
10148.0000      51.5000      2.8556     53.4375
10149.0000      51.9688      2.8426     43.1562
10150.0000      52.3438      2.8079     45.2031
10151.0000      53.5469      2.7491     45.9062
10152.0000      52.9688      2.7943     32.5938
10153.0000      52.6875      2.8065     29.2656
10154.0000      52.3125      2.7740     31.9844
10155.0000      50.6406      2.7351     35.5938
10156.0000      49.3438      2.7779     31.7344
10157.0000      48.5625      2.7868     33.7188
10158.0000      47.6406      2.7793     48.0312
10159.0000      47.0156      2.8085     58.8125
10160.0000      47.5781      2.8259     48.4844
10161.0000      48.4844      2.8175     49.0469
10162.0000      48.7656      2.8424     63.7812
10163.0000      48.3281      2.8424     74.4062
10164.0000      47.8594      2.8604     73.8750
10165.0000      49.0156      2.8631     74.0625
10166.0000      50.9375      2.8606     73.0781
10167.0000      55.0469      2.8208     70.0781
10168.0000      56.3594      2.7764     69.5156
10169.0000      56.7500      2.7108     74.2344
10170.0000      56.8594      2.6198     76.7188
10171.0000      56.8906      2.6068     73.1562
10172.0000      56.8906      2.6380     71.2500
10173.0000      56.8750      2.6918     68.5312
10174.0000      56.8594      2.7771     68.1094
10175.0000      56.8281      2.8110     68.5938
10176.0000      56.8125      2.8283     70.3438
10177.0000      56.8438      2.8110     70.3750
10178.0000      56.8750      2.7860     72.5000
10179.0000      56.9062      2.7918     73.0938
10180.0000      56.9531      2.8048     70.9219
10181.0000      56.9375      2.8163     70.7188
10182.0000      56.9062      2.7851     71.5781
10183.0000      56.8281      2.7625     69.0000
10184.0000    -999.2500      2.7499   -999.2500
10185.0000    -999.2500      2.7616   -999.2500
10186.0000    -999.2500      2.7759   -999.2500
10187.0000    -999.2500      2.7738   -999.2500
10188.0000    -999.2500      2.7784   -999.2500
10189.0000    -999.2500      2.7918   -999.2500
10190.0000    -999.2500      2.8076   -999.2500
10191.0000    -999.2500      2.8255   -999.2500
10192.0000    -999.2500      2.8331   -999.2500
10193.0000    -999.2500      2.8205   -999.2500
10194.0000    -999.2500      2.8064   -999.2500
10195.0000    -999.2500      2.7911   -999.2500
10196.0000    -999.2500      2.7879   -999.2500
10197.0000    -999.2500      2.7880   -999.2500
10198.0000    -999.2500      2.7889   -999.2500
10199.0000    -999.2500      2.7890   -999.2500
10200.0000    -999.2500      2.7890   -999.2500
10201.0000    -999.2500      2.7889   -999.2500
10202.0000    -999.2500      2.7888   -999.2500
10203.0000    -999.2500      2.7885   -999.2500
10204.0000    -999.2500      2.7874   -999.2500
