~VERSION INFORMATION 
VERS.            2.0: LAS LOG ASCII STANDARD VERSION 2.0 
WRAP.             NO: ONE LINE PER DEPTH STEP 
~WELL INFORMATION 
#MNEM.UNIT     DATA                   DESCRIPTION    
#------------------------------------------------
STRT.F      72.0000                    : 
STOP.F    10204.0000                    : 
STEP.F       1.0000                    : 
NULL.       -999.25                    : 
WELL.        ROY BIRNEY #11                 : WELL NAME       
LONG.        0.0000000                      : LONGITUDE       
LAT.         0.0000000                      : LATITUDE        
SEC.         28                             : SECTION         
STAT.        OH                             : STATE           
TWP.         GREEN                            : TOWNSHIP        
DATE.        68/10/23                       : DATE            
DFM.         RSRN                           : DEEPEST FM      
OPER.        SANFORD E. MCCORMICK           : OPERATOR        
ORIG.        KB                             : LOG ORIGIN      
API.         3406720103                       : API             
CMNT1.       PERMIT #P-103                  : COMMENT 1       
RGE.         1                              : RANGE           
CNTY.        HARRISON                          : COUNTY          
LOC.         1266'FNL & 1966'FWL OF NW1/4   : LOCATION DESC   
#~TOPS
INJUN                  815.00
BEREA                 1410.00
DEV. SHALE            1460.00
BIG LIME              4628.00
ORISKANY              4805.00
PACKER SHELL          6662.00
ORDOV. SHALE          6971.00
TRENTON               8612.00
BLACK RIVER           8880.00
GULL RIVER            9438.00
GLENWOOD SHALE        9500.00
BEEKMANTOWN           9654.00
ROSE RUN SD.         10168.00
~CURVE INFORMATION 
#MNEM.UNIT     API CODE               CURVE DESCRIPTION
#------------------------------------------------------
DEPT.F                                 : 1 DEPTH
DT  .usec/ft                        : 2 SONIC
RHOB.gm/cc                          : 3 DENSITY
GR  .API UNITS                      : 4 GAMMA RAY
~PARAMETER INFORMATION 
#MNEM.UNIT     VALUE                  DESCRIPTION
#------------------------------------------------
EKB.F        1126.900                 : ELEVATION KB
~A   DEPTH           DT        RHOB          GR
# ...
 2243.0000      70.7812      2.7021    106.2500
 2244.0000      70.9062      2.6879    106.6875
 2245.0000      70.7031      2.6658    103.5938
 2246.0000      69.7969      2.6290    100.8438
 2247.0000      68.2500      2.6461    103.0312
 2248.0000      68.7344      2.6739    108.2344
 2249.0000      69.7344      2.6914    111.6562
 2250.0000      70.9531      2.6906    113.3594
 2251.0000      71.1562      2.6848    110.5625
 2252.0000      70.3438      2.7034    108.9375
 2253.0000      69.9531      2.7198    110.7969
 2254.0000      70.0312      2.7056    110.3438
 2255.0000      70.6562      2.7006    107.3750
 2256.0000      71.2188      2.6881    105.7344
 2257.0000      71.1250      2.6870    107.7344
 2258.0000      70.3906      2.7019    110.7812
 2259.0000      70.2344      2.6895    109.4531
 2260.0000      70.2812      2.6761    105.6250
 2261.0000      69.8125      2.6725    103.4844
 2262.0000      68.3438      2.6731    100.5469
 2263.0000      67.5312      2.6561    100.4688
 2264.0000      68.3125      2.6430    105.6250
 2265.0000      69.5781      2.6648    107.6562
 2266.0000      70.5469      2.6763    107.2031
 2267.0000      70.0781      2.6770    107.8750
 2268.0000      69.5938      2.6705    106.4844
 2269.0000      69.6719      2.6665    105.8125
 2270.0000      70.2656      2.6591    106.4844
 2271.0000      70.7969      2.6623    106.5781
 2272.0000      70.7656      2.6708    106.9844
 2273.0000      70.9062      2.6825    108.1719
 2274.0000      71.1719      2.6821    107.9375
 2275.0000      70.8281      2.6833    105.9688
 2276.0000      70.5156      2.6924    105.1250
 2277.0000      70.3594      2.7048    104.9531
 2278.0000      70.4844      2.6728    103.0469
 2279.0000      70.7812      2.6900    104.3438
 2280.0000      71.8281      2.6929    106.9219
 2281.0000      72.9531      2.6690    107.4688
 2282.0000      72.5469      2.6740    108.0000
 2283.0000      71.5156      2.6824    110.0938
 2284.0000      72.3906      2.6969    113.9219
 2285.0000      73.7812      2.6964    115.4844
 2286.0000      75.0781      2.6703    117.0469
 2287.0000      74.6250      2.6665    113.7969
 2288.0000      73.3594      2.6669    107.5469
 2289.0000      70.7812      2.6688    107.7656
 2290.0000      68.5469      2.6783    110.2344
 2291.0000      69.3906      2.6978    109.3750
 2292.0000      70.9531      2.7034    108.9844
 2293.0000      71.5625      2.6935    109.9375
 2294.0000      71.0000      2.6764    108.5781
 2295.0000      69.8125      2.6685    105.9219
 2296.0000      69.2812      2.6673    101.8438
 2297.0000      69.9531      2.6763    101.7344
 2298.0000      69.7969      2.6843    109.4219
 2299.0000      68.1562      2.6889    114.4219
 2300.0000      67.4062      2.7034    114.1719
 2301.0000      68.4219      2.7009    110.6719
 2302.0000      69.6562      2.7166    110.8125
 2303.0000      70.7812      2.6833    111.5938
 2304.0000      71.0938      2.6834    110.5938
 2305.0000      70.7500      2.6966    108.5625
 2306.0000      69.8125      2.6984    106.3594
 2307.0000      68.9219      2.6865    102.7812
 2308.0000      69.2500      2.6446    101.2031
 2309.0000      68.7500      2.6654    109.2656
 2310.0000      67.3750      2.6693    107.7969
 2311.0000      66.8281      2.6648    104.7188
 2312.0000      67.7188      2.6769    104.7969
 2313.0000      69.3281      2.6953    105.2188
 2314.0000      71.0156      2.6973    107.3125
 2315.0000      72.1875      2.7233    108.9062
 2316.0000      71.0312      2.7294    109.1719
 2317.0000      71.1250      2.7018    112.5156
 2318.0000      72.8281      2.6853    114.1719
 2319.0000      73.5938      2.7054    115.5156
 2320.0000      74.0000      2.7038    113.2969
 2321.0000      74.1094      2.6916    113.1094
 2322.0000      74.0000      2.6754    115.5625
 2323.0000      74.3438      2.6803    115.3281
 2324.0000      75.3281      2.6930    113.3750
 2325.0000      74.8125      2.6980    111.4688
 2326.0000      73.3906      2.6916    111.5000
 2327.0000      72.5000      2.6793    110.2500
 2328.0000      71.7188      2.6630    110.9062
 2329.0000      70.6875      2.6784    106.1094
 2330.0000      70.3906      2.7068    106.3750
 2331.0000      69.9844      2.7091    107.0000
 2332.0000      69.4531      2.7176    110.8125
 2333.0000      68.8906      2.6814    114.6094
 2334.0000      68.1875      2.7100    113.0625
 2335.0000      69.0000      2.6911    110.4844
 2336.0000      71.6562      2.6856    108.6094
 2337.0000      72.1719      2.6838    109.9375
 2338.0000      71.3281      2.6643    110.4375
 2339.0000      69.9375      2.6674    114.3438
 2340.0000      69.9688      2.6794    115.1406
 2341.0000      71.0312      2.6836    114.7344
 2342.0000      71.7188      2.6884    115.9688
 2343.0000      72.8281      2.6936    116.5312
 2344.0000      73.7812      2.6918    116.7344
 2345.0000      73.9688      2.6948    115.6250
 2346.0000      74.2500      2.6971    117.9375
 2347.0000      74.3281      2.6971    120.1719
 2348.0000      74.0938      2.7018    119.8125
 2349.0000      75.0000      2.7085    119.2656
 2350.0000      75.4375      2.7150    121.2344
 2351.0000      75.2969      2.7078    122.5156
 2352.0000      75.2500      2.6925    120.6719
 2353.0000      75.2188      2.6759    117.4844
 2354.0000      75.5469      2.6659    116.5469
 2355.0000      75.4375      2.6729    115.2969
 2356.0000      74.3750      2.6891    114.8750
 2357.0000      72.6875      2.6889    114.8750
 2358.0000      70.5625      2.6821    114.5312
 2359.0000      69.6094      2.6859    114.0000
 2360.0000      70.2500      2.6855    117.8281
 2361.0000      71.1250      2.6909    117.5312
 2362.0000      71.6094      2.6956    115.1562
 2363.0000      72.9688      2.7180    112.9531
 2364.0000      76.2969      2.7443    115.7656
 2365.0000      76.8906      2.7183    119.7500
 2366.0000      76.4844      2.7054    122.7656
 2367.0000      76.1250      2.6996    123.2344
 2368.0000      75.1562      2.7016    118.6406
 2369.0000      74.7812      2.6955    113.6562
 2370.0000      74.3906      2.7000    112.1719
 2371.0000      74.0938      2.6943    112.9531
 2372.0000      73.5781      2.6929    113.5469
 2373.0000      72.6875      2.6935    117.5625
 2374.0000      72.6094      2.6999    115.3125
 2375.0000      72.7344      2.6980    114.1562
 2376.0000      72.8906      2.7028    114.9219
 2377.0000      72.8906      2.7080    116.1875
 2378.0000      72.9375      2.7145    117.1406
 2379.0000      73.1719      2.7279    118.0625
 2380.0000      73.5312      2.7229    118.8750
 2381.0000      74.1719      2.6996    120.1719
 2382.0000      74.6250      2.7116    121.5938
 2383.0000      75.2969      2.7095    123.4531
 2384.0000      75.5781      2.7049    120.9219
 2385.0000      75.5625      2.6974    116.8281
 2386.0000      75.6406      2.7019    119.7031
 2387.0000      75.5781      2.7143    120.8750
 2388.0000      74.7969      2.7338    121.9531
 2389.0000      74.2969      2.7285    122.4531
 2390.0000      73.5469      2.7066    122.2031
 2391.0000      73.5938      2.6959    118.0156
 2392.0000      74.0000      2.6871    113.3438
 2393.0000      73.2656      2.6841    107.1250
 2394.0000      72.0156      2.6808    104.4531
 2395.0000      70.3750      2.6885    106.7188
 2396.0000      71.5312      2.6961    113.0781
 2397.0000      71.7812      2.7029    117.5625
 2398.0000      70.9062      2.7094    117.2031
 2399.0000      70.5781      2.6970    114.5781
 2400.0000      71.8594      2.7040    116.3125
 2401.0000      73.2969      2.6985    110.1094
 2402.0000      73.3438      2.7054    109.0156
 2403.0000      73.0938      2.7278    109.9531
 2404.0000      72.7812      2.7235    110.9844
 2405.0000      72.0938      2.7136    112.5156
 2406.0000      71.8594      2.6881    117.3281
 2407.0000      72.3438      2.6938    122.1094
 2408.0000      72.6094      2.7245    123.1875
 2409.0000      72.6875      2.7334    122.7969
