~VERSION INFORMATION 
VERS.            2.0: LAS LOG ASCII STANDARD VERSION 2.0 
WRAP.             NO: ONE LINE PER DEPTH STEP 
~WELL INFORMATION 
#MNEM.UNIT     DATA                   DESCRIPTION    
#------------------------------------------------
STRT.F      72.0000                    : 
STOP.F    10204.0000                    : 
STEP.F       1.0000                    : 
NULL.       -999.25                    : 
WELL.        ROY BIRNEY #11                 : WELL NAME       
LONG.        0.0000000                      : LONGITUDE       
LAT.         0.0000000                      : LATITUDE        
SEC.         28                             : SECTION         
STAT.        OH                             : STATE           
TWP.         GREEN                            : TOWNSHIP        
DATE.        68/10/23                       : DATE            
DFM.         RSRN                           : DEEPEST FM      
OPER.        SANFORD E. MCCORMICK           : OPERATOR        
ORIG.        KB                             : LOG ORIGIN      
API.         3406720103                       : API             
CMNT1.       PERMIT #P-103                  : COMMENT 1       
RGE.         1                              : RANGE           
CNTY.        HARRISON                          : COUNTY          
LOC.         1266'FNL & 1966'FWL OF NW1/4   : LOCATION DESC   
#~TOPS
INJUN                  815.00
BEREA                 1410.00
DEV. SHALE            1460.00
BIG LIME              4628.00
ORISKANY              4805.00
PACKER SHELL          6662.00
ORDOV. SHALE          6971.00
TRENTON               8612.00
BLACK RIVER           8880.00
GULL RIVER            9438.00
GLENWOOD SHALE        9500.00
BEEKMANTOWN           9654.00
ROSE RUN SD.         10168.00
~CURVE INFORMATION 
#MNEM.UNIT     API CODE               CURVE DESCRIPTION
#------------------------------------------------------
DEPT.F                                 : 1 DEPTH
DT  .usec/ft                        : 2 SONIC
RHOB.gm/cc                          : 3 DENSITY
GR  .API UNITS                      : 4 GAMMA RAY
~PARAMETER INFORMATION 
#MNEM.UNIT     VALUE                  DESCRIPTION
#------------------------------------------------
EKB.F        1126.900                 : ELEVATION KB
~A   DEPTH           DT        RHOB          GR
# ...
 4915.0000      54.6562      2.6894     53.5469
 4916.0000      54.2500      2.6780     38.5938
 4917.0000      52.5000      2.6700     33.9062
 4918.0000      50.2344      2.6718     40.7188
 4919.0000      50.2188      2.6748     52.2031
 4920.0000      52.4688      2.6674     66.7188
 4921.0000      57.7188      2.6740     64.3438
 4922.0000      59.1562      2.6864     60.8906
 4923.0000      58.7188      2.6920     58.7031
 4924.0000      57.5469      2.7046     47.5156
 4925.0000      51.8281      2.6861     42.2031
 4926.0000      52.8906      2.6644     46.8125
 4927.0000      53.0000      2.6751     38.1406
 4928.0000      53.1094      2.6789     37.7500
 4929.0000      53.2188      2.6968     35.6250
 4930.0000      52.6562      2.6923     38.5781
 4931.0000      52.3750      2.6811     38.1875
 4932.0000      53.0625      2.6573     37.6094
 4933.0000      53.1094      2.6546     41.2344
 4934.0000      53.6250      2.6408     47.9844
 4935.0000      55.1719      2.6288     48.5625
 4936.0000      55.7188      2.6103     44.8438
 4937.0000      55.0938      2.6170     42.5000
 4938.0000      54.6250      2.6491     42.5938
 4939.0000      54.9062      2.6405     43.2500
 4940.0000      56.5938      2.6118     42.5469
 4941.0000      58.6094      2.6074     42.4531
 4942.0000      58.4219      2.6294     41.7031
 4943.0000      55.1094      2.6619     43.7812
 4944.0000      54.8750      2.6705     47.6250
 4945.0000      55.2188      2.6578     51.2969
 4946.0000      56.2188      2.6495     55.1406
 4947.0000      56.3438      2.6448     55.7500
 4948.0000      54.8438      2.6486     62.7969
 4949.0000      55.5156      2.6573     67.8906
 4950.0000      56.2812      2.6563     57.2344
 4951.0000      54.4531      2.6674     54.2500
 4952.0000      53.6562      2.6581     53.5312
 4953.0000      52.9062      2.6640     59.1875
 4954.0000      54.3125      2.6910     65.7500
 4955.0000      57.0781      2.7185     56.2344
 4956.0000      55.1719      2.6603     47.3750
 4957.0000      54.8281      2.6920     46.0938
 4958.0000      54.2812      2.6909     44.8125
 4959.0000      53.9844      2.6790     44.0000
 4960.0000      53.8906      2.6866     42.0156
 4961.0000      54.3125      2.6931     40.1094
 4962.0000      53.9375      2.6683     39.0469
 4963.0000      53.7344      2.6693     37.1250
 4964.0000      53.6875      2.6756     36.8281
 4965.0000      53.5000      2.7106     37.8281
 4966.0000      53.5625      2.7159     40.5781
 4967.0000      54.5000      2.6935     40.3594
 4968.0000      54.5938      2.6639     40.0312
 4969.0000      54.2656      2.6598     41.3750
 4970.0000      54.5781      2.6473     42.9062
 4971.0000      55.4844      2.6250     42.2344
 4972.0000      55.5938      2.6361     43.0312
 4973.0000      55.6250      2.6566     45.9219
 4974.0000      56.0312      2.6809     50.6562
 4975.0000      57.3125      2.7093     58.1719
 4976.0000      60.0156      2.6890     52.6719
 4977.0000      58.9219      2.7186     44.5781
 4978.0000      55.1719      2.7149     45.3594
 4979.0000      54.5312      2.7103     44.9375
 4980.0000      55.0469      2.7069     40.5000
 4981.0000      53.7031      2.7116     39.4219
 4982.0000      52.7344      2.7218     42.1250
 4983.0000      51.8281      2.7244     45.2969
 4984.0000      51.3906      2.7148     44.8594
 4985.0000      51.0312      2.7049     40.9688
 4986.0000      50.1719      2.6945     41.5625
 4987.0000      50.2969      2.6996     39.8750
 4988.0000      50.6875      2.6958     36.0000
 4989.0000      50.4688      2.7211     33.3281
 4990.0000      50.0781      2.7454     35.0156
 4991.0000      50.9531      2.7345     39.6719
 4992.0000      52.0469      2.6948     35.8125
 4993.0000      51.9219      2.7206     29.7031
 4994.0000      51.1406      2.7301     26.2188
 4995.0000      50.4062      2.7135     27.9062
 4996.0000      50.0156      2.7018     26.4375
 4997.0000      50.1719      2.6779     27.4688
 4998.0000      50.4375      2.6813     28.5781
 4999.0000      50.2031      2.6746     29.8125
 5000.0000      50.5469      2.6844     34.0781
 5001.0000      51.5000      2.6931     33.3750
 5002.0000      51.0625      2.7034     28.8750
 5003.0000      49.5469      2.6984     27.7031
 5004.0000      49.1562      2.6855     27.2031
 5005.0000      48.9375      2.7003     25.7969
 5006.0000      49.0938      2.7018     26.0312
 5007.0000      49.0781      2.7034     26.3438
 5008.0000      48.9844      2.7214     26.9844
 5009.0000      49.2344      2.7311     29.7500
 5010.0000      49.5156      2.7243     31.3594
 5011.0000      49.5312      2.7196     30.2344
 5012.0000      49.4062      2.7206     27.7500
 5013.0000      49.3906      2.7271     27.9375
 5014.0000      49.2188      2.7544     29.4531
 5015.0000      49.2656      2.7493     31.1875
 5016.0000      49.0156      2.7358     29.7656
 5017.0000      49.1406      2.7088     29.5938
 5018.0000      49.5312      2.7204     30.5625
 5019.0000      49.6875      2.7281     30.7500
 5020.0000      49.3594      2.7408     30.6719
 5021.0000      49.3281      2.6974     30.5625
 5022.0000      49.1406      2.6894     31.8906
 5023.0000      49.1562      2.6996     30.6406
 5024.0000      49.2031      2.7106     27.9375
 5025.0000      49.0312      2.7085     27.5938
 5026.0000      48.7188      2.6936     26.4062
 5027.0000      48.9531      2.6833     22.4062
 5028.0000      49.0781      2.7369     21.3906
 5029.0000      49.1406      2.7059     20.3125
 5030.0000      49.1250      2.6011     18.7188
 5031.0000      48.7656      2.6149     17.2500
 5032.0000      48.5469      2.5950     15.6406
 5033.0000      48.3125      2.6496     15.2031
 5034.0000      48.6875      2.6904     16.1250
 5035.0000      48.7500      2.6504     16.1094
 5036.0000      48.6719      2.6098     16.2344
 5037.0000      48.4844      2.5955     17.8125
 5038.0000      48.5469      2.4919     19.4531
 5039.0000      48.4062      2.7015     19.0312
 5040.0000      48.3750      2.7525     17.6406
 5041.0000      48.2656      2.7329     17.1094
 5042.0000      47.9219      2.6614     19.2031
 5043.0000      47.7188      2.6574     22.4062
 5044.0000      48.7812      2.6071     21.0312
 5045.0000      49.9375      2.6058     18.6875
 5046.0000      49.8906      2.5160     18.1875
 5047.0000      50.1719      2.4861     18.2812
 5048.0000      50.1094      2.4523     18.2812
 5049.0000      49.5469      2.3574     19.8750
 5050.0000      49.8594      2.4589     20.1719
 5051.0000      49.9062      2.4981     19.1719
 5052.0000      49.7969      2.5214     18.7969
 5053.0000      49.3906      2.5933     18.7969
 5054.0000      49.2969      2.5635     18.7969
 5055.0000      49.2656      2.5756     19.8281
 5056.0000      49.3281      2.5310     20.9688
 5057.0000      49.3125      2.5963     21.2969
 5058.0000      49.3438      2.6584     19.9531
 5059.0000      49.4375      2.6989     18.8906
 5060.0000      49.6094      2.7108     19.1094
 5061.0000      49.8281      2.7039     20.0938
 5062.0000      50.3281      2.7109     20.7188
 5063.0000      50.4844      2.6906     19.8750
 5064.0000      49.8750      2.6823     17.8594
 5065.0000      50.0312      2.6848     16.9844
 5066.0000      49.9062      2.7101     18.7812
 5067.0000      49.5781      2.6936     21.0156
 5068.0000      48.9375      2.7268     21.8906
 5069.0000      48.1719      2.6676     20.9062
 5070.0000      48.5625      2.5939     19.7812
 5071.0000      49.2500      2.6351     19.5938
 5072.0000      50.2500      2.7259     20.9531
 5073.0000      53.2500      2.7163     24.5781
 5074.0000      52.9844      2.7219     27.7031
 5075.0000      51.4219      2.7283     30.7812
 5076.0000      53.9688      2.7321     35.7656
 5077.0000      57.0938      2.7364     37.3594
 5078.0000      57.2344      2.7174     30.9219
 5079.0000      56.5312      2.7269     30.0938
 5080.0000      56.1719      2.7424     32.0000
 5081.0000      55.3125      2.7674     34.1250
