~VERSION INFORMATION 
VERS.            2.0: LAS LOG ASCII STANDARD VERSION 2.0 
WRAP.             NO: ONE LINE PER DEPTH STEP 
~WELL INFORMATION 
#MNEM.UNIT     DATA                   DESCRIPTION    
#------------------------------------------------
STRT.F      72.0000                    : 
STOP.F    10204.0000                    : 
STEP.F       1.0000                    : 
NULL.       -999.25                    : 
WELL.        ROY BIRNEY #11                 : WELL NAME       
LONG.        0.0000000                      : LONGITUDE       
LAT.         0.0000000                      : LATITUDE        
SEC.         28                             : SECTION         
STAT.        OH                             : STATE           
TWP.         GREEN                            : TOWNSHIP        
DATE.        68/10/23                       : DATE            
DFM.         RSRN                           : DEEPEST FM      
OPER.        SANFORD E. MCCORMICK           : OPERATOR        
ORIG.        KB                             : LOG ORIGIN      
API.         3406720103                       : API             
CMNT1.       PERMIT #P-103                  : COMMENT 1       
RGE.         1                              : RANGE           
CNTY.        HARRISON                          : COUNTY          
LOC.         1266'FNL & 1966'FWL OF NW1/4   : LOCATION DESC   
#~TOPS
INJUN                  815.00
BEREA                 1410.00
DEV. SHALE            1460.00
BIG LIME              4628.00
ORISKANY              4805.00
PACKER SHELL          6662.00
ORDOV. SHALE          6971.00
TRENTON               8612.00
BLACK RIVER           8880.00
GULL RIVER            9438.00
GLENWOOD SHALE        9500.00
BEEKMANTOWN           9654.00
ROSE RUN SD.         10168.00
~CURVE INFORMATION 
#MNEM.UNIT     API CODE               CURVE DESCRIPTION
#------------------------------------------------------
DEPT.F                                 : 1 DEPTH
DT  .usec/ft                        : 2 SONIC
RHOB.gm/cc                          : 3 DENSITY
GR  .API UNITS                      : 4 GAMMA RAY
~PARAMETER INFORMATION 
#MNEM.UNIT     VALUE                  DESCRIPTION
#------------------------------------------------
EKB.F        1126.900                 : ELEVATION KB
~A   DEPTH           DT        RHOB          GR
# ...
 8756.0000      55.5938      2.7929     35.6719
 8757.0000      55.9219      2.7840     36.5781
 8758.0000      55.0625      2.7958     32.3438
 8759.0000      51.8594      2.8160     26.6406
 8760.0000      51.3281      2.8089     27.2812
 8761.0000      52.7812      2.7766     34.0938
 8762.0000      55.0312      2.7556     36.2969
 8763.0000      55.1875      2.7381     29.7656
 8764.0000      52.5000      2.7505     19.8750
 8765.0000      50.3594      2.7615     15.3125
 8766.0000      49.4531      2.7729     15.5156
 8767.0000      49.3438      2.8080     19.0312
 8768.0000      51.2344      2.8234     24.0469
 8769.0000      52.5781      2.8008     26.6250
 8770.0000      52.7500      2.7944     25.5156
 8771.0000      52.7188      2.8096     20.8906
 8772.0000      51.5312      2.8084     15.3906
 8773.0000      50.5312      2.8131     11.3594
 8774.0000      49.2812      2.7628      8.5469
 8775.0000      48.2031      2.7274      6.5938
 8776.0000      47.8438      2.7620      5.4375
 8777.0000      48.1094      2.7749      5.0312
 8778.0000      48.6875      2.7806      5.5312
 8779.0000      48.6875      2.7705      6.5000
 8780.0000      48.9688      2.7451      7.8750
 8781.0000      48.7500      2.7450      9.3594
 8782.0000      48.6406      2.7349     11.2188
 8783.0000      49.1719      2.7540     13.4844
 8784.0000      49.7656      2.7811     15.4219
 8785.0000      50.2812      2.8210     15.8750
 8786.0000      50.1406      2.7921     15.7031
 8787.0000      49.6094      2.7859     13.6406
 8788.0000      48.9844      2.7639     11.2812
 8789.0000      48.5469      2.7785      9.3125
 8790.0000      48.5625      2.8078      7.3594
 8791.0000      48.4844      2.7955      5.8281
 8792.0000      48.2969      2.7929      4.9062
 8793.0000      47.6094      2.7928      5.3906
 8794.0000      47.3125      2.7764      8.0625
 8795.0000      47.5625      2.7774     12.3594
 8796.0000      47.7812      2.7915     15.5781
 8797.0000      48.5469      2.8099     17.5469
 8798.0000      50.4531      2.8053     18.0000
 8799.0000      50.1719      2.7878     15.9375
 8800.0000      50.4688      2.7684     12.8438
 8801.0000      49.6562      2.7621     12.4219
 8802.0000      49.6094      2.7860     16.4844
 8803.0000      48.1250      2.7235     27.4531
 8804.0000      50.2969      2.6544     41.3438
 8805.0000      54.8125      2.4765     69.4062
 8806.0000      60.0469      2.3141     96.0156
 8807.0000      65.2031      2.1794    104.5156
 8808.0000      82.2969      2.2204     76.7500
 8809.0000      81.7812      2.6128     35.2656
 8810.0000      59.3281      2.7695     14.1719
 8811.0000      48.8438      2.7878      9.2188
 8812.0000      47.9531      2.7956      8.0312
 8813.0000      48.4219      2.7978     10.6094
 8814.0000      48.3438      2.7813     13.2656
 8815.0000      48.3438      2.7586     14.1562
 8816.0000      48.4844      2.7655     14.4375
 8817.0000      48.2188      2.7720     15.4844
 8818.0000      48.0938      2.7606     17.1875
 8819.0000      48.8750      2.7783     16.8594
 8820.0000      49.2031      2.7890     15.4375
 8821.0000      48.3125      2.7889     13.5312
 8822.0000      47.2188      2.7573     11.6875
 8823.0000      47.2188      2.7048     11.1406
 8824.0000      47.0781      2.6994     11.5469
 8825.0000      47.2656      2.6831     12.8438
 8826.0000      47.2969      2.7408     14.4688
 8827.0000      47.1719      2.7515     16.0625
 8828.0000      47.3125      2.7361     16.9688
 8829.0000      48.1406      2.7463     17.1250
 8830.0000      48.5469      2.7603     17.0312
 8831.0000      48.5156      2.7778     16.3906
 8832.0000      48.2500      2.7749     16.3125
 8833.0000      48.6250      2.7803     18.0312
 8834.0000      49.0625      2.8100     19.5312
 8835.0000      49.2188      2.8408     19.5312
 8836.0000      48.6719      2.8450     17.2344
 8837.0000      48.2969      2.8346     15.0625
 8838.0000      48.1406      2.8329     13.8750
 8839.0000      49.1406      2.8288     13.7031
 8840.0000      49.9375      2.8071     13.9688
 8841.0000      47.9531      2.7766     16.0156
 8842.0000      46.9531      2.7943     18.8438
 8843.0000      55.5938      2.7586     20.3438
 8844.0000      56.7344      2.7265     19.5312
 8845.0000      50.4375      2.8125     18.8438
 8846.0000      48.0625      2.8190     19.0156
 8847.0000      47.6719      2.8219     20.0000
 8848.0000      48.4062      2.8204     21.7656
 8849.0000      49.0156      2.8105     20.3281
 8850.0000      48.3125      2.8090     17.0469
 8851.0000      47.8125      2.8136     13.9688
 8852.0000      48.2500      2.8055     20.0938
 8853.0000      49.6094      2.7875     25.9688
 8854.0000      50.9062      2.7629     32.0312
 8855.0000      50.2812      2.7296     40.3750
 8856.0000      55.3438      2.6021     60.8281
 8857.0000      63.9844      2.5049     92.7969
 8858.0000      70.8906      2.4981     85.9844
 8859.0000      53.9844      2.5636     44.5156
 8860.0000      55.7969      2.7135     27.1875
 8861.0000      49.6250      2.7213     17.7031
 8862.0000      46.1406      2.7778     15.2812
 8863.0000      46.6406      2.8018     16.0000
 8864.0000      47.0625      2.8033     18.9531
 8865.0000      47.6875      2.7920     25.0000
 8866.0000      49.8906      2.8025     31.4688
 8867.0000      50.4531      2.8240     32.8281
 8868.0000      50.0781      2.8089     38.8906
 8869.0000      52.3125      2.8050     46.5625
 8870.0000      53.7344      2.8021     43.6094
 8871.0000      52.4531      2.7911     37.8750
 8872.0000      50.3281      2.7879     30.9219
 8873.0000      50.3125      2.7865     34.6719
 8874.0000      51.0312      2.7845     44.0781
 8875.0000      52.0781      2.7824     47.7656
 8876.0000      53.3125      2.8038     46.9688
 8877.0000      53.7031      2.7828     44.9531
 8878.0000      54.0469      2.7906     40.5625
 8879.0000      51.5469      2.8491     32.4688
 8880.0000      48.5781      2.8695     21.9375
 8881.0000      47.2500      2.8310     17.9219
 8882.0000      47.7656      2.8310     19.0156
 8883.0000      48.4844      2.8261     20.1562
 8884.0000      48.3438      2.8029     21.8281
 8885.0000      48.9219      2.7994     26.8750
 8886.0000      50.8281      2.7960     30.7344
 8887.0000      51.2969      2.8041     29.1719
 8888.0000      49.3281      2.8091     21.1094
 8889.0000      47.7969      2.8069     13.3750
 8890.0000      47.0625      2.8191      9.0469
 8891.0000      47.2344      2.8465      9.5000
 8892.0000      47.3281      2.8196     14.2031
 8893.0000      47.6875      2.8108     20.0469
 8894.0000      48.5625      2.8225     22.8281
 8895.0000      47.7500      2.8015     18.6562
 8896.0000      47.0938      2.7785     11.6250
 8897.0000      46.4531      2.8109     10.2344
 8898.0000      46.9375      2.8656     11.9375
 8899.0000      47.3906      2.8429     17.1562
 8900.0000      47.4219      2.8278     18.4688
 8901.0000      47.1719      2.8560     14.7344
 8902.0000      47.2344      2.8685     13.7188
 8903.0000      47.4219      2.8480     19.3438
 8904.0000      47.6719      2.8305     19.3438
 8905.0000      47.8125      2.8141     19.3438
 8906.0000      48.1562      2.8258     18.8906
 8907.0000      47.9219      2.8243     17.7188
 8908.0000      47.5469      2.8266     16.2031
 8909.0000      46.9531      2.8118     15.1406
 8910.0000      46.8594      2.8233     14.4062
 8911.0000      47.1250      2.8009     13.9062
 8912.0000      47.3906      2.7920     13.6250
 8913.0000      47.7031      2.7785     13.5938
 8914.0000      47.8750      2.7793     13.5938
 8915.0000      47.2969      2.8154     13.6094
 8916.0000      46.8594      2.8460     13.9062
 8917.0000      46.5469      2.8401     14.2500
 8918.0000      46.6094      2.8330     14.5000
 8919.0000      46.5625      2.8489     15.0781
 8920.0000      46.9375      2.8310     15.6719
 8921.0000      47.4219      2.8200     17.2031
 8922.0000      47.6250      2.8193     19.2500
