~VERSION INFORMATION 
VERS.            2.0: LAS LOG ASCII STANDARD VERSION 2.0 
WRAP.             NO: ONE LINE PER DEPTH STEP 
~WELL INFORMATION 
#MNEM.UNIT     DATA                   DESCRIPTION    
#------------------------------------------------
STRT.F      72.0000                    : 
STOP.F    10204.0000                    : 
STEP.F       1.0000                    : 
NULL.       -999.25                    : 
WELL.        ROY BIRNEY #11                 : WELL NAME       
LONG.        0.0000000                      : LONGITUDE       
LAT.         0.0000000                      : LATITUDE        
SEC.         28                             : SECTION         
STAT.        OH                             : STATE           
TWP.         GREEN                            : TOWNSHIP        
DATE.        68/10/23                       : DATE            
DFM.         RSRN                           : DEEPEST FM      
OPER.        SANFORD E. MCCORMICK           : OPERATOR        
ORIG.        KB                             : LOG ORIGIN      
API.         3406720103                       : API             
CMNT1.       PERMIT #P-103                  : COMMENT 1       
RGE.         1                              : RANGE           
CNTY.        HARRISON                          : COUNTY          
LOC.         1266'FNL & 1966'FWL OF NW1/4   : LOCATION DESC   
#~TOPS
INJUN                  815.00
BEREA                 1410.00
DEV. SHALE            1460.00
BIG LIME              4628.00
ORISKANY              4805.00
PACKER SHELL          6662.00
ORDOV. SHALE          6971.00
TRENTON               8612.00
BLACK RIVER           8880.00
GULL RIVER            9438.00
GLENWOOD SHALE        9500.00
BEEKMANTOWN           9654.00
ROSE RUN SD.         10168.00
~CURVE INFORMATION 
#MNEM.UNIT     API CODE               CURVE DESCRIPTION
#------------------------------------------------------
DEPT.F                                 : 1 DEPTH
DT  .usec/ft                        : 2 SONIC
RHOB.gm/cc                          : 3 DENSITY
GR  .API UNITS                      : 4 GAMMA RAY
~PARAMETER INFORMATION 
#MNEM.UNIT     VALUE                  DESCRIPTION
#------------------------------------------------
EKB.F        1126.900                 : ELEVATION KB
~A   DEPTH           DT        RHOB          GR
# ...
 6084.0000      46.5781      2.8096     33.7031
 6085.0000      45.9844      2.8415     29.9688
 6086.0000      45.6562      2.8470     23.8750
 6087.0000      45.5938      2.8330     20.3906
 6088.0000      45.9531      2.8374     21.3438
 6089.0000      47.4062      2.8374     27.3906
 6090.0000      47.9375      2.8300     25.9062
 6091.0000      47.3125      2.8253     25.5781
 6092.0000      46.8125      2.8278     25.7031
 6093.0000      47.0156      2.8409     24.8281
 6094.0000      46.2969      2.8494     27.1875
 6095.0000      46.6875      2.8366     32.7812
 6096.0000      47.5625      2.8390     34.2188
 6097.0000      48.3594      2.8458     35.0469
 6098.0000      49.1250      2.8376     36.7188
 6099.0000      49.9375      2.8394     32.2500
 6100.0000      49.3438      2.8356     24.2812
 6101.0000      47.1562      2.8320     19.2031
 6102.0000      46.2344      2.8356     19.0469
 6103.0000      45.8438      2.8545     19.5312
 6104.0000      45.5156      2.8475     19.4531
 6105.0000      45.4219      2.8434     19.3750
 6106.0000      45.7500      2.8271     19.3750
 6107.0000      46.0312      2.8250     19.9375
 6108.0000      45.8281      2.8213     20.7500
 6109.0000      45.4844      2.8244     21.3438
 6110.0000      45.6562      2.8351     20.2812
 6111.0000      46.1250      2.8556     18.9844
 6112.0000      47.6094      2.8644     18.4062
 6113.0000      56.8438      2.8700     20.0938
 6114.0000      51.0781      2.8474     21.7656
 6115.0000      46.5625      2.7744     21.9375
 6116.0000      46.7031      2.8354     19.7812
 6117.0000      47.1406      2.8886     17.0938
 6118.0000      48.0469      2.9468     16.8594
 6119.0000      47.9531      2.8546     17.4219
 6120.0000      47.1719      2.7705     19.2656
 6121.0000      47.0312      2.7716     20.6875
 6122.0000      46.3438      2.7803     20.1562
 6123.0000      47.5625      2.7783     20.6875
 6124.0000      47.2969      2.7866     23.7031
 6125.0000      46.6719      2.7973     28.7500
 6126.0000      47.7344      2.8006     35.2500
 6127.0000      48.4219      2.8295     30.6562
 6128.0000      47.7656      2.8300     22.8438
 6129.0000      46.2969      2.8160     19.0469
 6130.0000      45.7031      2.8158     17.2812
 6131.0000      45.4062      2.8133     14.7500
 6132.0000      45.2656      2.8041     13.5469
 6133.0000      44.9062      2.8180     15.3281
 6134.0000      44.9688      2.8280     18.3594
 6135.0000      45.0000      2.8083     18.4219
 6136.0000      44.6406      2.8046     18.2656
 6137.0000      44.4219      2.8088     17.8281
 6138.0000      44.5469      2.8244     17.4375
 6139.0000      44.4375      2.8168     19.0938
 6140.0000      44.5938      2.8274     21.2344
 6141.0000      44.6719      2.8290     22.5938
 6142.0000      44.7031      2.8300     23.6719
 6143.0000      44.5469      2.8208     26.0000
 6144.0000      44.7500      2.8244     23.5312
 6145.0000      45.1875      2.8391     17.5000
 6146.0000      45.3906      2.8523     15.9062
 6147.0000      45.5000      2.8405     17.0938
 6148.0000      45.0938      2.8120     18.1406
 6149.0000      44.6562      2.8279     20.4375
 6150.0000      44.3906      2.8126     19.8438
 6151.0000      44.4219      2.8028     19.4375
 6152.0000      44.7500      2.8040     19.5156
 6153.0000      44.8125      2.8071     19.2344
 6154.0000      44.7031      2.8064     21.0312
 6155.0000      45.2812      2.8114     24.5312
 6156.0000      46.0625      2.8150     24.6562
 6157.0000      46.0781      2.8286     17.1406
 6158.0000      45.3125      2.8230     16.6562
 6159.0000      44.9062      2.8258     17.9062
 6160.0000      45.0469      2.8186     19.9219
 6161.0000      45.2188      2.7859     23.3906
 6162.0000      45.6562      2.7896     25.4062
 6163.0000      45.8281      2.7954     25.5156
 6164.0000      45.2344      2.7869     23.0312
 6165.0000      45.1719      2.7956     20.1250
 6166.0000      45.3750      2.8010     19.4844
 6167.0000      45.3750      2.7949     18.7344
 6168.0000      45.0469      2.8108     18.2031
 6169.0000      44.8594      2.8039     16.4062
 6170.0000      45.2656      2.8201     14.5625
 6171.0000      45.3750      2.8198     14.8906
 6172.0000      45.1719      2.8155     14.7500
 6173.0000      45.3281      2.8320     18.0469
 6174.0000      45.4688      2.8473     21.3281
 6175.0000      45.3438      2.8149     18.7188
 6176.0000      45.2969      2.7913     16.6250
 6177.0000      44.9688      2.7864     19.7344
 6178.0000      44.9219      2.7926     23.1875
 6179.0000      45.5312      2.8233     23.7031
 6180.0000      45.8281      2.8324     24.6562
 6181.0000      46.4062      2.8178     22.9062
 6182.0000      46.7500      2.8275     22.1875
 6183.0000      46.7812      2.8295     24.4688
 6184.0000      46.8594      2.8293     25.7500
 6185.0000      47.1875      2.8414     27.6406
 6186.0000      47.2656      2.8293     27.2656
 6187.0000      47.2344      2.8106     25.9062
 6188.0000      46.6562      2.8145     26.8281
 6189.0000      46.2500      2.8358     30.5469
 6190.0000      47.0000      2.8306     30.5156
 6191.0000      47.4219      2.8149     29.2031
 6192.0000      47.1562      2.7970     29.4375
 6193.0000      47.2188      2.8259     28.1406
 6194.0000      47.3906      2.8125     26.9531
 6195.0000      47.1094      2.8069     27.9844
 6196.0000      47.4062      2.8236     26.4531
 6197.0000      47.2812      2.8141     23.4375
 6198.0000      46.2500      2.8206     20.5156
 6199.0000      45.5156      2.8211     20.5938
 6200.0000      45.6094      2.8036     22.5156
 6201.0000      45.8750      2.7986     22.5625
 6202.0000      45.8594      2.7960     21.7969
 6203.0000      45.4844      2.8040     21.5156
 6204.0000      45.3125      2.8419     21.1406
 6205.0000      45.5625      2.8434     21.0156
 6206.0000      45.8438      2.8246     20.2656
 6207.0000      45.6562      2.8143     19.5938
 6208.0000      45.3750      2.8148     19.2188
 6209.0000      45.1250      2.8345     18.5781
 6210.0000      45.1250      2.8369     19.2812
 6211.0000      45.1562      2.8316     19.9062
 6212.0000      45.1562      2.8196     20.1719
 6213.0000      45.2188      2.8195     25.0625
 6214.0000      45.9219      2.8548     24.1719
 6215.0000      46.0000      2.8423     22.0000
 6216.0000      45.2812      2.8273     21.5156
 6217.0000      45.1094      2.8176     20.1250
 6218.0000      45.1250      2.8299     21.5781
 6219.0000      45.1719      2.8536     24.7969
 6220.0000      45.2969      2.8485     23.2969
 6221.0000      45.3750      2.8299     20.8594
 6222.0000      45.6094      2.8174     20.3438
 6223.0000      45.6562      2.8101     19.7500
 6224.0000      45.7969      2.8126     21.0312
 6225.0000      46.4062      2.8158     21.1875
 6226.0000      46.2969      2.8281     20.6875
 6227.0000      46.2969      2.8586     21.0625
 6228.0000      46.2344      2.8301     20.3125
 6229.0000      45.7344      2.8068     18.1250
 6230.0000      45.4531      2.8076     16.4844
 6231.0000      45.4219      2.8043     18.3438
 6232.0000      45.3750      2.8039     24.4219
 6233.0000      45.5156      2.8216     21.3594
 6234.0000      45.8594      2.8135     16.0938
 6235.0000      45.7500      2.8230     15.2812
 6236.0000      45.1562      2.8273     17.2344
 6237.0000      44.8750      2.8238     18.4219
 6238.0000      44.7344      2.8036     16.2812
 6239.0000      44.7656      2.8045     15.2031
 6240.0000      44.7500      2.8149     15.2969
 6241.0000      44.7500      2.8331     15.3438
 6242.0000      44.8594      2.8251     15.9844
 6243.0000      44.7969      2.8278     16.3438
 6244.0000      44.6250      2.8290     17.5469
 6245.0000      44.6562      2.8141     17.1562
 6246.0000      44.4844      2.8133     18.2656
 6247.0000      44.5938      2.8149     18.7188
 6248.0000      44.6094      2.8184     16.1562
 6249.0000      44.9688      2.8290     15.3750
 6250.0000      45.3438      2.8479     15.7344
