~VERSION INFORMATION 
VERS.            2.0: LAS LOG ASCII STANDARD VERSION 2.0 
WRAP.             NO: ONE LINE PER DEPTH STEP 
~WELL INFORMATION 
#MNEM.UNIT     DATA                   DESCRIPTION    
#------------------------------------------------
STRT.F      72.0000                    : 
STOP.F    10204.0000                    : 
STEP.F       1.0000                    : 
NULL.       -999.25                    : 
WELL.        ROY BIRNEY #11                 : WELL NAME       
LONG.        0.0000000                      : LONGITUDE       
LAT.         0.0000000                      : LATITUDE        
SEC.         28                             : SECTION         
STAT.        OH                             : STATE           
TWP.         GREEN                            : TOWNSHIP        
DATE.        68/10/23                       : DATE            
DFM.         RSRN                           : DEEPEST FM      
OPER.        SANFORD E. MCCORMICK           : OPERATOR        
ORIG.        KB                             : LOG ORIGIN      
API.         3406720103                       : API             
CMNT1.       PERMIT #P-103                  : COMMENT 1       
RGE.         1                              : RANGE           
CNTY.        HARRISON                          : COUNTY          
LOC.         1266'FNL & 1966'FWL OF NW1/4   : LOCATION DESC   
#~TOPS
INJUN                  815.00
BEREA                 1410.00
DEV. SHALE            1460.00
BIG LIME              4628.00
ORISKANY              4805.00
PACKER SHELL          6662.00
ORDOV. SHALE          6971.00
TRENTON               8612.00
BLACK RIVER           8880.00
GULL RIVER            9438.00
GLENWOOD SHALE        9500.00
BEEKMANTOWN           9654.00
ROSE RUN SD.         10168.00
~CURVE INFORMATION 
#MNEM.UNIT     API CODE               CURVE DESCRIPTION
#------------------------------------------------------
DEPT.F                                 : 1 DEPTH
DT  .usec/ft                        : 2 SONIC
RHOB.gm/cc                          : 3 DENSITY
GR  .API UNITS                      : 4 GAMMA RAY
~PARAMETER INFORMATION 
#MNEM.UNIT     VALUE                  DESCRIPTION
#------------------------------------------------
EKB.F        1126.900                 : ELEVATION KB
~A   DEPTH           DT        RHOB          GR
# ...
 5416.0000      49.7812      2.8546     22.2500
 5417.0000      49.1875      2.8283     27.9375
 5418.0000      49.9219      2.8205     34.1094
 5419.0000      55.7344      2.8098     33.8125
 5420.0000      56.0781      2.7800     29.7500
 5421.0000      54.2500      2.7164     25.8438
 5422.0000      53.7344      2.7335     25.7812
 5423.0000      55.4531      2.7989     24.2969
 5424.0000      55.6406      2.8365     21.0469
 5425.0000      54.2188      2.8729     17.4062
 5426.0000      51.1094      2.8465     18.0312
 5427.0000      50.0312      2.7825     21.2188
 5428.0000      51.6094      2.6994     22.2500
 5429.0000      53.6562      2.6559     20.3125
 5430.0000      54.8125      2.6719     19.7656
 5431.0000      53.9062      2.7080     23.1719
 5432.0000      52.8594      2.7205     27.1094
 5433.0000      52.0625      2.7355     25.8906
 5434.0000      51.7188      2.7333     27.0625
 5435.0000      53.2969      2.7336     30.7188
 5436.0000      54.9219      2.7500     33.4531
 5437.0000      57.2500      2.8464     32.3906
 5438.0000      58.1406      2.8669     27.4531
 5439.0000      56.5938      2.9075     18.4062
 5440.0000      53.6875      2.8994     16.2031
 5441.0000      52.3750      2.8979     16.1562
 5442.0000      52.5000      2.8661     16.2500
 5443.0000      53.3438      2.8061     19.5000
 5444.0000      54.5469      2.7134     23.5625
 5445.0000      54.1719      2.4769     22.5000
 5446.0000      54.6562      2.1856     19.2188
 5447.0000      56.0000      2.1238     16.7656
 5448.0000      57.1875      2.0993     16.7500
 5449.0000      59.1875      2.0898     16.0312
 5450.0000      61.4844      2.0861     14.7500
 5451.0000      75.2344      2.0838     14.1875
 5452.0000      79.4844      2.0830     15.4688
 5453.0000      80.3594      2.0833     17.2344
 5454.0000      80.1562      2.0849     18.2031
 5455.0000      63.6562      2.0915     19.0469
 5456.0000      58.6719      2.1013     21.2500
 5457.0000      58.1562      2.4996     24.2656
 5458.0000      57.2188      2.6240     22.9531
 5459.0000      56.1875      2.7135     23.4844
 5460.0000      55.4062      2.7150     23.2969
 5461.0000      53.4375      2.6979     24.3438
 5462.0000      55.1406      2.6785     27.1250
 5463.0000      57.2031      2.7274     25.3750
 5464.0000      57.1250      2.7979     23.2344
 5465.0000      55.2812      2.8321     20.1719
 5466.0000      53.6406      2.8209     16.9688
 5467.0000      51.3438      2.7283     17.8438
 5468.0000      51.4219      2.6046     19.2188
 5469.0000      51.5781      2.6214     21.8906
 5470.0000      52.3281      2.6425     26.4531
 5471.0000      52.8281      2.6796     32.1094
 5472.0000      54.6719      2.6904     48.0469
 5473.0000      63.1406      2.7108     46.3594
 5474.0000      64.7812      2.7489     40.8750
 5475.0000      61.8281      2.7878     32.5000
 5476.0000      58.6562      2.7861     31.3438
 5477.0000      58.1250      2.7746     33.8281
 5478.0000      58.4844      2.7720     32.9531
 5479.0000      57.0781      2.7835     29.7188
 5480.0000      52.1562      2.7880     28.2812
 5481.0000      52.0469      2.7983     26.9531
 5482.0000      52.1406      2.8405     24.0156
 5483.0000      51.5312      2.7961     24.9062
 5484.0000      51.0469      2.7368     25.3594
 5485.0000      51.3750      2.6811     24.0938
 5486.0000      52.3750      2.7350     21.0469
 5487.0000      52.1406      2.8546     18.1562
 5488.0000      50.3281      2.9276     14.5469
 5489.0000      49.5312      2.9290     13.1406
 5490.0000      48.7031      2.8594     15.6094
 5491.0000      48.6719      2.7784     19.7812
 5492.0000      50.8125      2.7399     24.5469
 5493.0000      55.7500      2.7739     27.4531
 5494.0000      56.3594      2.8200     26.3281
 5495.0000      53.4844      2.8210     25.8594
 5496.0000      51.5312      2.8118     24.9375
 5497.0000      51.8594      2.8056     23.5625
 5498.0000      53.5000      2.8455     21.5625
 5499.0000      54.3906      2.8543     19.4219
 5500.0000      54.1562      2.8616     16.7812
 5501.0000      53.8438      2.8543     15.5000
 5502.0000      51.0156      2.7953     17.1250
 5503.0000      51.4219      2.6361     22.8438
 5504.0000      51.0469      2.4484     26.3750
 5505.0000      56.2500      2.1569     22.0625
 5506.0000      55.9531      2.0726     17.5938
 5507.0000      53.2188      2.0544     15.9375
 5508.0000      53.9531      2.0528     15.6406
 5509.0000      55.4375      2.0616     14.9219
 5510.0000      55.1562      2.0883     15.4375
 5511.0000      53.2812      2.3010     16.2031
 5512.0000      54.7812      2.6570     16.2500
 5513.0000      54.3750      2.5686     17.8750
 5514.0000      56.4375      2.3019     20.0625
 5515.0000      58.5469      2.3420     21.6875
 5516.0000      59.4219      2.4518     21.4844
 5517.0000      53.5156      2.5636     18.7500
 5518.0000      50.8750      2.5901     16.6250
 5519.0000      51.0469      2.5121     16.6719
 5520.0000      51.8750      2.2483     17.4531
 5521.0000      52.7188      2.2988     18.8281
 5522.0000      52.6875      2.3930     24.1875
 5523.0000      52.9219      2.6731     32.1562
 5524.0000      53.4844      2.6794     35.2188
 5525.0000      53.3750      2.7599     34.5469
 5526.0000      52.2344      2.7348     32.5781
 5527.0000      52.5938      2.6391     31.0938
 5528.0000      51.4688      2.6806     29.0938
 5529.0000      52.3594      2.7398     26.2812
 5530.0000      53.9062      2.7513     22.6094
 5531.0000      53.9375      2.6851     20.2031
 5532.0000      50.9219      2.5220     22.2031
 5533.0000      52.0000      2.3535     20.7500
 5534.0000      54.6719      2.0526     18.4688
 5535.0000      62.8281      2.0279     15.5625
 5536.0000      65.9375      2.0238     16.2031
 5537.0000      66.5781      2.0231     16.5625
 5538.0000      66.0156      2.0249     15.7656
 5539.0000      64.1562      2.0366     17.2188
 5540.0000      57.2500      2.2973     17.9531
 5541.0000      50.7969      2.5701     17.5000
 5542.0000      50.1406      2.8478     18.0781
 5543.0000      48.7656      2.8530     22.7969
 5544.0000      49.8906      2.7420     26.3125
 5545.0000      55.6250      2.7229     22.0625
 5546.0000      58.9062      2.8043     18.2031
 5547.0000      57.8750      2.9034     16.3594
 5548.0000      52.9062      2.8411     17.3438
 5549.0000      51.9219      2.8389     18.9688
 5550.0000      50.9375      2.8358     20.0781
 5551.0000      50.7188      2.6775     24.2188
 5552.0000      52.5000      2.7376     29.4375
 5553.0000      53.3438      2.8013     30.1719
 5554.0000      54.4375      2.7206     30.6562
 5555.0000      56.1406      2.7000     31.0000
 5556.0000      58.4531      2.5899     29.5312
 5557.0000      60.3594      2.6156     29.3281
 5558.0000      60.1875      2.7169     28.1719
 5559.0000      56.2031      2.7179     27.0469
 5560.0000      54.5312      2.6338     24.7031
 5561.0000      58.4062      2.6010     26.6562
 5562.0000      60.0469      2.6071     27.5469
 5563.0000      61.0469      2.5896     29.8594
 5564.0000      61.8438      2.5853     30.4531
 5565.0000      61.3750      2.6073     33.4531
 5566.0000      61.1875      2.6541     32.8281
 5567.0000      61.0312      2.6613     31.3594
 5568.0000      61.6562      2.6213     30.8750
 5569.0000      61.8438      2.6868     24.6562
 5570.0000      53.2969      2.8795     14.8281
 5571.0000      51.5000      2.9098     11.9531
 5572.0000      50.5000      2.9024     11.9531
 5573.0000      50.1875      2.8941     14.7656
 5574.0000      50.7031      2.8699     19.6562
 5575.0000      52.7656      2.8336     24.9219
 5576.0000      54.9062      2.8194     27.4062
 5577.0000      57.3438      2.8416     26.3125
 5578.0000      58.3594      2.8341     23.7656
 5579.0000      58.2031      2.8596     22.6250
 5580.0000      55.2812      2.8600     22.7188
 5581.0000      54.4062      2.8506     21.2969
 5582.0000      54.8906      2.8183     24.8438
