~VERSION INFORMATION 
VERS.            2.0: LAS LOG ASCII STANDARD VERSION 2.0 
WRAP.             NO: ONE LINE PER DEPTH STEP 
~WELL INFORMATION 
#MNEM.UNIT     DATA                   DESCRIPTION    
#------------------------------------------------
STRT.F      72.0000                    : 
STOP.F    10204.0000                    : 
STEP.F       1.0000                    : 
NULL.       -999.25                    : 
WELL.        ROY BIRNEY #11                 : WELL NAME       
LONG.        0.0000000                      : LONGITUDE       
LAT.         0.0000000                      : LATITUDE        
SEC.         28                             : SECTION         
STAT.        OH                             : STATE           
TWP.         GREEN                            : TOWNSHIP        
DATE.        68/10/23                       : DATE            
DFM.         RSRN                           : DEEPEST FM      
OPER.        SANFORD E. MCCORMICK           : OPERATOR        
ORIG.        KB                             : LOG ORIGIN      
API.         3406720103                       : API             
CMNT1.       PERMIT #P-103                  : COMMENT 1       
RGE.         1                              : RANGE           
CNTY.        HARRISON                          : COUNTY          
LOC.         1266'FNL & 1966'FWL OF NW1/4   : LOCATION DESC   
#~TOPS
INJUN                  815.00
BEREA                 1410.00
DEV. SHALE            1460.00
BIG LIME              4628.00
ORISKANY              4805.00
PACKER SHELL          6662.00
ORDOV. SHALE          6971.00
TRENTON               8612.00
BLACK RIVER           8880.00
GULL RIVER            9438.00
GLENWOOD SHALE        9500.00
BEEKMANTOWN           9654.00
ROSE RUN SD.         10168.00
~CURVE INFORMATION 
#MNEM.UNIT     API CODE               CURVE DESCRIPTION
#------------------------------------------------------
DEPT.F                                 : 1 DEPTH
DT  .usec/ft                        : 2 SONIC
RHOB.gm/cc                          : 3 DENSITY
GR  .API UNITS                      : 4 GAMMA RAY
~PARAMETER INFORMATION 
#MNEM.UNIT     VALUE                  DESCRIPTION
#------------------------------------------------
EKB.F        1126.900                 : ELEVATION KB
~A   DEPTH           DT        RHOB          GR
# ...
 3579.0000      75.2656      2.7141    121.9844
 3580.0000      74.7969      2.7231    121.7344
 3581.0000      73.5000      2.7283    123.6094
 3582.0000      71.0312      2.7249    126.1250
 3583.0000      70.7812      2.7174    131.7969
 3584.0000      71.8438      2.7203    132.9062
 3585.0000      72.7188      2.7458    131.9688
 3586.0000      73.8906      2.7229    130.3594
 3587.0000      74.8281      2.7114    131.8750
 3588.0000      75.4844      2.6975    135.1406
 3589.0000      75.9375      2.6954    140.4531
 3590.0000      76.2656      2.6939    146.5156
 3591.0000      75.9375      2.6903    144.1719
 3592.0000      76.0625      2.6973    139.5469
 3593.0000      77.6094      2.7490    133.2969
 3594.0000      78.3281      2.7413    129.6562
 3595.0000      78.1406      2.7336    130.6094
 3596.0000      77.7188      2.7269    132.7188
 3597.0000      77.4219      2.7240    132.7188
 3598.0000      77.3438      2.7001    129.0938
 3599.0000      77.2031      2.6954    126.8125
 3600.0000      76.8594      2.7136    128.7656
 3601.0000      76.6094      2.7226    131.2188
 3602.0000      77.1562      2.7070    133.1719
 3603.0000      77.6406      2.6864    129.4375
 3604.0000      77.5312      2.6675    133.0938
 3605.0000      76.7188      2.6559    140.6250
 3606.0000      75.5312      2.6358    145.2344
 3607.0000      77.8906      2.5806    143.9531
 3608.0000      79.2031      2.6025    141.5938
 3609.0000      79.8438      2.6256    140.2344
 3610.0000      80.4531      2.6710    140.0156
 3611.0000      80.1562      2.6778    139.5625
 3612.0000      78.1719      2.6893    139.1406
 3613.0000      77.3281      2.6986    137.6250
 3614.0000      77.9844      2.7060    135.9531
 3615.0000      77.5781      2.7124    133.5938
 3616.0000      76.7188      2.7186    132.0938
 3617.0000      74.7656      2.7350    131.3594
 3618.0000      75.3750      2.7195    130.0781
 3619.0000      75.9062      2.7110    130.0938
 3620.0000      75.9375      2.6984    134.6250
 3621.0000      76.8906      2.6601    136.3281
 3622.0000      77.4062      2.6769    134.7656
 3623.0000      77.7812      2.6854    128.6406
 3624.0000      78.7500      2.7038    127.1094
 3625.0000      78.9219      2.6834    126.8125
 3626.0000      77.8438      2.6923    130.1094
 3627.0000      77.1875      2.6938    133.5781
 3628.0000      76.6406      2.6876    134.2812
 3629.0000      77.2656      2.6973    131.5938
 3630.0000      78.4688      2.7285    128.9219
 3631.0000      78.2500      2.6989    124.6406
 3632.0000      77.8906      2.7099    122.8281
 3633.0000      77.8438      2.6845    124.0938
 3634.0000      77.6250      2.6941    128.5469
 3635.0000      77.7344      2.7009    131.7500
 3636.0000      77.7969      2.6761    133.0156
 3637.0000      78.2500      2.6761    131.6406
 3638.0000      78.6250      2.7081    134.5781
 3639.0000      77.8594      2.7035    135.4844
 3640.0000      77.0781      2.6924    131.1562
 3641.0000      76.1250      2.7020    129.3125
 3642.0000      76.0469      2.7359    127.0781
 3643.0000      75.7500      2.7173    128.0625
 3644.0000      75.4688      2.6944    132.8125
 3645.0000      74.8906      2.7053    135.7500
 3646.0000      74.9062      2.7116    135.7812
 3647.0000      75.8281      2.7206    134.2656
 3648.0000      76.2812      2.7318    134.8750
 3649.0000      75.6719      2.7089    136.2969
 3650.0000      75.8906      2.7235    137.7656
 3651.0000      77.0938      2.7166    137.1094
 3652.0000      77.3906      2.7079    136.7031
 3653.0000      77.6719      2.7109    136.4844
 3654.0000      78.0625      2.7046    133.8750
 3655.0000      77.8906      2.6689    134.1094
 3656.0000      78.2656      2.6936    133.8594
 3657.0000      78.4531      2.6678    133.8125
 3658.0000      77.7031      2.6926    136.3906
 3659.0000      77.3125      2.6928    141.5938
 3660.0000      77.0156      2.6763    148.1406
 3661.0000      77.4375      2.6508    149.6719
 3662.0000      78.7500      2.6506    146.3438
 3663.0000      80.2188      2.6648    141.3281
 3664.0000      77.1094      2.7138    135.8438
 3665.0000      75.8281      2.7129    133.5938
 3666.0000      77.6719      2.6833    137.5781
 3667.0000      80.1406      2.6605    144.1250
 3668.0000      80.4062      2.6671    147.9062
 3669.0000      80.4062      2.6723    154.0312
 3670.0000      80.4531      2.6724    153.3750
 3671.0000      80.5625      2.6768    152.2969
 3672.0000      80.7031      2.6630    160.0938
 3673.0000      79.9062      2.6246    172.7031
 3674.0000      82.4688      2.5874    201.1406
 3675.0000      83.8906      2.5219    199.1719
 3676.0000      83.7344      2.5380    180.5469
 3677.0000      82.8750      2.5305    176.3594
 3678.0000      83.6250      2.5229    166.6719
 3679.0000      83.5625      2.5311    161.1250
 3680.0000      82.8906      2.5718    157.3750
 3681.0000      83.6875      2.5843    158.2344
 3682.0000      85.1719      2.6196    143.0312
 3683.0000      83.2656      2.7196    129.9219
 3684.0000      80.6875      2.7175    124.2188
 3685.0000      75.5625      2.6938    121.4688
 3686.0000      76.0000      2.6854    123.6250
 3687.0000      81.3594      2.6713    130.5938
 3688.0000      77.3438      2.6458    128.7500
 3689.0000      71.7812      2.7098    122.1250
 3690.0000      67.5625      2.7111    117.6562
 3691.0000      66.6094      2.7128    116.9375
 3692.0000      68.5625      2.7139    119.0938
 3693.0000      69.3906      2.7100    120.1094
 3694.0000      68.0312      2.6949    117.5625
 3695.0000      69.7031      2.6926    118.4219
 3696.0000      69.8125      2.6968    118.8281
 3697.0000      68.3750      2.6981    114.0625
 3698.0000      67.5625      2.7119    113.4844
 3699.0000      66.9062      2.6949    112.3125
 3700.0000      67.6719      2.6915    110.3750
 3701.0000      69.1719      2.6951    109.4531
 3702.0000      69.4219      2.7044    110.5312
 3703.0000      69.0000      2.6979    113.1719
 3704.0000      69.0781      2.6793    112.2031
 3705.0000      69.4062      2.6681    111.9688
 3706.0000      69.4688      2.6676    113.9062
 3707.0000      69.5781      2.6569    120.9844
 3708.0000      69.8594      2.6631    121.2344
 3709.0000      69.5938      2.7128    119.8281
 3710.0000      69.0156      2.7264    123.1406
 3711.0000      69.8750      2.7336    124.1406
 3712.0000      71.0625      2.7284    122.2500
 3713.0000      71.3438      2.7368    117.5625
 3714.0000      71.0312      2.7505    109.9375
 3715.0000      70.4062      2.7163    107.2812
 3716.0000      69.2656      2.7116    104.9844
 3717.0000      68.3281      2.6979    106.5625
 3718.0000      68.1094      2.6826    104.3125
 3719.0000      66.5312      2.6901    110.4844
 3720.0000      68.3281      2.7028    120.3281
 3721.0000      69.8906      2.7131    121.2812
 3722.0000      69.7969      2.7149    121.2344
 3723.0000      70.5000      2.7166    123.1250
 3724.0000      71.3594      2.7149    124.7188
 3725.0000      71.9375      2.7181    127.0625
 3726.0000      72.5000      2.7220    127.6562
 3727.0000      72.8125      2.7300    122.8281
 3728.0000      72.7500      2.6938    118.6719
 3729.0000      72.6406      2.6846    116.6094
 3730.0000      72.0000      2.6910    112.4688
 3731.0000      70.7969      2.7026    111.1094
 3732.0000      69.5469      2.7029    112.7656
 3733.0000      69.1875      2.6925    112.9219
 3734.0000      68.7188      2.6966    111.1250
 3735.0000      68.4375      2.6916    115.7188
 3736.0000      70.6562      2.6814    123.9844
 3737.0000      71.6406      2.6889    127.2812
 3738.0000      72.5938      2.6735    130.2188
 3739.0000      72.7812      2.6708    125.4375
 3740.0000      71.6562      2.6695    131.5938
 3741.0000      72.1562      2.6829    134.3438
 3742.0000      73.6406      2.6898    134.5938
 3743.0000      74.9531      2.6694    131.9062
 3744.0000      74.3125      2.6748    131.7969
 3745.0000      73.9219      2.6916    134.9375
