~VERSION INFORMATION 
VERS.            2.0: LAS LOG ASCII STANDARD VERSION 2.0 
WRAP.             NO: ONE LINE PER DEPTH STEP 
~WELL INFORMATION 
#MNEM.UNIT     DATA                   DESCRIPTION    
#------------------------------------------------
STRT.F      72.0000                    : 
STOP.F    10204.0000                    : 
STEP.F       1.0000                    : 
NULL.       -999.25                    : 
WELL.        ROY BIRNEY #11                 : WELL NAME       
LONG.        0.0000000                      : LONGITUDE       
LAT.         0.0000000                      : LATITUDE        
SEC.         28                             : SECTION         
STAT.        OH                             : STATE           
TWP.         GREEN                            : TOWNSHIP        
DATE.        68/10/23                       : DATE            
DFM.         RSRN                           : DEEPEST FM      
OPER.        SANFORD E. MCCORMICK           : OPERATOR        
ORIG.        KB                             : LOG ORIGIN      
API.         3406720103                       : API             
CMNT1.       PERMIT #P-103                  : COMMENT 1       
RGE.         1                              : RANGE           
CNTY.        HARRISON                          : COUNTY          
LOC.         1266'FNL & 1966'FWL OF NW1/4   : LOCATION DESC   
#~TOPS
INJUN                  815.00
BEREA                 1410.00
DEV. SHALE            1460.00
BIG LIME              4628.00
ORISKANY              4805.00
PACKER SHELL          6662.00
ORDOV. SHALE          6971.00
TRENTON               8612.00
BLACK RIVER           8880.00
GULL RIVER            9438.00
GLENWOOD SHALE        9500.00
BEEKMANTOWN           9654.00
ROSE RUN SD.         10168.00
~CURVE INFORMATION 
#MNEM.UNIT     API CODE               CURVE DESCRIPTION
#------------------------------------------------------
DEPT.F                                 : 1 DEPTH
DT  .usec/ft                        : 2 SONIC
RHOB.gm/cc                          : 3 DENSITY
GR  .API UNITS                      : 4 GAMMA RAY
~PARAMETER INFORMATION 
#MNEM.UNIT     VALUE                  DESCRIPTION
#------------------------------------------------
EKB.F        1126.900                 : ELEVATION KB
~A   DEPTH           DT        RHOB          GR
# ...
 7420.0000      61.9219      2.5651    115.2500
 7421.0000      61.5625      2.6225    117.2031
 7422.0000      61.8906      2.5616    117.2969
 7423.0000      61.2812      2.6429    115.1562
 7424.0000      60.0625      2.6191    113.1875
 7425.0000      60.7031      2.6101    117.4219
 7426.0000      61.7812      2.5934    122.1562
 7427.0000      63.0000      2.5715    129.0312
 7428.0000      62.2031      2.5655    132.3906
 7429.0000      61.4375      2.5710    127.8125
 7430.0000      61.6250      2.5305    122.1562
 7431.0000      62.2969      2.4865    116.1094
 7432.0000      61.1406      2.5405    112.5938
 7433.0000      60.0938      2.5972    120.0781
 7434.0000      60.4375      2.5974    121.6719
 7435.0000      61.4219      2.5977    121.9531
 7436.0000      61.3906      2.5979    121.2969
 7437.0000      62.0312      2.5982    122.2031
 7438.0000      61.8594      2.5984    124.3438
 7439.0000      62.5156      2.5987    126.7500
 7440.0000      63.8906      2.5989    124.8594
 7441.0000      63.3438      2.5992    120.1250
 7442.0000      61.4688      2.5994    123.1406
 7443.0000      63.2344      2.5997    124.0625
 7444.0000      65.4062      2.5999    126.2969
 7445.0000      66.1562      2.6002    128.1094
 7446.0000      67.1094      2.6005    131.8906
 7447.0000      67.5156      2.6007    131.6562
 7448.0000      66.7812      2.6010    130.3281
 7449.0000      65.2031      2.6012    125.7500
 7450.0000      63.3750      2.6015    120.0938
 7451.0000      61.6094      2.6017    119.9531
 7452.0000      62.2031      2.6020    124.7031
 7453.0000      63.8906      2.6022    128.3438
 7454.0000      65.3438      2.6025    128.7344
 7455.0000      66.1094      2.6027    130.2188
 7456.0000      67.0469      2.5972    130.5000
 7457.0000      66.4062      2.5972    129.7031
 7458.0000      64.3594      2.5972    128.7344
 7459.0000      63.6875      2.5972    128.7344
 7460.0000      63.6250      2.5972    126.8281
 7461.0000      64.5312      2.5972    121.5000
 7462.0000      66.2500      2.5972    118.1875
 7463.0000      66.0156      2.5972    115.8594
 7464.0000      64.3281      2.5972    120.9531
 7465.0000      63.1250      2.6041    126.4219
 7466.0000      63.2969      2.6041    126.1562
 7467.0000      66.1562      2.6041    121.5781
 7468.0000      65.1875      2.6041    122.1875
 7469.0000      64.5938      2.6041    122.5000
 7470.0000      66.7344      2.6041    120.8906
 7471.0000      68.2500      2.6041    119.0938
 7472.0000      66.2188      2.6041    113.0625
 7473.0000      62.9062      2.6041    110.3281
 7474.0000      59.9375      2.6041    108.4844
 7475.0000      59.5469      2.6041    107.0938
 7476.0000      60.0469      2.6041    107.1250
 7477.0000      61.2656      2.6803    105.2031
 7478.0000      60.7969      2.6620    112.2500
 7479.0000      63.8281      2.5428    123.2188
 7480.0000      64.9219      2.4984    124.9062
 7481.0000      64.2031      2.6314    122.0156
 7482.0000      63.5000      2.6756    116.9219
 7483.0000      62.9844      2.6564    118.9844
 7484.0000      61.9062      2.6306    120.8125
 7485.0000      62.6719      2.5786    128.2500
 7486.0000      65.6875      2.5003    133.4219
 7487.0000      69.1562      2.4863    128.5156
 7488.0000      67.7656      2.5465    123.9375
 7489.0000      66.7656      2.5679    123.1406
 7490.0000      66.1719      2.5965    128.0938
 7491.0000      66.6875      2.5834    131.0938
 7492.0000      66.5469      2.5156    133.6562
 7493.0000      65.9062      2.5499    133.0625
 7494.0000      64.7812      2.6149    133.2344
 7495.0000      64.3281      2.6390    132.0625
 7496.0000      65.7188      2.6096    127.8750
 7497.0000      65.4062      2.6074    125.1875
 7498.0000      63.7500      2.5905    123.0000
 7499.0000      62.3594      2.5715    123.7656
 7500.0000      61.3281      2.6084    126.1406
 7501.0000      61.5156      2.6045    128.5781
 7502.0000      62.0312      2.5995    131.2344
 7503.0000      62.5156      2.6074    135.1094
 7504.0000      62.4375      2.5763    140.4219
 7505.0000      61.5469      2.5454    140.2188
 7506.0000      61.4062      2.6585    131.3438
 7507.0000      61.4531      2.6605    127.4219
 7508.0000      62.4375      2.6056    128.3281
 7509.0000      63.0000      2.5670    129.2031
 7510.0000      63.0000      2.5710    128.2031
 7511.0000      62.8750      2.5659    125.8750
 7512.0000      63.0312      2.5624    121.6406
 7513.0000      63.1875      2.5851    116.8594
 7514.0000      62.5625      2.6081    114.3438
 7515.0000      62.3125      2.5424    118.5312
 7516.0000      62.2344      2.4658    122.6875
 7517.0000      62.1094      2.4715    122.1719
 7518.0000      61.8750      2.5625    122.1250
 7519.0000      62.3281      2.5189    124.4688
 7520.0000      62.7031      2.5020    124.9844
 7521.0000      62.7969      2.5169    125.3281
 7522.0000      62.6875      2.5534    123.5469
 7523.0000      62.8750      2.5559    123.0312
 7524.0000      63.2969      2.5686    120.2812
 7525.0000      63.2812      2.5579    118.0938
 7526.0000      62.9531      2.5574    117.2812
 7527.0000      63.1250      2.5761    120.6094
 7528.0000      63.3594      2.5679    124.7344
 7529.0000      63.7344      2.5873    129.1875
 7530.0000      63.8438      2.6300    132.6250
 7531.0000      64.4219      2.5956    132.5469
 7532.0000      65.1250      2.5705    129.3906
 7533.0000      64.3906      2.6001    128.5781
 7534.0000      63.7344      2.5966    127.7969
 7535.0000      63.1875      2.5515    128.5312
 7536.0000      62.8906      2.5253    132.0938
 7537.0000      62.7031      2.5549    131.1875
 7538.0000      63.1406      2.5833    132.6875
 7539.0000      63.4688      2.5833    137.0312
 7540.0000      64.0625      2.5833    140.3906
 7541.0000      64.7031      2.5833    137.2344
 7542.0000      64.6875      2.5833    132.4531
 7543.0000      64.7812      2.5833    129.3906
 7544.0000      65.7969      2.5833    127.7812
 7545.0000      65.5938      2.5833    128.9531
 7546.0000      67.1562      2.5833    129.2656
 7547.0000      65.6562      2.5833    126.4844
 7548.0000      65.9219      2.5833    124.5781
 7549.0000      66.7656      2.5833    125.6562
 7550.0000      67.3750      2.5833    128.8281
 7551.0000      67.4531      2.5833    130.5781
 7552.0000      66.8281      2.5833    132.0469
 7553.0000      66.8906      2.5833    131.9688
 7554.0000      65.7188      2.5833    125.0625
 7555.0000      63.0000      2.5833    122.6094
 7556.0000      64.7188      2.5833    123.7188
 7557.0000      66.4375      2.5833    123.9688
 7558.0000      66.9531      2.5833    121.5156
 7559.0000      65.2344      2.5833    120.9844
 7560.0000      65.3594      2.5833    121.8125
 7561.0000      65.6875      2.5833    123.3125
 7562.0000      67.0781      2.5833    127.3750
 7563.0000      69.0156      2.5833    126.1406
 7564.0000      70.5781      2.5833    123.0469
 7565.0000      70.2812      2.5833    121.8750
 7566.0000      69.4062      2.5833    120.9375
 7567.0000      68.2031      2.5833    121.5312
 7568.0000      69.0312      2.5833    118.9375
 7569.0000      69.1406      2.5833    115.3125
 7570.0000      68.3594      2.5833    117.3594
 7571.0000      69.1719      2.5833    118.4688
 7572.0000      68.0781      2.5833    120.6719
 7573.0000      67.6719      2.5833    127.0781
 7574.0000      68.1094      2.5833    125.1250
 7575.0000      66.9531      2.5833    118.7969
 7576.0000      64.7188      2.5833    117.1562
 7577.0000      64.7500      2.5833    117.0312
 7578.0000      59.7969      2.5833    119.8125
 7579.0000      63.4844      2.5833    121.0312
 7580.0000      65.5625      2.5833    129.5000
 7581.0000      66.2188      2.5833    130.8906
 7582.0000      67.7812      2.5246    127.9531
 7583.0000      67.1250      2.5020    129.4531
 7584.0000      66.1562      2.5605    130.5938
 7585.0000      66.1094      2.5902    130.4531
 7586.0000      65.9688      2.5900    130.5938
