~VERSION INFORMATION 
VERS.            2.0: LAS LOG ASCII STANDARD VERSION 2.0 
WRAP.             NO: ONE LINE PER DEPTH STEP 
~WELL INFORMATION 
#MNEM.UNIT     DATA                   DESCRIPTION    
#------------------------------------------------
STRT.F      72.0000                    : 
STOP.F    10204.0000                    : 
STEP.F       1.0000                    : 
NULL.       -999.25                    : 
WELL.        ROY BIRNEY #11                 : WELL NAME       
LONG.        0.0000000                      : LONGITUDE       
LAT.         0.0000000                      : LATITUDE        
SEC.         28                             : SECTION         
STAT.        OH                             : STATE           
TWP.         GREEN                            : TOWNSHIP        
DATE.        68/10/23                       : DATE            
DFM.         RSRN                           : DEEPEST FM      
OPER.        SANFORD E. MCCORMICK           : OPERATOR        
ORIG.        KB                             : LOG ORIGIN      
API.         3406720103                       : API             
CMNT1.       PERMIT #P-103                  : COMMENT 1       
RGE.         1                              : RANGE           
CNTY.        HARRISON                          : COUNTY          
LOC.         1266'FNL & 1966'FWL OF NW1/4   : LOCATION DESC   
#~TOPS
INJUN                  815.00
BEREA                 1410.00
DEV. SHALE            1460.00
BIG LIME              4628.00
ORISKANY              4805.00
PACKER SHELL          6662.00
ORDOV. SHALE          6971.00
TRENTON               8612.00
BLACK RIVER           8880.00
GULL RIVER            9438.00
GLENWOOD SHALE        9500.00
BEEKMANTOWN           9654.00
ROSE RUN SD.         10168.00
~CURVE INFORMATION 
#MNEM.UNIT     API CODE               CURVE DESCRIPTION
#------------------------------------------------------
DEPT.F                                 : 1 DEPTH
DT  .usec/ft                        : 2 SONIC
RHOB.gm/cc                          : 3 DENSITY
GR  .API UNITS                      : 4 GAMMA RAY
~PARAMETER INFORMATION 
#MNEM.UNIT     VALUE                  DESCRIPTION
#------------------------------------------------
EKB.F        1126.900                 : ELEVATION KB
~A   DEPTH           DT        RHOB          GR
# ...
 2911.0000      71.2188      2.6864    124.7031
 2912.0000      71.2812      2.6841    120.2969
 2913.0000      71.4062      2.6983    116.9688
 2914.0000      72.0469      2.6976    115.4844
 2915.0000      71.8906      2.7036    115.2031
 2916.0000      69.6250      2.7019    111.5625
 2917.0000      69.5156      2.6950    107.4219
 2918.0000      70.4688      2.6978    110.4844
 2919.0000      69.2031      2.7071    113.6562
 2920.0000      68.6406      2.7226    114.9062
 2921.0000      69.6562      2.7319    109.4062
 2922.0000      70.3438      2.7205    109.5625
 2923.0000      69.2188      2.7138    112.5000
 2924.0000      67.7656      2.6974    116.3750
 2925.0000      68.5156      2.6941    121.7656
 2926.0000      68.8594      2.7040    122.4531
 2927.0000      69.3594      2.7225    118.7500
 2928.0000      70.6250      2.7088    115.3438
 2929.0000      71.1875      2.6955    116.1094
 2930.0000      71.4531      2.6990    116.0000
 2931.0000      71.0000      2.7236    116.7656
 2932.0000      70.3906      2.7103    118.3125
 2933.0000      69.9062      2.7099    118.3281
 2934.0000      70.1094      2.6993    116.1250
 2935.0000      70.8750      2.6809    112.7031
 2936.0000      71.2812      2.6826    103.5312
 2937.0000      70.7812      2.6829     97.1250
 2938.0000      67.3438      2.6878     96.7969
 2939.0000      66.5625      2.6854     97.4688
 2940.0000      65.8906      2.6864     99.9531
 2941.0000      65.0312      2.7004    102.2969
 2942.0000      63.9844      2.7005    103.9688
 2943.0000      65.7500      2.6969    105.0000
 2944.0000      66.4062      2.6889    111.1562
 2945.0000      66.4375      2.6863    116.5156
 2946.0000      66.5312      2.6968    121.3906
 2947.0000      68.1094      2.7133    126.5312
 2948.0000      69.5938      2.7048    126.2031
 2949.0000      71.2812      2.7161    121.0469
 2950.0000      71.8438      2.7188    118.1406
 2951.0000      71.0156      2.6934    116.8438
 2952.0000      69.7812      2.6989    113.1094
 2953.0000      70.5625      2.7021    111.3125
 2954.0000      70.2188      2.7175    107.1250
 2955.0000      68.2812      2.6905    112.2812
 2956.0000      67.5625      2.6794    115.6562
 2957.0000      67.8906      2.6718    111.6094
 2958.0000      68.4844      2.6794    112.6250
 2959.0000      67.7500      2.6910    115.2344
 2960.0000      68.2031      2.6823    121.2969
 2961.0000      69.9219      2.6835    127.5781
 2962.0000      69.8438      2.7126    126.7969
 2963.0000      70.8438      2.7250    124.2031
 2964.0000      71.8594      2.7120    121.5312
 2965.0000      71.6250      2.7028    120.2500
 2966.0000      70.5312      2.6859    119.4375
 2967.0000      69.7188      2.6984    118.5156
 2968.0000      69.9062      2.7235    118.0156
 2969.0000      70.7812      2.7438    119.7969
 2970.0000      70.7969      2.7386    122.2031
 2971.0000      70.7500      2.6981    128.5000
 2972.0000      71.3281      2.6966    128.2188
 2973.0000      72.2812      2.6874    118.5156
 2974.0000      70.4688      2.6908    118.1719
 2975.0000      70.0312      2.6933    118.6250
 2976.0000      70.8750      2.7039    121.9062
 2977.0000      71.4062      2.7176    127.0625
 2978.0000      72.4062      2.7214    127.5000
 2979.0000      73.0156      2.7116    126.0312
 2980.0000      72.6250      2.7144    125.0781
 2981.0000      71.0938      2.7181    123.5938
 2982.0000      70.0781      2.7204    121.5156
 2983.0000      71.2344      2.7265    119.7500
 2984.0000      71.3125      2.7221    119.4219
 2985.0000      68.8750      2.7168    121.2812
 2986.0000      68.7031      2.7146    119.7344
 2987.0000      68.5312      2.6984    113.7031
 2988.0000      67.7344      2.7120    114.8750
 2989.0000      66.7500      2.7130    121.8906
 2990.0000      69.2031      2.7028    125.3438
 2991.0000      70.2656      2.6886    121.1094
 2992.0000      68.5625      2.6559    115.8594
 2993.0000      65.8125      2.6496    120.5156
 2994.0000      67.9844      2.6906    130.5312
 2995.0000      70.8750      2.7025    125.3750
 2996.0000      70.1875      2.7224    118.7656
 2997.0000      68.6719      2.7125    117.7031
 2998.0000      71.3125      2.7120    124.7812
 2999.0000      73.5938      2.7051    131.2500
 3000.0000      74.5312      2.7093    121.8281
 3001.0000      73.0000      2.7448    116.9688
 3002.0000      71.8906      2.7319    112.5938
 3003.0000      69.4531      2.7303    107.4844
 3004.0000      67.5156      2.7118    105.7188
 3005.0000      68.9219      2.7040    115.4375
 3006.0000      71.5625      2.7010    128.4219
 3007.0000      73.1875      2.6995    124.0000
 3008.0000      72.7500      2.7101    126.4844
 3009.0000      72.3750      2.7361    129.5625
 3010.0000      72.4844      2.7316    127.7969
 3011.0000      72.6406      2.7205    124.6719
 3012.0000      72.4219      2.7119    125.6094
 3013.0000      71.9062      2.7119    128.2031
 3014.0000      71.4219      2.7231    122.7969
 3015.0000      71.2031      2.7203    124.3906
 3016.0000      72.2344      2.7140    121.5000
 3017.0000      72.5156      2.7020    118.2656
 3018.0000      72.2656      2.6956    111.0469
 3019.0000      71.6406      2.6991    106.5938
 3020.0000      67.5469      2.7310    104.7344
 3021.0000      65.5469      2.6938    113.8281
 3022.0000      68.7188      2.6809    123.2969
 3023.0000      70.9062      2.7013    127.0312
 3024.0000      72.1250      2.7110    126.2969
 3025.0000      72.3594      2.7153    121.4375
 3026.0000      71.7344      2.7095    116.5156
 3027.0000      68.3438      2.7053    112.8906
 3028.0000      67.5000      2.6901    112.8281
 3029.0000      69.1562      2.6720    116.3281
 3030.0000      70.8750      2.6884    120.4375
 3031.0000      72.1719      2.7153    120.7344
 3032.0000      73.9531      2.7368    120.2500
 3033.0000      73.5469      2.7306    119.4375
 3034.0000      71.8906      2.7248    119.1875
 3035.0000      71.9062      2.7103    117.1406
 3036.0000      71.4375      2.6984    118.4844
 3037.0000      71.7969      2.7013    121.7969
 3038.0000      73.4062      2.7001    120.2031
 3039.0000      73.9375      2.6939    116.8438
 3040.0000      73.1250      2.6986    114.6094
 3041.0000      69.6875      2.7054    116.4688
 3042.0000      70.1719      2.7029    119.9219
 3043.0000      72.2969      2.6889    122.3281
 3044.0000      73.3438      2.6620    122.2812
 3045.0000      74.0000      2.6626    122.3750
 3046.0000      76.2969      2.6749    118.3438
 3047.0000      77.4531      2.6781    115.3438
 3048.0000      77.6250      2.6716    123.0938
 3049.0000      78.9531      2.6821    122.4062
 3050.0000      77.1406      2.6880    121.5312
 3051.0000      73.7031      2.6919    126.1406
 3052.0000      74.0938      2.6991    128.0312
 3053.0000      73.8438      2.6835    128.2188
 3054.0000      73.6562      2.6775    124.9375
 3055.0000      73.9219      2.6699    119.5938
 3056.0000      74.2969      2.6620    118.9062
 3057.0000      75.1562      2.6696    124.5625
 3058.0000      74.9688      2.6804    124.7500
 3059.0000      74.4375      2.6974    126.5312
 3060.0000      73.8750      2.6904    123.3438
 3061.0000      72.9062      2.6829    123.2500
 3062.0000      72.4375      2.6851    123.2500
 3063.0000      73.7812      2.6820    122.1875
 3064.0000      74.9375      2.6768    123.4219
 3065.0000      74.8438      2.7126    121.3438
 3066.0000      74.5625      2.7384    119.4844
 3067.0000      74.4062      2.7180    114.3438
 3068.0000      72.3438      2.7123    111.9062
 3069.0000      70.7812      2.7095    112.8594
 3070.0000      69.8125      2.7120    115.3438
 3071.0000      69.7500      2.7351    116.7188
 3072.0000      71.5156      2.7075    119.3594
 3073.0000      72.9062      2.6850    119.9844
 3074.0000      74.0000      2.7053    120.8594
 3075.0000      72.7500      2.7378    117.1406
 3076.0000      72.9062      2.7023    116.7969
 3077.0000      74.6250      2.6796    118.5938
