~VERSION INFORMATION 
VERS.            2.0: LAS LOG ASCII STANDARD VERSION 2.0 
WRAP.             NO: ONE LINE PER DEPTH STEP 
~WELL INFORMATION 
#MNEM.UNIT     DATA                   DESCRIPTION    
#------------------------------------------------
STRT.F      72.0000                    : 
STOP.F    10204.0000                    : 
STEP.F       1.0000                    : 
NULL.       -999.25                    : 
WELL.        ROY BIRNEY #11                 : WELL NAME       
LONG.        0.0000000                      : LONGITUDE       
LAT.         0.0000000                      : LATITUDE        
SEC.         28                             : SECTION         
STAT.        OH                             : STATE           
TWP.         GREEN                            : TOWNSHIP        
DATE.        68/10/23                       : DATE            
DFM.         RSRN                           : DEEPEST FM      
OPER.        SANFORD E. MCCORMICK           : OPERATOR        
ORIG.        KB                             : LOG ORIGIN      
API.         3406720103                       : API             
CMNT1.       PERMIT #P-103                  : COMMENT 1       
RGE.         1                              : RANGE           
CNTY.        HARRISON                          : COUNTY          
LOC.         1266'FNL & 1966'FWL OF NW1/4   : LOCATION DESC   
#~TOPS
INJUN                  815.00
BEREA                 1410.00
DEV. SHALE            1460.00
BIG LIME              4628.00
ORISKANY              4805.00
PACKER SHELL          6662.00
ORDOV. SHALE          6971.00
TRENTON               8612.00
BLACK RIVER           8880.00
GULL RIVER            9438.00
GLENWOOD SHALE        9500.00
BEEKMANTOWN           9654.00
ROSE RUN SD.         10168.00
~CURVE INFORMATION 
#MNEM.UNIT     API CODE               CURVE DESCRIPTION
#------------------------------------------------------
DEPT.F                                 : 1 DEPTH
DT  .usec/ft                        : 2 SONIC
RHOB.gm/cc                          : 3 DENSITY
GR  .API UNITS                      : 4 GAMMA RAY
~PARAMETER INFORMATION 
#MNEM.UNIT     VALUE                  DESCRIPTION
#------------------------------------------------
EKB.F        1126.900                 : ELEVATION KB
~A   DEPTH           DT        RHOB          GR
# ...
 6752.0000      58.5156      2.5898     51.3281
 6753.0000      57.1406      2.6031     40.9844
 6754.0000      56.1719      2.6034     49.7500
 6755.0000      56.8438      2.6335     59.4062
 6756.0000      57.2969      2.6259     50.1406
 6757.0000      57.8438      2.6183     48.6250
 6758.0000      58.0312      2.6434     80.9219
 6759.0000      58.9219      2.6488     74.9688
 6760.0000      59.5156      2.6123     57.8281
 6761.0000      59.2188      2.5943     32.5312
 6762.0000      58.1719      2.5711     23.5625
 6763.0000      57.7031      2.5828     20.7188
 6764.0000      56.9375      2.5838     23.0938
 6765.0000      55.9062      2.5999     24.9531
 6766.0000      55.5938      2.5831     24.4844
 6767.0000      56.7812      2.5795     25.7656
 6768.0000      57.0156      2.5913     32.2344
 6769.0000      56.2031      2.5789     30.8594
 6770.0000      55.6562      2.5808     32.2500
 6771.0000      55.7500      2.5818     34.8750
 6772.0000      56.6875      2.5679     30.4844
 6773.0000      57.0312      2.5225     29.1094
 6774.0000      58.1094      2.5430     35.3438
 6775.0000      57.7969      2.5659     43.3281
 6776.0000      56.9219      2.6153     41.6250
 6777.0000      57.0156      2.5676     31.6719
 6778.0000      56.9375      2.5614     33.5469
 6779.0000      56.5625      2.5614     29.3906
 6780.0000      56.7500      2.5704     22.5781
 6781.0000      56.4375      2.5631     20.4062
 6782.0000      56.4062      2.5615     19.5469
 6783.0000      56.1719      2.5659     19.9844
 6784.0000      56.4531      2.5461     20.4844
 6785.0000      56.0938      2.5241     22.2812
 6786.0000      56.2188      2.5351     23.0156
 6787.0000      56.3438      2.5750     26.0000
 6788.0000      56.4062      2.6201     36.6562
 6789.0000      56.4844      2.6453     46.4219
 6790.0000      56.3906      2.6809     71.5625
 6791.0000      57.0000      2.6885     84.4844
 6792.0000      58.0156      2.6909     95.8438
 6793.0000      59.1406      2.6188     93.2656
 6794.0000      63.2500      2.6553     86.0156
 6795.0000      60.6250      2.6694     87.6875
 6796.0000      57.4688      2.7209    102.2812
 6797.0000      58.3281      2.6666     96.5000
 6798.0000      64.6875      2.5540     86.5000
 6799.0000      64.4844      2.6503    109.5938
 6800.0000      63.8281      2.6435     99.9375
 6801.0000      64.4219      2.6095     84.5938
 6802.0000      62.8750      2.5850     68.8594
 6803.0000      59.5938      2.6629     95.5781
 6804.0000      59.0625      2.6954    118.9062
 6805.0000      61.6875      2.6971    121.7656
 6806.0000      65.2500      2.6990    123.2656
 6807.0000      66.9688      2.6951    122.5156
 6808.0000      68.5938      2.6940    119.2344
 6809.0000      68.1562      2.6813    119.3438
 6810.0000      67.3750      2.6159    117.1562
 6811.0000      67.5469      2.5085    112.5781
 6812.0000      67.7031      2.4686    103.8125
 6813.0000      66.6250      2.6426     97.9375
 6814.0000      64.8750      2.6640     84.4062
 6815.0000      61.7344      2.6788     83.3438
 6816.0000      61.2812      2.6786     90.9375
 6817.0000      62.5469      2.6838     95.5625
 6818.0000      62.8594      2.6790    100.3125
 6819.0000      62.8750      2.6870    105.9219
 6820.0000      63.2500      2.7025    110.0469
 6821.0000      65.0156      2.6941    112.3125
 6822.0000      66.1406      2.6883    115.1406
 6823.0000      66.3750      2.6836    115.6094
 6824.0000      65.8125      2.6824    113.1562
 6825.0000      65.2969      2.6814    107.7656
 6826.0000      65.6719      2.6630    107.6875
 6827.0000      67.1875      2.6570    115.6094
 6828.0000      68.7969      2.6570    118.3750
 6829.0000      68.2031      2.6741    118.5469
 6830.0000      67.2344      2.6971    119.8438
 6831.0000      66.3438      2.7101    120.1875
 6832.0000      66.1719      2.6999    120.2656
 6833.0000      66.5469      2.6785    123.4375
 6834.0000      66.9688      2.6574    124.3281
 6835.0000      66.8438      2.6610    122.7969
 6836.0000      66.4531      2.6739    118.2031
 6837.0000      66.7656      2.6800    120.6406
 6838.0000      66.8906      2.6611    126.4531
 6839.0000      67.2188      2.6653    131.7969
 6840.0000      67.9531      2.6981    134.4688
 6841.0000      69.6406      2.7205    121.9688
 6842.0000      69.7344      2.7139    109.2344
 6843.0000      68.7344      2.6791    108.6719
 6844.0000      65.9375      2.6753    114.3906
 6845.0000      66.2344      2.6685    115.8438
 6846.0000      68.0156      2.6589    105.5156
 6847.0000      68.5000      2.6450     85.2969
 6848.0000      67.3750      2.5786     73.3281
 6849.0000      65.9531      2.5843     71.3906
 6850.0000      65.1406      2.6423     97.5312
 6851.0000      64.0938      2.6640    107.5938
 6852.0000      64.1406      2.6739    104.6562
 6853.0000      65.2188      2.6638    105.6406
 6854.0000      64.5938      2.6521    113.9688
 6855.0000      65.1094      2.6435    119.5625
 6856.0000      66.7812      2.6618    117.6562
 6857.0000      69.7031      2.5586    111.0469
 6858.0000      68.8438      2.6234    105.9219
 6859.0000      65.5781      2.6989    112.8438
 6860.0000      64.6562      2.7026    123.7500
 6861.0000      66.4844      2.7004    127.1719
 6862.0000      69.0156      2.6669    124.4531
 6863.0000      69.5312      2.6871    112.9844
 6864.0000      68.2188      2.6525    103.5781
 6865.0000      65.2969      2.6333    101.7188
 6866.0000      65.5938      2.6429    105.3125
 6867.0000      65.6094      2.6578    107.9531
 6868.0000      64.5000      2.6851    109.0469
 6869.0000      64.4531      2.6815    103.7812
 6870.0000      63.0781      2.6658     88.9688
 6871.0000      60.4219      2.6760     87.0781
 6872.0000      58.9219      2.6909     93.5781
 6873.0000      59.5000      2.6936    107.7031
 6874.0000      62.4531      2.6851    111.6719
 6875.0000      62.8281      2.6584    112.6094
 6876.0000      63.0469      2.6823    111.5156
 6877.0000      62.3594      2.6729    106.1719
 6878.0000      61.1875      2.6381    100.3750
 6879.0000      61.0000      2.6444     97.5469
 6880.0000      61.9688      2.6913    101.1719
 6881.0000      62.3438      2.6979    103.2656
 6882.0000      61.9375      2.6993    102.4844
 6883.0000      61.7969      2.7049    103.8750
 6884.0000      61.4688      2.7023    106.2188
 6885.0000      61.7031      2.7234    107.0469
 6886.0000      62.0781      2.7353    105.2969
 6887.0000      62.1250      2.7420    102.8125
 6888.0000      61.0625      2.6791    103.6562
 6889.0000      60.8750      2.6708    104.1094
 6890.0000      61.5156      2.6845    104.3438
 6891.0000      61.9375      2.7011    100.9062
 6892.0000      61.3438      2.7029    102.6562
 6893.0000      60.8438      2.6895    105.8281
 6894.0000      61.0000      2.6939    105.7500
 6895.0000      61.5938      2.6910    106.5625
 6896.0000      61.7188      2.6895    106.4531
 6897.0000      61.9531      2.6895    105.6719
 6898.0000      61.8125      2.6775    104.9844
 6899.0000      62.3438      2.6796    105.6875
 6900.0000      62.7031      2.6788    104.0938
 6901.0000      62.9531      2.6796    102.6406
 6902.0000      62.6094      2.6620    100.4531
 6903.0000      61.6562      2.6248     98.5625
 6904.0000      61.3438      2.6379     98.8750
 6905.0000      60.4844      2.6704    101.7969
 6906.0000      60.6875      2.6631    107.1406
 6907.0000      61.7344      2.6529    111.5156
 6908.0000      62.3125      2.6671    109.7656
 6909.0000      62.2031      2.7100    105.6875
 6910.0000      62.0469      2.7181    105.8438
 6911.0000      61.6562      2.6850    103.3906
 6912.0000      60.8281      2.6771     99.3750
 6913.0000      60.7969      2.6805     95.6250
 6914.0000      61.0312      2.6589     98.3281
 6915.0000      60.6406      2.6429     98.5781
 6916.0000      60.9219      2.6504     98.3125
 6917.0000      62.0625      2.6484     99.0625
 6918.0000      62.6094      2.6570    100.3750
