~VERSION INFORMATION 
VERS.            2.0: LAS LOG ASCII STANDARD VERSION 2.0 
WRAP.             NO: ONE LINE PER DEPTH STEP 
~WELL INFORMATION 
#MNEM.UNIT     DATA                   DESCRIPTION    
#------------------------------------------------
STRT.F      72.0000                    : 
STOP.F    10204.0000                    : 
STEP.F       1.0000                    : 
NULL.       -999.25                    : 
WELL.        ROY BIRNEY #11                 : WELL NAME       
LONG.        0.0000000                      : LONGITUDE       
LAT.         0.0000000                      : LATITUDE        
SEC.         28                             : SECTION         
STAT.        OH                             : STATE           
TWP.         GREEN                            : TOWNSHIP        
DATE.        68/10/23                       : DATE            
DFM.         RSRN                           : DEEPEST FM      
OPER.        SANFORD E. MCCORMICK           : OPERATOR        
ORIG.        KB                             : LOG ORIGIN      
API.         3406720103                       : API             
CMNT1.       PERMIT #P-103                  : COMMENT 1       
RGE.         1                              : RANGE           
CNTY.        HARRISON                          : COUNTY          
LOC.         1266'FNL & 1966'FWL OF NW1/4   : LOCATION DESC   
#~TOPS
INJUN                  815.00
BEREA                 1410.00
DEV. SHALE            1460.00
BIG LIME              4628.00
ORISKANY              4805.00
PACKER SHELL          6662.00
ORDOV. SHALE          6971.00
TRENTON               8612.00
BLACK RIVER           8880.00
GULL RIVER            9438.00
GLENWOOD SHALE        9500.00
BEEKMANTOWN           9654.00
ROSE RUN SD.         10168.00
~CURVE INFORMATION 
#MNEM.UNIT     API CODE               CURVE DESCRIPTION
#------------------------------------------------------
DEPT.F                                 : 1 DEPTH
DT  .usec/ft                        : 2 SONIC
RHOB.gm/cc                          : 3 DENSITY
GR  .API UNITS                      : 4 GAMMA RAY
~PARAMETER INFORMATION 
#MNEM.UNIT     VALUE                  DESCRIPTION
#------------------------------------------------
EKB.F        1126.900                 : ELEVATION KB
~A   DEPTH           DT        RHOB          GR
# ...
 4247.0000      87.3906      2.5999    169.5312
 4248.0000      87.9219      2.6365    149.6094
 4249.0000      87.9062      2.6821    132.5469
 4250.0000      85.1562      2.7184    125.8750
 4251.0000      79.0312      2.7493    123.9844
 4252.0000      77.6250      2.7261    122.9062
 4253.0000      76.5938      2.7040    124.9219
 4254.0000      75.9062      2.7170    130.0156
 4255.0000      76.3438      2.7383    131.4688
 4256.0000      77.3125      2.7259    136.5000
 4257.0000      77.1875      2.7104    146.2188
 4258.0000      77.4844      2.6520    152.2031
 4259.0000      79.7188      2.6521    142.2969
 4260.0000      83.1719      2.7005    136.3281
 4261.0000      80.5156      2.7533    127.0625
 4262.0000      78.4844      2.7456    127.9844
 4263.0000      77.6094      2.7326    132.4688
 4264.0000      76.8906      2.7040    150.7500
 4265.0000      76.7969      2.6626    155.0156
 4266.0000      81.2969      2.7278    137.2656
 4267.0000      82.8438      2.7369    129.9688
 4268.0000      78.1406      2.7236    131.1250
 4269.0000      75.7344      2.7073    154.7812
 4270.0000      78.8125      2.6425    159.7188
 4271.0000      83.5000      2.6429    165.5625
 4272.0000      84.5625      2.6086    183.5781
 4273.0000      85.5156      2.5826    179.0625
 4274.0000      88.3281      2.5971    162.7344
 4275.0000      89.6094      2.6505    148.0938
 4276.0000      85.8906      2.6808    157.3125
 4277.0000      84.0625      2.7013    154.7812
 4278.0000      86.6875      2.7134    130.1875
 4279.0000      86.0156      2.7353    126.2031
 4280.0000      79.3125      2.7373    128.0312
 4281.0000      77.7656      2.7310    128.5156
 4282.0000      78.7656      2.7313    133.1719
 4283.0000      77.8594      2.7199    144.4688
 4284.0000      84.4375      2.6556    135.5938
 4285.0000      85.1562      2.6413    131.1250
 4286.0000      80.6406      2.6853    136.4688
 4287.0000      77.3906      2.6704    159.7500
 4288.0000      77.1250      2.6215    182.9531
 4289.0000      80.5625      2.5416    196.1406
 4290.0000      86.7344      2.5351    192.5469
 4291.0000      88.2500      2.5343    181.4531
 4292.0000      87.7031      2.5513    169.0156
 4293.0000      86.8438      2.5801    164.5156
 4294.0000      85.1250      2.5668    165.0000
 4295.0000      85.9375      2.5775    165.1875
 4296.0000      87.2188      2.5831    157.2031
 4297.0000      88.0312      2.6249    145.2812
 4298.0000      86.7188      2.6731    142.1250
 4299.0000      85.6875      2.6650    139.3438
 4300.0000      86.1094      2.6474    140.7188
 4301.0000      83.7188      2.6233    152.2812
 4302.0000      81.4844      2.5906    177.3594
 4303.0000      85.9375      2.5484    173.3438
 4304.0000      89.3594      2.5588    153.8750
 4305.0000      87.5469      2.6234    136.3750
 4306.0000      84.7031      2.6529    144.4375
 4307.0000      84.2031      2.6538    146.6719
 4308.0000      85.5938      2.6846    144.5938
 4309.0000      82.1719      2.6740    154.4531
 4310.0000      83.2188      2.6760    143.4531
 4311.0000      85.4531      2.7401    130.4844
 4312.0000      78.6562      2.7361    126.4219
 4313.0000      74.7031      2.7420    127.1094
 4314.0000      75.7500      2.7635    127.8281
 4315.0000      77.2969      2.7635    132.7031
 4316.0000      78.6406      2.7516    141.7812
 4317.0000      80.4531      2.7141    146.9688
 4318.0000      81.5781      2.6680    159.5781
 4319.0000      85.3125      2.6411    150.4219
 4320.0000      85.4531      2.6731    145.5469
 4321.0000      81.1094      2.6603    148.4219
 4322.0000      84.0312      2.6204    158.5781
 4323.0000      84.7812      2.5959    176.4844
 4324.0000      88.0312      2.5555    201.6875
 4325.0000      93.9219      2.5334    209.6406
 4326.0000      94.1250      2.5341    193.7656
 4327.0000      93.3438      2.5326    190.8125
 4328.0000      90.6250      2.5264    184.2969
 4329.0000      89.3750      2.5264    172.8438
 4330.0000      88.5938      2.5004    170.7344
 4331.0000      90.5938      2.4788    162.3438
 4332.0000      92.2031      2.4645    169.8750
 4333.0000      92.8125      2.4970    182.0156
 4334.0000      92.7500      2.6763    163.2188
 4335.0000      84.8906      2.7190    129.9062
 4336.0000      82.4531      2.7225    124.9531
 4337.0000      80.5000      2.7288    120.2500
 4338.0000      79.0156      2.7274    120.8438
 4339.0000      75.2031      2.6896    130.9688
 4340.0000      76.3594      2.6589    143.9531
 4341.0000      79.1875      2.6293    177.3125
 4342.0000      80.5938      2.5770    202.4219
 4343.0000      88.3125      2.5351    212.8906
 4344.0000      92.8750      2.5071    219.3125
 4345.0000      93.3125      2.4958    207.4844
 4346.0000      93.0156      2.5159    189.2188
 4347.0000      93.6250      2.5466    176.9219
 4348.0000      92.2031      2.5570    179.6719
 4349.0000      91.7812      2.5611    194.9219
 4350.0000      92.9531      2.6410    176.0312
 4351.0000      89.0312      2.6830    160.9844
 4352.0000      85.3125      2.6889    158.7031
 4353.0000      83.8906      2.7008    156.8281
 4354.0000      82.9688      2.6755    158.0625
 4355.0000      84.4531      2.6446    159.2969
 4356.0000      86.6406      2.6406    160.8750
 4357.0000      87.9375      2.6291    158.7812
 4358.0000      88.4844      2.6024    162.5312
 4359.0000      88.7656      2.5718    177.2344
 4360.0000      89.1250      2.5758    166.7656
 4361.0000      89.6250      2.6126    157.9844
 4362.0000      90.3281      2.6633    152.8594
 4363.0000      89.6250      2.6826    149.0625
 4364.0000      84.6406      2.6523    153.0312
 4365.0000      85.3906      2.6196    157.3438
 4366.0000      86.1250      2.5819    158.6406
 4367.0000      87.6562      2.5299    170.5781
 4368.0000      87.8594      2.5294    155.5156
 4369.0000      84.5469      2.6678    130.8750
 4370.0000      83.3750      2.6341    127.7812
 4371.0000      83.0000      2.5956    132.3125
 4372.0000      83.1875      2.5826    163.6875
 4373.0000      85.0469      2.5483    198.9219
 4374.0000      88.1719      2.5069    206.8906
 4375.0000      89.4844      2.4960    198.0000
 4376.0000      88.6562      2.5005    189.2031
 4377.0000      88.3125      2.5100    179.8281
 4378.0000      87.7500      2.5583    164.0625
 4379.0000      86.0469      2.5596    145.9844
 4380.0000      86.7656      2.5383    136.0938
 4381.0000      85.5469      2.5344    129.7031
 4382.0000      81.1562      2.5759    115.0625
 4383.0000      80.1406      2.5760    109.5000
 4384.0000      80.1875      2.5781    111.1875
 4385.0000      81.4688      2.5894    113.1562
 4386.0000      81.6875      2.6135    114.6094
 4387.0000      81.9688      2.6124    118.8750
 4388.0000      81.9531      2.6015    119.5938
 4389.0000      81.7812      2.6054    119.2344
 4390.0000      81.5469      2.6146    119.6250
 4391.0000      80.8594      2.6359    123.9062
 4392.0000      80.7812      2.6205    123.4531
 4393.0000      80.7031      2.6179    123.3438
 4394.0000      80.2500      2.6241    120.2656
 4395.0000      80.2188      2.6276    120.4688
 4396.0000      80.0156      2.6303    122.5469
 4397.0000      79.6094      2.6209    124.2969
 4398.0000      79.6250      2.6129    132.4062
 4399.0000      79.9219      2.6071    138.7188
 4400.0000      80.0312      2.6056    140.5312
 4401.0000      80.2500      2.6121    141.4844
 4402.0000      80.2500      2.6169    140.7812
 4403.0000      80.0625      2.6115    132.7031
 4404.0000      79.8750      2.6456    124.0156
 4405.0000      80.0469      2.6459    123.8438
 4406.0000      80.5312      2.6340    131.2500
 4407.0000      80.9375      2.6145    133.8281
 4408.0000      81.0469      2.6018    129.2500
 4409.0000      81.1094      2.5933    126.3594
 4410.0000      81.5469      2.5916    129.7188
 4411.0000      81.9375      2.5896    136.6562
 4412.0000      85.9688      2.5831    136.3281
 4413.0000      84.3125      2.5991    127.1250
