~VERSION INFORMATION 
VERS.            2.0: LAS LOG ASCII STANDARD VERSION 2.0 
WRAP.             NO: ONE LINE PER DEPTH STEP 
~WELL INFORMATION 
#MNEM.UNIT     DATA                   DESCRIPTION    
#------------------------------------------------
STRT.F      72.0000                    : 
STOP.F    10204.0000                    : 
STEP.F       1.0000                    : 
NULL.       -999.25                    : 
WELL.        ROY BIRNEY #11                 : WELL NAME       
LONG.        0.0000000                      : LONGITUDE       
LAT.         0.0000000                      : LATITUDE        
SEC.         28                             : SECTION         
STAT.        OH                             : STATE           
TWP.         GREEN                            : TOWNSHIP        
DATE.        68/10/23                       : DATE            
DFM.         RSRN                           : DEEPEST FM      
OPER.        SANFORD E. MCCORMICK           : OPERATOR        
ORIG.        KB                             : LOG ORIGIN      
API.         3406720103                       : API             
CMNT1.       PERMIT #P-103                  : COMMENT 1       
RGE.         1                              : RANGE           
CNTY.        HARRISON                          : COUNTY          
LOC.         1266'FNL & 1966'FWL OF NW1/4   : LOCATION DESC   
#~TOPS
INJUN                  815.00
BEREA                 1410.00
DEV. SHALE            1460.00
BIG LIME              4628.00
ORISKANY              4805.00
PACKER SHELL          6662.00
ORDOV. SHALE          6971.00
TRENTON               8612.00
BLACK RIVER           8880.00
GULL RIVER            9438.00
GLENWOOD SHALE        9500.00
BEEKMANTOWN           9654.00
ROSE RUN SD.         10168.00
~CURVE INFORMATION 
#MNEM.UNIT     API CODE               CURVE DESCRIPTION
#------------------------------------------------------
DEPT.F                                 : 1 DEPTH
DT  .usec/ft                        : 2 SONIC
RHOB.gm/cc                          : 3 DENSITY
GR  .API UNITS                      : 4 GAMMA RAY
~PARAMETER INFORMATION 
#MNEM.UNIT     VALUE                  DESCRIPTION
#------------------------------------------------
EKB.F        1126.900                 : ELEVATION KB
~A   DEPTH           DT        RHOB          GR
# ...
 9424.0000      56.4219      2.7894     61.0469
 9425.0000      54.7344      2.7861     51.0781
 9426.0000      52.7969      2.7491     35.2031
 9427.0000      51.4219      2.7876     32.1562
 9428.0000      51.5312      2.8066     36.4062
 9429.0000      52.9688      2.8065     43.9219
 9430.0000      52.7812      2.7936     46.0469
 9431.0000      52.1719      2.7696     46.6094
 9432.0000      52.2031      2.7671     42.9531
 9433.0000      51.7031      2.7813     38.0625
 9434.0000      50.7969      2.8153     32.8281
 9435.0000      49.7031      2.8284     28.2656
 9436.0000      48.2812      2.8279     26.8125
 9437.0000      46.8594      2.7965     29.2031
 9438.0000      46.5469      2.8484     28.0156
 9439.0000      46.4062      2.8680     16.8438
 9440.0000      46.5000      2.8421     11.5312
 9441.0000      46.7188      2.8390      9.6562
 9442.0000      46.6875      2.8308      8.7344
 9443.0000      46.5156      2.8181      8.9844
 9444.0000      46.7500      2.8005      9.5000
 9445.0000      46.8750      2.8031      9.6562
 9446.0000      46.8438      2.8360      9.9062
 9447.0000      47.0625      2.8203     10.3906
 9448.0000      46.8906      2.8429     11.0000
 9449.0000      46.8438      2.8376     11.6719
 9450.0000      46.8906      2.8301     12.7656
 9451.0000      47.5781      2.8196     13.7031
 9452.0000      52.4844      2.7639     14.6562
 9453.0000      53.2500      2.7749     15.7344
 9454.0000      49.7188      2.7906     16.7656
 9455.0000      49.4375      2.7884     18.7500
 9456.0000      49.4375      2.7919     23.9688
 9457.0000      49.2188      2.7551     24.5781
 9458.0000      52.5781      2.7433     18.5938
 9459.0000      49.1562      2.7750     14.7500
 9460.0000      46.7500      2.7934     11.0469
 9461.0000      46.7812      2.8210      7.9688
 9462.0000      46.9531      2.7815      5.8281
 9463.0000      47.4219      2.7700      4.6250
 9464.0000      47.3750      2.7961      4.3594
 9465.0000      47.7188      2.8044      4.4688
 9466.0000      47.9844      2.8096      4.4844
 9467.0000      47.8750      2.8059      4.1875
 9468.0000      47.7500      2.7923      3.5156
 9469.0000      47.9688      2.7714      3.3281
 9470.0000      47.9375      2.8004      3.3281
 9471.0000      47.3438      2.8163      3.8750
 9472.0000      47.3906      2.8489      4.8750
 9473.0000      47.1875      2.8430      6.3438
 9474.0000      47.4062      2.8436      7.9375
 9475.0000      47.3125      2.8679      9.7031
 9476.0000      47.7188      2.8799     11.2031
 9477.0000      47.7500      2.8429     12.6875
 9478.0000      47.7969      2.7981     13.6875
 9479.0000      47.7188      2.7893     14.2656
 9480.0000      47.5000      2.8050     14.7031
 9481.0000      46.5156      2.8348     15.5000
 9482.0000      46.5469      2.8119     17.1094
 9483.0000      48.2656      2.8140     21.6875
 9484.0000      52.2344      2.8120     30.4219
 9485.0000      49.6094      2.8095     25.1719
 9486.0000      47.9219      2.8049     19.1562
 9487.0000      48.0156      2.8049     18.7344
 9488.0000      48.5938      2.7901     19.5781
 9489.0000      49.2344      2.7946     24.0312
 9490.0000      50.0156      2.8009     25.8125
 9491.0000      50.4688      2.8058     23.7188
 9492.0000      49.4375      2.7999     21.2969
 9493.0000      48.7344      2.8098     22.0000
 9494.0000      48.0469      2.8439     22.7812
 9495.0000      48.4531      2.8615     23.2656
 9496.0000      49.0938      2.8445     23.2500
 9497.0000      49.1562      2.8371     24.3750
 9498.0000      49.9844      2.8236     27.1250
 9499.0000      51.5469      2.8031     33.7969
 9500.0000      52.9062      2.8170     51.1406
 9501.0000      55.0625      2.8244     63.5781
 9502.0000      56.7969      2.7724     73.8750
 9503.0000      56.2500      2.7830     62.4531
 9504.0000      51.6719      2.7833     42.5781
 9505.0000      48.6562      2.7823     34.7656
 9506.0000      48.5781      2.8225     27.0156
 9507.0000      46.5156      2.8538     21.8594
 9508.0000      49.4375      2.8525     43.2656
 9509.0000      55.4844      2.8263     50.2812
 9510.0000      53.5469      2.8171     41.5781
 9511.0000      48.1406      2.8325     27.4531
 9512.0000      47.1250      2.8199     24.1719
 9513.0000      46.9688      2.8251     21.7344
 9514.0000      47.0000      2.8328     17.4844
 9515.0000      46.8281      2.8429     18.1094
 9516.0000      47.0312      2.8354     20.6719
 9517.0000      47.3906      2.7849     20.8125
 9518.0000      47.7500      2.8183     20.4062
 9519.0000      47.3438      2.8291     20.2812
 9520.0000      47.2188      2.8175     21.7500
 9521.0000      48.0469      2.8200     30.1406
 9522.0000      55.7188      2.7990     51.6719
 9523.0000      59.4062      2.7450     85.2656
 9524.0000      56.0781      2.7525     83.2344
 9525.0000      59.4375      2.8001     78.5000
 9526.0000      56.0156      2.8015     72.9062
 9527.0000      56.5625      2.7951     63.9531
 9528.0000      48.5312      2.8264     31.8750
 9529.0000      47.2969      2.8233     26.4531
 9530.0000      46.0781      2.7784     34.9375
 9531.0000      46.9531      2.7530     42.0469
 9532.0000      47.8281      2.7468     39.7188
 9533.0000      46.7656      2.7804     40.7656
 9534.0000      48.4844      2.7471     41.9375
 9535.0000      45.6094      2.7255     41.6719
 9536.0000      46.3438      2.7349     44.6875
 9537.0000      48.5781      2.6235     50.1562
 9538.0000      51.2031      2.6499     47.7500
 9539.0000      47.6094      2.8025     34.2656
 9540.0000      45.0156      2.8866     28.2812
 9541.0000      45.0156      2.8549     37.7969
 9542.0000      46.9062      2.8478     55.4219
 9543.0000      52.8125      2.8379     83.6719
 9544.0000      60.8281      2.8176     97.4375
 9545.0000      66.4688      2.7945     66.0156
 9546.0000      54.2344      2.7976     65.3750
 9547.0000      50.8281      2.8343     80.7969
 9548.0000      49.0781      2.8419     75.5312
 9549.0000      50.9219      2.8439     48.0312
 9550.0000      50.4219      2.8579     44.3438
 9551.0000      49.8125      2.9178     47.3594
 9552.0000      47.9844      2.8974     41.1875
 9553.0000      46.0781      2.8409     42.4844
 9554.0000      46.5000      2.8720     36.7031
 9555.0000      46.2812      2.8311     37.0625
 9556.0000      46.2031      2.8203     44.1875
 9557.0000      46.0469      2.8581     48.5312
 9558.0000      46.5000      2.8916     51.5156
 9559.0000      46.9688      2.8829     55.5156
 9560.0000      48.5000      2.8745     66.2344
 9561.0000      53.7969      2.8780     80.4688
 9562.0000      55.4844      2.8516     95.2656
 9563.0000      53.2344      2.8476     92.3125
 9564.0000      54.3281      2.8679     82.7344
 9565.0000      54.1406      2.9001     85.7812
 9566.0000      54.2188      2.9005     85.5000
 9567.0000      53.7656      2.9014     65.8906
 9568.0000      52.8125      2.9019     61.7969
 9569.0000      49.5156      2.8900     62.7812
 9570.0000      48.5781      2.8780     58.2969
 9571.0000      50.3438      2.8654     55.4531
 9572.0000      51.1875      2.8383     67.8750
 9573.0000      50.4062      2.8209     74.5469
 9574.0000      50.0469      2.8218     69.3906
 9575.0000      51.2031      2.8251     84.9688
 9576.0000      51.4531      2.8245     87.4062
 9577.0000      50.8125      2.8043     84.0000
 9578.0000      50.3125      2.8110     77.0000
 9579.0000      49.1562      2.8468     73.2031
 9580.0000      49.3125      2.8948     77.1406
 9581.0000      56.3594      2.8891     83.4531
 9582.0000      57.1562      2.8535     90.2031
 9583.0000      49.7656      2.8656     96.9219
 9584.0000      48.1562      2.8774    103.4219
 9585.0000      47.9062      2.9008     88.6250
 9586.0000      48.0781      2.8679     70.5625
 9587.0000      48.3125      2.8371     62.2031
 9588.0000      48.3906      2.8221     56.9062
 9589.0000      48.9219      2.8038     62.7031
 9590.0000      49.2188      2.7243     74.2344
