~VERSION INFORMATION 
VERS.            2.0: LAS LOG ASCII STANDARD VERSION 2.0 
WRAP.             NO: ONE LINE PER DEPTH STEP 
~WELL INFORMATION 
#MNEM.UNIT     DATA                   DESCRIPTION    
#------------------------------------------------
STRT.F      72.0000                    : 
STOP.F    10204.0000                    : 
STEP.F       1.0000                    : 
NULL.       -999.25                    : 
WELL.        ROY BIRNEY #11                 : WELL NAME       
LONG.        0.0000000                      : LONGITUDE       
LAT.         0.0000000                      : LATITUDE        
SEC.         28                             : SECTION         
STAT.        OH                             : STATE           
TWP.         GREEN                            : TOWNSHIP        
DATE.        68/10/23                       : DATE            
DFM.         RSRN                           : DEEPEST FM      
OPER.        SANFORD E. MCCORMICK           : OPERATOR        
ORIG.        KB                             : LOG ORIGIN      
API.         3406720103                       : API             
CMNT1.       PERMIT #P-103                  : COMMENT 1       
RGE.         1                              : RANGE           
CNTY.        HARRISON                          : COUNTY          
LOC.         1266'FNL & 1966'FWL OF NW1/4   : LOCATION DESC   
#~TOPS
INJUN                  815.00
BEREA                 1410.00
DEV. SHALE            1460.00
BIG LIME              4628.00
ORISKANY              4805.00
PACKER SHELL          6662.00
ORDOV. SHALE          6971.00
TRENTON               8612.00
BLACK RIVER           8880.00
GULL RIVER            9438.00
GLENWOOD SHALE        9500.00
BEEKMANTOWN           9654.00
ROSE RUN SD.         10168.00
~CURVE INFORMATION 
#MNEM.UNIT     API CODE               CURVE DESCRIPTION
#------------------------------------------------------
DEPT.F                                 : 1 DEPTH
DT  .usec/ft                        : 2 SONIC
RHOB.gm/cc                          : 3 DENSITY
GR  .API UNITS                      : 4 GAMMA RAY
~PARAMETER INFORMATION 
#MNEM.UNIT     VALUE                  DESCRIPTION
#------------------------------------------------
EKB.F        1126.900                 : ELEVATION KB
~A   DEPTH           DT        RHOB          GR
# ...
 8088.0000      67.9844      2.6438    112.0000
 8089.0000      67.9219      2.6293    114.9688
 8090.0000      65.3281      2.6360    114.2500
 8091.0000      65.2656      2.6388    111.2656
 8092.0000      65.0938      2.6316    114.8125
 8093.0000      67.0625      2.6395    118.4531
 8094.0000      67.1250      2.5941    118.3750
 8095.0000      66.6562      2.5800    117.3750
 8096.0000      67.7031      2.6741    115.2344
 8097.0000      68.5000      2.6380    113.3281
 8098.0000      68.8594      2.6330    111.9219
 8099.0000      67.7969      2.6054    112.1875
 8100.0000      67.7656      2.6249    111.2656
 8101.0000      67.3281      2.6242    110.0312
 8102.0000      66.7031      2.6236    112.6875
 8103.0000      66.1875      2.6230    113.6250
 8104.0000      64.4062      2.6225    112.4219
 8105.0000      66.4375      2.6219    110.8125
 8106.0000      68.5938      2.6213    107.6406
 8107.0000      69.2656      2.6207    106.9219
 8108.0000      67.3750      2.6201    105.2656
 8109.0000      67.3438      2.6195    102.6719
 8110.0000      67.2188      2.6189    100.9688
 8111.0000      67.1562      2.6183    104.6250
 8112.0000      66.2969      2.6177    105.0469
 8113.0000      66.3125      2.6171    103.5625
 8114.0000      65.8438      2.6165    102.2031
 8115.0000      66.9219      2.6159    101.5312
 8116.0000      67.1250      2.6153    100.8125
 8117.0000      65.0000      2.6147     96.4219
 8118.0000      62.8125      2.6141     90.5156
 8119.0000      63.3281      2.6136     93.3594
 8120.0000      67.5469      2.6130     99.0000
 8121.0000      65.4688      2.6124    105.6406
 8122.0000      67.2812      2.6118    102.4375
 8123.0000      66.1406      2.6112     97.4375
 8124.0000      66.3750      2.6106     95.4688
 8125.0000      71.0000      2.6100     95.3125
 8126.0000      69.9062      2.6094     95.3438
 8127.0000      68.0938      2.6088     99.2344
 8128.0000      67.4844      2.6082    101.1094
 8129.0000      67.6719      2.6076    101.8750
 8130.0000      68.3906      2.6070    104.9688
 8131.0000      67.2344      2.6064    110.8750
 8132.0000      67.5000      2.6058    112.7031
 8133.0000      66.4219      2.6052    110.8594
 8134.0000      64.4219      2.6046    107.4062
 8135.0000      65.5156      2.6041    108.8125
 8136.0000      66.6094      2.6551    108.6094
 8137.0000      66.5781      2.6065    106.0469
 8138.0000      66.4219      2.5936    106.2500
 8139.0000      65.2969      2.5656    105.2031
 8140.0000      63.9062      2.5553    104.2969
 8141.0000      63.8281      2.5395    101.2656
 8142.0000      65.8281      2.5366    102.6406
 8143.0000      67.2969      2.5275     99.7812
 8144.0000      67.5469      2.5456    100.0938
 8145.0000      67.7969      2.5255    104.8438
 8146.0000      67.6094      2.5268    106.0625
 8147.0000      66.8438      2.6150    107.0156
 8148.0000      67.5938      2.6279    108.3594
 8149.0000      67.5312      2.6260    105.0938
 8150.0000      66.2500      2.6090     98.7969
 8151.0000      68.1562      2.5638     98.6875
 8152.0000      67.3750      2.5371    102.4688
 8153.0000      66.4375      2.5951    108.9062
 8154.0000      65.5156      2.5466    110.4531
 8155.0000      66.0625      2.5645    109.9219
 8156.0000      65.7344      2.5870    106.7500
 8157.0000      65.7500      2.5459    103.7500
 8158.0000      64.6562      2.4706     93.2812
 8159.0000      66.2500      2.4814     91.6875
 8160.0000      67.2031      2.4981     97.9688
 8161.0000      67.1406      2.5334    102.7188
 8162.0000      68.0781      2.5326    101.0000
 8163.0000      67.6875      2.5301    100.9375
 8164.0000      65.3125      2.6190    104.2656
 8165.0000      66.2031      2.5801    109.2656
 8166.0000      66.2812      2.6004    112.6250
 8167.0000      67.0469      2.6138    108.2969
 8168.0000      66.3750      2.5418    104.5938
 8169.0000      65.3125      2.4926     98.6875
 8170.0000      63.5156      2.4626     95.4219
 8171.0000      63.4844      2.5920     96.4688
 8172.0000      67.7344      2.6064    100.7969
 8173.0000      68.1562      2.5269    106.8594
 8174.0000      67.5469      2.5494    109.5312
 8175.0000      66.3125      2.5848    106.6875
 8176.0000      66.7188      2.5951    105.6719
 8177.0000      68.1875      2.5805    106.8906
 8178.0000      67.7031      2.5964    108.9062
 8179.0000      68.6406      2.5883    108.9062
 8180.0000      66.1250      2.5771    113.0156
 8181.0000      67.9688      2.5935    111.6250
 8182.0000      68.0938      2.4954    107.7500
 8183.0000      67.8281      2.4666    106.1562
 8184.0000      68.1406      2.5333    106.3906
 8185.0000      67.9531      2.5430    108.7188
 8186.0000      68.0156      2.5534    110.7031
 8187.0000      68.3906      2.5271    113.7188
 8188.0000      66.7344      2.5691    113.7188
 8189.0000      67.8281      2.6429    112.2188
 8190.0000      67.2812      2.6890    112.5469
 8191.0000      67.3594      2.6974    113.9062
 8192.0000      67.2188      2.6378    115.2188
 8193.0000      68.1719      2.6351    112.6250
 8194.0000      69.3750      2.7053    112.5469
 8195.0000      66.8750      2.7043    110.2656
 8196.0000      66.7500      2.6659    111.3125
 8197.0000      67.0625      2.6454    110.8438
 8198.0000      67.2812      2.6401    109.9531
 8199.0000      66.7969      2.6408    107.8125
 8200.0000      66.4062      2.6326    106.7344
 8201.0000      66.9219      2.6379    108.3281
 8202.0000      67.0312      2.6883    109.4688
 8203.0000      66.4688      2.6940    109.2344
 8204.0000      65.6094      2.6453    114.1719
 8205.0000      65.0312      2.6936    120.0625
 8206.0000      65.7969      2.7344    118.2188
 8207.0000      66.2812      2.7420    116.4688
 8208.0000      66.5781      2.7249    115.0625
 8209.0000      67.2500      2.6870    114.1250
 8210.0000      67.4062      2.6778    117.9219
 8211.0000      67.2656      2.6766    122.7656
 8212.0000      67.7656      2.6976    118.4688
 8213.0000      67.8594      2.6474    112.8906
 8214.0000      67.0000      2.6116    109.5625
 8215.0000      67.7188      2.5986    108.9062
 8216.0000      68.2500      2.6326    109.7969
 8217.0000      67.9062      2.5800    111.0156
 8218.0000      67.6875      2.5680    113.0625
 8219.0000      66.1406      2.6135    113.7656
 8220.0000      66.7969      2.5846    115.1719
 8221.0000      67.0938      2.5850    114.7188
 8222.0000      69.1094      2.6424    111.6250
 8223.0000      68.8594      2.6030    109.0938
 8224.0000      70.4844      2.5869    107.8438
 8225.0000      69.7031      2.5595    111.9375
 8226.0000      67.9531      2.5729    112.8750
 8227.0000      68.0469      2.5591    109.7656
 8228.0000      67.9844      2.5379    108.5312
 8229.0000      68.9375      2.5009    108.5156
 8230.0000      68.8438      2.4981    111.6406
 8231.0000      69.4688      2.5044    115.3906
 8232.0000      68.3125      2.6319    118.6406
 8233.0000      68.4062      2.5945    123.7656
 8234.0000      69.1719      2.5748    122.9688
 8235.0000      69.4375      2.5935    118.8438
 8236.0000      70.0156      2.6306    114.9062
 8237.0000      70.0938      2.6251    110.0156
 8238.0000      69.3281      2.5878    105.7969
 8239.0000      69.4531      2.6221    108.3906
 8240.0000      68.6562      2.6591    112.2969
 8241.0000      67.8750      2.6561    112.0938
 8242.0000      67.7344      2.6705    112.2812
 8243.0000      67.3281      2.7260    112.7969
 8244.0000      67.5156      2.7540    114.7344
 8245.0000      68.0781      2.6580    116.8906
 8246.0000      71.0781      2.6044    117.7031
 8247.0000      70.2656      2.6456    116.8438
 8248.0000      69.6094      2.6675    117.6094
 8249.0000      68.6250      2.6665    115.3125
 8250.0000      67.8438      2.6804    112.9531
 8251.0000      66.9531      2.6500    112.2031
 8252.0000      69.7969      2.6179    115.0938
 8253.0000      71.0312      2.6013    116.9062
 8254.0000      69.8594      2.5973    117.8438
