~VERSION INFORMATION 
VERS.            2.0: LAS LOG ASCII STANDARD VERSION 2.0 
WRAP.             NO: ONE LINE PER DEPTH STEP 
~WELL INFORMATION 
#MNEM.UNIT     DATA                   DESCRIPTION    
#------------------------------------------------
STRT.F      72.0000                    : 
STOP.F    10204.0000                    : 
STEP.F       1.0000                    : 
NULL.       -999.25                    : 
WELL.        ROY BIRNEY #11                 : WELL NAME       
LONG.        0.0000000                      : LONGITUDE       
LAT.         0.0000000                      : LATITUDE        
SEC.         28                             : SECTION         
STAT.        OH                             : STATE           
TWP.         GREEN                            : TOWNSHIP        
DATE.        68/10/23                       : DATE            
DFM.         RSRN                           : DEEPEST FM      
OPER.        SANFORD E. MCCORMICK           : OPERATOR        
ORIG.        KB                             : LOG ORIGIN      
API.         3406720103                       : API             
CMNT1.       PERMIT #P-103                  : COMMENT 1       
RGE.         1                              : RANGE           
CNTY.        HARRISON                          : COUNTY          
LOC.         1266'FNL & 1966'FWL OF NW1/4   : LOCATION DESC   
#~TOPS
INJUN                  815.00
BEREA                 1410.00
DEV. SHALE            1460.00
BIG LIME              4628.00
ORISKANY              4805.00
PACKER SHELL          6662.00
ORDOV. SHALE          6971.00
TRENTON               8612.00
BLACK RIVER           8880.00
GULL RIVER            9438.00
GLENWOOD SHALE        9500.00
BEEKMANTOWN           9654.00
ROSE RUN SD.         10168.00
~CURVE INFORMATION 
#MNEM.UNIT     API CODE               CURVE DESCRIPTION
#------------------------------------------------------
DEPT.F                                 : 1 DEPTH
DT  .usec/ft                        : 2 SONIC
RHOB.gm/cc                          : 3 DENSITY
GR  .API UNITS                      : 4 GAMMA RAY
~PARAMETER INFORMATION 
#MNEM.UNIT     VALUE                  DESCRIPTION
#------------------------------------------------
EKB.F        1126.900                 : ELEVATION KB
~A   DEPTH           DT        RHOB          GR
# ...
  239.0000      81.2500   -999.2500     89.9531
  240.0000      82.7500   -999.2500     88.5469
  241.0000      86.0938   -999.2500     89.1875
  242.0000      88.5625   -999.2500     91.7969
  243.0000      93.6094   -999.2500     94.0000
  244.0000      96.4062   -999.2500     97.0469
  245.0000      97.4062   -999.2500     98.6094
  246.0000      96.7969   -999.2500     96.5000
  247.0000      95.5312   -999.2500     94.8281
  248.0000      94.3750   -999.2500     93.9062
  249.0000      95.0938   -999.2500     92.4062
  250.0000      95.4688   -999.2500     91.0781
  251.0000      94.6250   -999.2500     90.5312
  252.0000      94.5000   -999.2500     92.8906
  253.0000      96.7656   -999.2500     93.8281
  254.0000     101.5625   -999.2500     94.3125
  255.0000     101.8438   -999.2500     94.5000
  256.0000     101.1719   -999.2500     95.0156
  257.0000     107.3281   -999.2500     95.8281
  258.0000     114.0000   -999.2500     95.0156
  259.0000     116.8750   -999.2500     88.4531
  260.0000     125.2344   -999.2500     63.6875
  261.0000     118.0781   -999.2500     41.3750
  262.0000     108.9375   -999.2500     45.0938
  263.0000     103.0781   -999.2500     58.3281
  264.0000      97.4375   -999.2500     76.1719
  265.0000      95.5312   -999.2500     83.7656
  266.0000      93.6719   -999.2500     83.8906
  267.0000      95.4844   -999.2500     85.2188
  268.0000      95.5000   -999.2500     85.8438
  269.0000      91.2031   -999.2500     84.4688
  270.0000      89.5781   -999.2500     83.5156
  271.0000      85.7031   -999.2500     84.2188
  272.0000      80.6406   -999.2500     86.3750
  273.0000      79.7188   -999.2500     88.9531
  274.0000      87.1250   -999.2500     89.0156
  275.0000      85.1250   -999.2500     88.2031
  276.0000      85.6875   -999.2500     89.8438
  277.0000      85.1406   -999.2500     91.9844
  278.0000      82.4531   -999.2500     95.0469
  279.0000      87.5469   -999.2500     98.6875
  280.0000      86.8438   -999.2500     95.5469
  281.0000      81.3438   -999.2500     92.7188
  282.0000      80.4062   -999.2500     92.7344
  283.0000      82.7969   -999.2500     92.3906
  284.0000      82.6719   -999.2500     95.1562
  285.0000      84.4531   -999.2500     94.7969
  286.0000      85.5469   -999.2500     95.5469
  287.0000      83.5781   -999.2500     99.3594
  288.0000      82.7500   -999.2500     98.1094
  289.0000      84.7344   -999.2500     92.4531
  290.0000      86.7188   -999.2500     78.9062
  291.0000      89.6250   -999.2500     55.6719
  292.0000      94.1719   -999.2500     47.0156
  293.0000      97.7812   -999.2500     43.1719
  294.0000      99.9531   -999.2500     38.1875
  295.0000      95.4219   -999.2500     22.5156
  296.0000      91.6406   -999.2500     16.4062
  297.0000      94.6875   -999.2500     14.9375
  298.0000      95.7344   -999.2500     15.7031
  299.0000      95.4062   -999.2500     16.7031
  300.0000      98.5312   -999.2500     15.3594
  301.0000      99.3594   -999.2500     14.6406
  302.0000     100.0625   -999.2500     15.0469
  303.0000     101.2500   -999.2500     16.3438
  304.0000      96.4375   -999.2500     18.9219
  305.0000      91.6250   -999.2500     23.9375
  306.0000      86.5781   -999.2500     26.7656
  307.0000      88.1875   -999.2500     29.9375
  308.0000      84.4062   -999.2500     32.5938
  309.0000      79.7969   -999.2500     34.2812
  310.0000      83.8438   -999.2500     36.0156
  311.0000      90.9375   -999.2500     36.9531
  312.0000      93.3281   -999.2500     36.2812
  313.0000      93.7969   -999.2500     35.2188
  314.0000      94.6719   -999.2500     34.5312
  315.0000      95.0469   -999.2500     32.2812
  316.0000      94.7500   -999.2500     29.1406
  317.0000      94.9844   -999.2500     27.6094
  318.0000      98.5156   -999.2500     25.6719
  319.0000      99.5469   -999.2500     22.7031
  320.0000      99.2500   -999.2500     20.8906
  321.0000      98.2969   -999.2500     20.3281
  322.0000      98.9375   -999.2500     19.1406
  323.0000      99.2500   -999.2500     17.4688
  324.0000      99.8438   -999.2500     17.5000
  325.0000     101.1719   -999.2500     17.8594
  326.0000     101.5156   -999.2500     18.2500
  327.0000     101.1719   -999.2500     19.0312
  328.0000     100.8125   -999.2500     19.6719
  329.0000      97.7656   -999.2500     20.9844
  330.0000      86.4844   -999.2500     24.8281
  331.0000      82.1250   -999.2500     37.9219
  332.0000      80.7031   -999.2500     74.1250
  333.0000      85.6719   -999.2500     97.9844
  334.0000      86.3906   -999.2500     95.8281
  335.0000      85.3750   -999.2500     97.2812
  336.0000      88.1250   -999.2500     97.4062
  337.0000      88.5000   -999.2500     98.7656
  338.0000      89.2969   -999.2500     97.7656
  339.0000      90.1562   -999.2500    102.0156
  340.0000      92.4844   -999.2500    111.0938
  341.0000     104.6250   -999.2500    111.1406
  342.0000     101.5625   -999.2500    107.3438
  343.0000      95.5781   -999.2500    104.3125
  344.0000      88.7812   -999.2500    101.9375
  345.0000      87.0000   -999.2500    102.7344
  346.0000      88.4219   -999.2500    104.3906
  347.0000      84.3750   -999.2500    108.2969
  348.0000      79.5000   -999.2500    111.2969
  349.0000      76.4688   -999.2500    107.4531
  350.0000      75.5000   -999.2500    101.7500
  351.0000      75.5156   -999.2500     97.0156
  352.0000      75.9531   -999.2500     97.2969
  353.0000      76.6250   -999.2500     97.9062
  354.0000      77.5000   -999.2500     98.0469
  355.0000      78.5000   -999.2500     93.4375
  356.0000      78.7031   -999.2500     92.4375
  357.0000      78.0469   -999.2500     93.1875
  358.0000      77.0625   -999.2500     93.7188
  359.0000      76.1719   -999.2500     94.0000
  360.0000      74.9219   -999.2500     87.4531
  361.0000      72.8594   -999.2500     82.1562
  362.0000      69.7344   -999.2500     77.6875
  363.0000      69.6094   -999.2500     78.9531
  364.0000      71.0312   -999.2500     85.4531
  365.0000      72.1406   -999.2500     90.2812
  366.0000      73.7188   -999.2500     92.5625
  367.0000      83.4688   -999.2500     94.1406
  368.0000      90.5625   -999.2500     85.2656
  369.0000      71.0312   -999.2500     69.1250
  370.0000      65.8906   -999.2500     54.0000
  371.0000      73.2500   -999.2500     56.5156
  372.0000      73.8438   -999.2500     71.3906
  373.0000      72.7344   -999.2500     90.1719
  374.0000      90.1719   -999.2500    102.3906
  375.0000      95.7344   -999.2500    107.4219
  376.0000      92.2656   -999.2500    106.2812
  377.0000      88.9375   -999.2500    105.3750
  378.0000      83.6719   -999.2500     97.2031
  379.0000      78.8125   -999.2500     90.5781
  380.0000      75.3906   -999.2500     87.7500
  381.0000      80.5000   -999.2500     89.0312
  382.0000      82.4844   -999.2500     91.2969
  383.0000      82.6562   -999.2500     88.4219
  384.0000      67.5000   -999.2500     77.9219
  385.0000      65.0938   -999.2500     68.6875
  386.0000      66.1562   -999.2500     75.6875
  387.0000      78.0938   -999.2500     93.6875
  388.0000      82.0156   -999.2500    108.8125
  389.0000      76.5938   -999.2500    114.4531
  390.0000      79.4219   -999.2500    115.8125
  391.0000      80.5938   -999.2500    114.9844
  392.0000      80.9531   -999.2500    113.5000
  393.0000      78.7188   -999.2500    112.0625
  394.0000      77.0781   -999.2500    111.9375
  395.0000      78.1719   -999.2500    112.6250
  396.0000      78.7500   -999.2500    107.8125
  397.0000      78.7969   -999.2500    107.7656
  398.0000      79.3438   -999.2500    111.0000
  399.0000      84.8594   -999.2500    113.2656
  400.0000      87.4062   -999.2500    114.6406
  401.0000      86.1406   -999.2500    106.7188
  402.0000      78.6875   -999.2500    103.8438
  403.0000      75.2656   -999.2500    104.9844
  404.0000      72.9062   -999.2500    104.4219
  405.0000      72.8438   -999.2500    100.6719
