~Version Information Block
 VERS.                2.00:     CWLS LOG ASCII STANDARD - VERSION 2.000000
 WRAP.                  NO:     One Line Per Depth Step
#
~Well Information Block
#MNEM.UNIT                     Data                         Information
#----------   ------------------------------------------   ----------------
 STRT.FT                                      100.0000:
 STOP.FT                                     3900.0000:
 STEP.FT                                        0.5000:
 NULL.                                       -999.2500:
 COMP.                                                :     COMPANY
 WELL.                                                :     WELL
 FLD .                                                :     FIELD
 CNTY.                                                :     COUNTY
 STAT.                                                :     STATE
 CTRY.                                                :     COUNTRY
 SRVC.                                                :     SERVICE COMPANY
 DATE.                                                :     DATE
 API .                                                :     API NUMBER
 UWI .                                                :     UWI NUMBER
#
~Curve Information Block
#MNEM.UNIT       API CODE      Curve Description
#----------    -------------   -------------------
 DEPT.FT                   :   Depth in Feet
 GR  .GAPI                 :   Gamma Ray
 NEUT.GAPI                 :   Neutrons
#
~A  DEPTH         GR       NEUT  
# ...
  3522.000    148.506   1196.450 
  3522.500    147.345   1233.154 
  3523.000    147.461   1273.990 
  3523.500    147.958   1297.131 
  3524.000    147.754   1286.771 
  3524.500    146.640   1249.501 
  3525.000    145.140   1205.820 
  3525.500    143.856   1168.993 
  3526.000    143.092   1137.426 
  3526.500    142.843   1112.552 
  3527.000    142.797   1113.157 
  3527.500    142.674   1156.715 
  3528.000    142.423   1230.153 
  3528.500    142.216   1302.370 
  3529.000    141.975   1357.134 
  3529.500    141.642   1397.235 
  3530.000    141.783   1421.130 
  3530.500    143.150   1419.587 
  3531.000    145.146   1391.970 
  3531.500    146.219   1345.957 
  3532.000    146.145   1290.486 
  3532.500    145.821   1245.459 
  3533.000    144.107   1242.661 
  3533.500    137.745   1299.961 
  3534.000    126.193   1408.049 
  3534.500    113.701   1546.983 
  3535.000    103.924   1692.238 
  3535.500     94.798   1806.802 
  3536.000     82.275   1865.884 
  3536.500     67.219   1883.219 
  3537.000     55.365   1877.368 
  3537.500     50.759   1832.473 
  3538.000     52.131   1734.453 
  3538.500     55.430   1612.760 
  3539.000     57.658   1501.697 
  3539.500     59.040   1401.110 
  3540.000     62.132   1318.870 
  3540.500     66.186   1281.917 
  3541.000     72.549   1365.008 
  3541.500     75.622   1432.512 
  3542.000     76.045   1441.547 
  3542.500     87.264   1460.517 
  3543.000    108.219   1514.981 
  3543.500    120.251   1598.129 
  3544.000    121.200   1702.881 
  3544.500    124.116   1782.782 
  3545.000    127.633   1794.951 
  3545.500    127.386   1753.675 
  3546.000    134.413   1689.507 
  3546.500    151.529   1627.409 
  3547.000    162.903   1590.686 
  3547.500    162.927   1572.328 
  3548.000    162.579   1548.224 
  3548.500    164.238   1517.151 
  3549.000    166.957   1476.782 
  3549.500    170.731   1452.771 
  3550.000    175.083   1464.641 
  3550.500    179.029   1501.831 
  3551.000    180.806   1529.966 
  3551.500    179.589   1524.488 
  3552.000    175.664   1491.726 
  3552.500    169.551   1457.827 
  3553.000    163.142   1449.836 
  3553.500    159.869   1485.642 
  3554.000    161.602   1561.244 
  3554.500    166.359   1640.969 
  3555.000    170.297   1681.862 
  3555.500    171.356   1678.895 
  3556.000    170.476   1666.901 
  3556.500    169.647   1667.119 
  3557.000    170.896   1661.162 
  3557.500    172.393   1638.587 
  3558.000    172.658   1639.159 
  3558.500    172.959   1708.955 
  3559.000    173.610   1827.449 
  3559.500    172.647   1923.494 
  3560.000    170.777   1959.519 
  3560.500    169.776   1959.796 
  3561.000    166.982   1949.913 
  3561.500    166.543   1911.208 
  3562.000    179.939   1818.101 
  3562.500    193.409   1694.023 
  3563.000    174.285   1601.935 
  3563.500    129.474   1587.519 
  3564.000     98.330   1649.853 
  3564.500     85.582   1760.135 
  3565.000     69.953   1887.075 
  3565.500     56.490   2003.289 
  3566.000     57.330   2085.411 
  3566.500     59.889   2120.259 
  3567.000     54.234   2110.160 
  3567.500     49.186   2070.864 
  3568.000     48.552   2025.390 
  3568.500     46.884   1995.789 
  3569.000     44.419   1995.639 
  3569.500     44.489   2028.396 
  3570.000     44.603   2090.883 
  3570.500     40.332   2173.949 
  3571.000     34.009   2256.930 
  3571.500     31.539   2307.618 
  3572.000     31.276   2314.099 
  3572.500     32.393   2290.096 
  3573.000     33.905   2276.515 
  3573.500     36.071   2307.941 
  3574.000     38.809   2369.623 
  3574.500     41.128   2408.933 
  3575.000     41.855   2401.586 
  3575.500     41.061   2374.394 
  3576.000     41.538   2349.910 
  3576.500     46.795   2322.287 
  3577.000     55.299   2295.381 
  3577.500     60.332   2277.436 
  3578.000     59.575   2254.080 
  3578.500     59.541   2234.491 
  3579.000     63.985   2263.833 
  3579.500     64.272   2332.981 
  3580.000     50.879   2382.468 
  3580.500     29.873   2394.263 
  3581.000     16.647   2388.834 
  3581.500     15.992   2393.712 
  3582.000     19.133   2406.801 
  3582.500     18.843   2410.229 
  3583.000     16.973   2402.153 
  3583.500     16.984   2396.491 
  3584.000     18.145   2394.947 
  3584.500     18.803   2369.763 
  3585.000     19.268   2286.693 
  3585.500     20.002   2155.024 
  3586.000     20.745   2043.549 
  3586.500     21.567   2020.560 
  3587.000     22.688   2080.274 
  3587.500     23.669   2157.939 
  3588.000     24.050   2211.888 
  3588.500     23.931   2248.581 
  3589.000     23.602   2271.478 
  3589.500     23.030   2265.075 
  3590.000     22.378   2243.346 
  3590.500     21.938   2255.830 
  3591.000     21.789   2321.187 
  3591.500     22.281   2396.395 
  3592.000     24.226   2432.951 
  3592.500     27.813   2427.235 
  3593.000     31.914   2402.034 
  3593.500     35.367   2370.886 
  3594.000     38.162   2333.004 
  3594.500     40.339   2283.152 
  3595.000     40.799   2216.467 
  3595.500     38.870   2134.775 
  3596.000     35.970   2049.732 
  3596.500     33.784   1972.312 
  3597.000     31.505   1897.435 
  3597.500     27.317   1805.120 
  3598.000     22.575   1679.020 
  3598.500     21.416   1530.823 
  3599.000     25.346   1407.779 
  3599.500     30.909   1363.191 
  3600.000     34.479   1406.591 
  3600.500     36.689   1490.457 
  3601.000     39.792   1564.046 
  3601.500     43.239   1627.103 
  3602.000     44.744   1702.016 
  3602.500     43.528   1773.859 
  3603.000     40.353   1822.800 
  3603.500     36.631   1795.787 
  3604.000     35.040   1824.970 
  3604.500     38.041   1959.562 
  3605.000     44.132   2051.515 
  3605.500     48.603   2081.187 
  3606.000     49.195   2143.632 
  3606.500     47.892   2181.428 
  3607.000     46.649   2160.785 
  3607.500     45.113   2156.153 
  3608.000     42.896   2125.748 
  3608.500     40.448   2044.026 
  3609.000     37.430   1984.239 
  3609.500     33.377   1870.439 
  3610.000     29.972   1686.931 
  3610.500     29.713   1667.133 
  3611.000     32.416   1747.576 
  3611.500     35.516   1876.713 
  3612.000     37.885   1981.488 
  3612.500     41.114   2050.460 
  3613.000     46.510   2102.484 
  3613.500     52.110   2138.820 
  3614.000     54.857   2146.496 
  3614.500     55.058   2124.119 
  3615.000     56.427   2084.004 
  3615.500     60.849   2038.940 
  3616.000     66.113   2000.399 
  3616.500     69.969   1982.710 
  3617.000     72.505   1996.817 
  3617.500     73.379   2036.663 
  3618.000     71.755   2079.297 
  3618.500     69.751   2105.488 
  3619.000     69.581   2114.879 
  3619.500     67.181   2119.962 
  3620.000     56.739   2129.530 
  3620.500     42.048   2137.559 
  3621.000     34.145   2130.358 
  3621.500     36.340   2107.680 
  3622.000     40.661   2092.529 
  3622.500     40.765   2107.919 
  3623.000     39.550   2147.586 
  3623.500     41.395   2184.777 
  3624.000     44.473   2206.276 
  3624.500     44.692   2219.714 
  3625.000     42.163   2229.722 
  3625.500     40.339   2229.653 
  3626.000     41.184   2218.140 
  3626.500     43.685   2203.681 
  3627.000     45.890   2190.882 
  3627.500     46.717   2178.439 
  3628.000     46.823   2171.331 
  3628.500     47.724   2175.822 
  3629.000     49.563   2183.214 
  3629.500     49.748   2177.092 
  3630.000     47.119   2157.162 
  3630.500     46.157   2139.363 
  3631.000     52.877   2132.316 
  3631.500     66.160   2130.275 
  3632.000     77.201   2128.196 
  3632.500     79.549   2122.874 
  3633.000     77.297   2099.627 
  3633.500     79.660   2040.271 
  3634.000     87.165   1951.818 
  3634.500     88.044   1871.395 
  3635.000     72.923   1834.798 
  3635.500     49.413   1848.296 
  3636.000     34.377   1893.077 
  3636.500     33.351   1946.407 
  3637.000     36.669   1994.071 
  3637.500     35.714   2028.876 
  3638.000     32.617   2045.721 
  3638.500     31.835   2042.683 
  3639.000     31.904   2025.651 
  3639.500     29.686   2007.608 
