~Version Information Block
 VERS.                2.00:     CWLS LOG ASCII STANDARD - VERSION 2.000000
 WRAP.                  NO:     One Line Per Depth Step
#
~Well Information Block
#MNEM.UNIT                     Data                         Information
#----------   ------------------------------------------   ----------------
 STRT.FT                                      100.0000:
 STOP.FT                                     3900.0000:
 STEP.FT                                        0.5000:
 NULL.                                       -999.2500:
 COMP.                                                :     COMPANY
 WELL.                                                :     WELL
 FLD .                                                :     FIELD
 CNTY.                                                :     COUNTY
 STAT.                                                :     STATE
 CTRY.                                                :     COUNTRY
 SRVC.                                                :     SERVICE COMPANY
 DATE.                                                :     DATE
 API .                                                :     API NUMBER
 UWI .                                                :     UWI NUMBER
#
~Curve Information Block
#MNEM.UNIT       API CODE      Curve Description
#----------    -------------   -------------------
 DEPT.FT                   :   Depth in Feet
 GR  .GAPI                 :   Gamma Ray
 NEUT.GAPI                 :   Neutrons
#
~A  DEPTH         GR       NEUT  
# ...
   808.000     27.732   1654.920 
   808.500     26.905   1327.806 
   809.000     27.130   1326.339 
   809.500     27.997   1322.235 
   810.000     28.004   1337.398 
   810.500     27.378   1429.134 
   811.000     27.030   1489.408 
   811.500     26.625   1544.452 
   812.000     25.900   1633.630 
   812.500     26.383   1668.892 
   813.000     29.766   1582.068 
   813.500     35.251   1462.412 
   814.000     39.937   1423.422 
   814.500     41.912   1410.953 
   815.000     42.685   1359.924 
   815.500     45.162   1318.724 
   816.000     48.728   1325.778 
   816.500     48.202   1382.804 
   817.000     40.736   1464.603 
   817.500     31.660   1487.921 
   818.000     28.647   1456.101 
   818.500     31.587   1501.245 
   819.000     34.409   1627.939 
   819.500     35.299   1777.521 
   820.000     36.998   2028.328 
   820.500     37.805   2307.102 
   821.000     31.965   2481.516 
   821.500     20.374   2623.769 
   822.000     12.022   2678.929 
   822.500     12.346   2672.771 
   823.000     17.281   2740.546 
   823.500     21.005   2537.536 
   824.000     23.349   2012.952 
   824.500     26.956   1751.774 
   825.000     31.921   1736.974 
   825.500     36.181   1630.097 
   826.000     38.880   1564.459 
   826.500     40.798   1559.993 
   827.000     42.951   1507.375 
   827.500     45.488   1468.852 
   828.000     47.707   1399.716 
   828.500     48.862   1293.224 
   829.000     49.345   1268.159 
   829.500     50.522   1289.201 
   830.000     52.503   1280.610 
   830.500     53.220   1266.956 
   831.000     52.109   1256.416 
   831.500     52.380   1255.257 
   832.000     55.567   1319.303 
   832.500     56.120   1428.587 
   833.000     47.634   1499.271 
   833.500     33.479   1578.413 
   834.000     24.310   1724.583 
   834.500     24.630   1812.348 
   835.000     28.420   1780.556 
   835.500     28.935   1731.999 
   836.000     26.908   1667.106 
   836.500     26.854   1584.579 
   837.000     29.690   1534.470 
   837.500     32.415   1527.411 
   838.000     33.624   1483.774 
   838.500     36.055   1365.993 
   839.000     42.581   1224.938 
   839.500     51.793   1108.911 
   840.000     59.691   1033.685 
   840.500     64.422   1002.722 
   841.000     66.803   1006.819 
   841.500     67.206   1047.867 
   842.000     65.010   1151.331 
   842.500     60.426   1305.570 
   843.000     54.947   1436.890 
   843.500     50.079   1536.236 
   844.000     46.601   1632.476 
   844.500     44.758   1760.048 
   845.000     44.794   1749.236 
   845.500     47.404   1476.311 
   846.000     52.962   1230.075 
   846.500     59.961   1185.841 
   847.000     65.595   1157.070 
   847.500     68.261   1095.618 
   848.000     68.472   1077.064 
   848.500     68.047   1038.526 
   849.000     69.505    972.872 
   849.500     74.528    962.942 
   850.000     80.948   1025.211 
   850.500     82.528   1154.411 
   851.000     74.548   1295.975 
   851.500     59.488   1412.591 
   852.000     45.312   1529.605 
   852.500     37.827   1686.000 
   853.000     35.924   1762.405 
   853.500     34.949   1919.349 
   854.000     33.264   2189.767 
   854.500     32.701   2206.607 
   855.000     32.910   2205.515 
   855.500     30.834   2040.243 
   856.000     28.298   1422.226 
   856.500     33.790   1110.676 
   857.000     51.283   1124.944 
   857.500     72.189   1021.623 
   858.000     84.643    953.072 
   858.500     87.103    925.918 
   859.000     87.010    932.540 
   859.500     89.738    918.597 
   860.000     94.581    935.339 
   860.500     99.171    949.172 
   861.000    102.448    953.255 
   861.500    104.100    971.999 
   862.000    104.277    984.277 
   862.500    103.543    970.685 
   863.000    102.296    964.724 
   863.500    100.962    987.122 
   864.000     99.914   1030.091 
   864.500     97.861   1092.226 
   865.000     91.881   1154.334 
   865.500     81.101   1190.250 
   866.000     69.318   1204.728 
   866.500     61.879   1207.326 
   867.000     60.321   1219.631 
   867.500     61.329   1253.296 
   868.000     60.960   1279.772 
   868.500     58.877   1266.069 
   869.000     57.129   1205.200 
   869.500     55.608   1121.539 
   870.000     52.544   1045.210 
   870.500     50.578    991.175 
   871.000     56.677    965.188 
   871.500     72.036    975.818 
   872.000     87.228   1021.476 
   872.500     92.797   1075.375 
   873.000     90.305   1105.920 
   873.500     87.535   1109.448 
   874.000     87.197   1104.073 
   874.500     86.465   1096.388 
   875.000     84.131   1075.580 
   875.500     81.916   1039.043 
   876.000     80.383   1007.084 
   876.500     78.620   1008.420 
   877.000     76.898   1057.154 
   877.500     75.784   1138.963 
   878.000     73.487   1220.446 
   878.500     67.697   1277.778 
   879.000     59.886   1315.344 
   879.500     54.570   1349.056 
   880.000     53.870   1376.228 
   880.500     55.862   1376.062 
   881.000     58.638   1341.726 
   881.500     62.306   1301.922 
   882.000     65.835   1298.938 
   882.500     65.549   1349.246 
   883.000     59.215   1429.897 
   883.500     49.428   1514.782 
   884.000     40.842   1628.776 
   884.500     35.481   1777.261 
   885.000     32.276   1925.934 
   885.500     29.824   2013.128 
   886.000     28.027   1967.113 
   886.500     27.599   1803.510 
   887.000     28.908   1652.309 
   887.500     31.171   1611.643 
   888.000     32.857   1667.617 
   888.500     33.668   1743.118 
   889.000     35.333   1723.739 
   889.500     38.710   1552.479 
   890.000     41.606   1343.485 
   890.500     42.745   1268.112 
   891.000     46.324   1238.281 
   891.500     57.645   1111.590 
   892.000     74.407    974.622 
   892.500     87.669    923.314 
   893.000     92.324    904.218 
   893.500     91.925    876.079 
   894.000     92.303    833.750 
   894.500     94.667    764.929 
   895.000     96.191    705.217 
   895.500     95.385    685.774 
   896.000     95.033    723.395 
   896.500     98.413    855.735 
   897.000    102.051   1043.469 
   897.500     96.705   1183.646 
   898.000     79.965   1277.739 
   898.500     62.810   1419.088 
   899.000     56.650   1535.476 
   899.500     59.041   1405.014 
   900.000     60.615   1085.829 
   900.500     61.203    871.605 
   901.000     67.905    824.964 
   901.500     80.368    798.492 
   902.000     89.397    728.171 
   902.500     90.427    709.628 
   903.000     88.569    807.233 
   903.500     88.337    944.012 
   904.000     87.023   1106.728 
   904.500     82.201   1277.565 
   905.000     77.856   1378.602 
   905.500     75.342   1509.176 
   906.000     74.010   1764.813 
   906.500     60.792   1764.288 
   907.000     40.841   1687.884 
   907.500     33.129   1640.009 
   908.000     37.947   1504.900 
   908.500     41.178   1429.068 
   909.000     40.861   1426.715 
   909.500     42.665   1484.830 
   910.000     46.021   1547.189 
   910.500     48.961   1580.811 
   911.000     50.228   1656.034 
   911.500     46.505   1688.648 
   912.000     38.057   1808.020 
   912.500     30.014   2061.953 
   913.000     25.129   2143.397 
   913.500     22.678   2137.198 
   914.000     22.150   2130.527 
   914.500     22.088   2115.615 
   915.000     22.130   2047.724 
   915.500     22.225   2007.348 
   916.000     22.136   2053.567 
   916.500     21.957   2095.461 
   917.000     22.225   2081.228 
   917.500     23.192   2092.996 
   918.000     24.487   2114.791 
   918.500     25.889   1986.259 
   919.000     27.830   1709.349 
   919.500     30.633   1496.570 
   920.000     33.728   1437.429 
   920.500     36.692   1414.448 
   921.000     39.903   1336.172 
   921.500     43.610   1261.044 
   922.000     46.936   1155.951 
   922.500     49.300   1091.735 
   923.000     51.829   1059.875 
   923.500     55.185   1046.531 
   924.000     57.291   1124.005 
   924.500     56.499   1232.450 
   925.000     55.224   1296.987 
   925.500     55.525   1466.995 
