~Version Information Block
 VERS.                2.00:     CWLS LOG ASCII STANDARD - VERSION 2.000000
 WRAP.                  NO:     One Line Per Depth Step
#
~Well Information Block
#MNEM.UNIT                     Data                         Information
#----------   ------------------------------------------   ----------------
 STRT.FT                                      100.0000:
 STOP.FT                                     3900.0000:
 STEP.FT                                        0.5000:
 NULL.                                       -999.2500:
 COMP.                                                :     COMPANY
 WELL.                                                :     WELL
 FLD .                                                :     FIELD
 CNTY.                                                :     COUNTY
 STAT.                                                :     STATE
 CTRY.                                                :     COUNTRY
 SRVC.                                                :     SERVICE COMPANY
 DATE.                                                :     DATE
 API .                                                :     API NUMBER
 UWI .                                                :     UWI NUMBER
#
~Curve Information Block
#MNEM.UNIT       API CODE      Curve Description
#----------    -------------   -------------------
 DEPT.FT                   :   Depth in Feet
 GR  .GAPI                 :   Gamma Ray
 NEUT.GAPI                 :   Neutrons
#
~A  DEPTH         GR       NEUT  
# ...
   572.000     22.834    656.303 
   572.500     23.828    663.813 
   573.000     23.843    703.838 
   573.500     23.743    750.339 
   574.000     25.017    783.901 
   574.500     27.624    804.106 
   575.000     29.898    818.140 
   575.500     30.624    825.719 
   576.000     30.403    820.346 
   576.500     30.588    801.174 
   577.000     31.472    779.460 
   577.500     32.169    773.758 
   578.000     32.184    794.686 
   578.500     32.256    831.445 
   579.000     33.120    856.790 
   579.500     34.027    852.216 
   580.000     33.550    827.171 
   580.500     31.640    808.198 
   581.000     29.750    808.215 
   581.500     28.882    812.381 
   582.000     28.699    796.817 
   582.500     28.785    758.442 
   583.000     29.448    718.628 
   583.500     30.729    697.284 
   584.000     31.687    692.150 
   584.500     31.450    690.331 
   585.000     30.211    689.733 
   585.500     28.581    693.516 
   586.000     26.715    693.648 
   586.500     24.722    684.923 
   587.000     23.355    691.867 
   587.500     23.451    751.110 
   588.000     24.832    865.378 
   588.500     26.368   1005.026 
   589.000     27.140   1149.763 
   589.500     27.209   1292.521 
   590.000     27.292   1405.520 
   590.500     27.792   1446.674 
   591.000     28.178   1409.626 
   591.500     27.485   1336.980 
   592.000     25.697   1273.682 
   592.500     24.292   1229.542 
   593.000     24.765   1192.233 
   593.500     26.859   1157.785 
   594.000     28.910   1139.818 
   594.500     29.802   1155.667 
   595.000     29.966   1212.343 
   595.500     30.391   1299.124 
   596.000     31.229   1379.856 
   596.500     31.643   1448.513 
   597.000     30.972   1485.328 
   597.500     29.761   1496.037 
   598.000     29.068   1525.818 
   598.500     28.926   1589.283 
   599.000     28.623   1635.281 
   599.500     28.709   1670.270 
   600.000     30.993   1775.823 
   600.500     35.619   1877.658 
   601.000     39.887   1793.421 
   601.500     41.266   1595.286 
   602.000     40.306   1483.508 
   602.500     39.180   1374.760 
   603.000     38.600   1128.306 
   603.500     37.721    910.714 
   604.000     36.234    879.277 
   604.500     34.986    903.939 
   605.000     34.650    871.251 
   605.500     34.841    846.586 
   606.000     34.823    867.886 
   606.500     34.607    903.206 
   607.000     34.952    950.371 
   607.500     36.299   1009.000 
   608.000     38.082   1051.069 
   608.500     39.249   1071.892 
   609.000     39.156   1101.095 
   609.500     37.836   1147.493 
   610.000     35.912   1166.789 
   610.500     34.405   1117.817 
   611.000     34.005   1041.623 
   611.500     34.204    992.335 
   612.000     33.691    985.843 
   612.500     31.959    999.376 
   613.000     29.785   1012.998 
   613.500     28.249   1025.834 
   614.000     27.811   1036.306 
   614.500     28.392   1035.391 
   615.000     29.411   1022.320 
   615.500     29.866   1010.090 
   616.000     29.560   1010.055 
   616.500     29.727   1018.897 
   617.000     30.924   1022.076 
   617.500     31.501   1010.976 
   618.000     30.862    997.844 
   618.500     32.739   1005.244 
   619.000     40.978   1032.847 
   619.500     52.831   1048.255 
   620.000     61.252   1022.329 
   620.500     63.737    962.003 
   621.000     64.148    895.837 
   621.500     65.716    841.298 
   622.000     67.332    801.404 
   622.500     67.618    779.418 
   623.000     67.729    777.868 
   623.500     68.758    789.086 
   624.000     70.157    800.303 
   624.500     71.998    806.610 
   625.000     76.273    809.971 
   625.500     84.331    810.685 
   626.000     93.620    808.001 
   626.500     97.255    807.410 
   627.000     93.398    820.101 
   627.500     80.542    852.073 
   628.000     67.081    894.497 
   628.500     62.230    926.723 
   629.000     61.211    935.552 
   629.500     55.444    935.610 
   630.000     47.786    957.755 
   630.500     43.127   1002.495 
   631.000     41.608   1020.941 
   631.500     48.338    971.563 
   632.000     66.740    882.303 
   632.500     84.566    818.719 
   633.000     89.397    801.623 
   633.500     86.928    800.721 
   634.000     86.817    800.643 
   634.500     87.249    817.128 
   635.000     88.074    847.096 
   635.500     87.443    857.753 
   636.000     87.084    836.126 
   636.500     87.825    807.378 
   637.000     88.055    793.533 
   637.500     86.916    790.053 
   638.000     85.429    789.907 
   638.500     83.334    801.719 
   639.000     77.894    835.700 
   639.500     68.074    889.438 
   640.000     57.808    951.209 
   640.500     52.378   1009.337 
   641.000     52.895   1056.803 
   641.500     56.501   1088.522 
   642.000     60.411   1093.877 
   642.500     63.466   1059.236 
   643.000     64.956    987.747 
   643.500     64.361    907.950 
   644.000     62.140    851.095 
   644.500     59.522    825.941 
   645.000     57.583    820.558 
   645.500     56.564    816.731 
   646.000     55.594    802.508 
   646.500     53.432    776.054 
   647.000     50.177    738.515 
   647.500     46.843    684.544 
   648.000     43.256    609.335 
   648.500     38.128    528.811 
   649.000     31.714    469.836 
   649.500     25.903    446.704 
   650.000     21.273    476.087 
   650.500     17.266    524.168 
   651.000     14.814    642.388 
   651.500     14.502    786.711 
   652.000     13.483    915.431 
   652.500     10.236   1100.443 
   653.000     10.549   1353.299 
   653.500     20.823   1503.069 
   654.000     36.616   1420.813 
   654.500     46.549   1193.759 
   655.000     47.129    984.352 
   655.500     45.234    875.326 
   656.000     46.352    866.249 
   656.500     48.748    919.415 
   657.000     49.484    995.869 
   657.500     48.842   1061.345 
   658.000     47.797   1061.345 
   658.500     46.183   1036.134 
   659.000     43.989   1002.521 
   659.500     41.388   1002.521 
   660.000     37.874   1061.345 
   660.500     33.204   1061.345 
   661.000     28.123   1052.941 
   661.500     23.272   1162.185 
   662.000     18.793   1212.605 
   662.500     15.273   1800.840 
   663.000     13.913   2044.538 
   663.500     15.020   2204.202 
   664.000     17.645   2296.639 
   664.500     20.735   2380.672 
   665.000     23.747   2498.319 
   665.500     26.281   2548.329 
   666.000     28.111   2535.664 
   666.500     29.508   2392.269 
   667.000     30.849   2192.459 
   667.500     32.042   2037.885 
   668.000     32.823   1789.176 
   668.500     33.351   1682.446 
   669.000     33.928   1604.984 
   669.500     34.464   1334.738 
   670.000     34.660   1341.644 
   670.500     34.273   1470.882 
   671.000     32.931   1428.543 
   671.500     30.366   1600.854 
   672.000     27.471   1963.503 
   672.500     26.088   2221.727 
   673.000     26.555   2210.119 
   673.500     26.759   2034.212 
   674.000     25.620   1947.378 
   674.500     26.080   1847.271 
   675.000     31.711   1765.027 
   675.500     40.901   1749.992 
   676.000     48.295   1699.087 
   676.500     51.767   1689.962 
   677.000     53.528   1750.369 
   677.500     53.792   1856.693 
   678.000     48.976   1924.751 
   678.500     37.888   1993.505 
   679.000     25.333   2176.602 
   679.500     17.344   2327.480 
   680.000     15.964   2407.255 
   680.500     19.861   2465.441 
   681.000     26.602   2527.858 
   681.500     32.455   2666.356 
   682.000     33.684   2599.241 
   682.500     31.084   2370.168 
   683.000     31.053   2260.433 
   683.500     38.679   2043.126 
   684.000     50.563   1599.047 
   684.500     58.167   1325.184 
   685.000     58.409   1255.846 
   685.500     56.569   1209.835 
   686.000     57.000   1276.369 
   686.500     55.984   1405.981 
   687.000     48.232   1484.134 
   687.500     36.377   1523.236 
   688.000     27.990   1570.974 
   688.500     25.539   1781.450 
   689.000     24.881   2250.285 
   689.500     22.720   2282.153 
