~Version Information Block
 VERS.                2.00:     CWLS LOG ASCII STANDARD - VERSION 2.000000
 WRAP.                  NO:     One Line Per Depth Step
#
~Well Information Block
#MNEM.UNIT                     Data                         Information
#----------   ------------------------------------------   ----------------
 STRT.FT                                      100.0000:
 STOP.FT                                     3900.0000:
 STEP.FT                                        0.5000:
 NULL.                                       -999.2500:
 COMP.                                                :     COMPANY
 WELL.                                                :     WELL
 FLD .                                                :     FIELD
 CNTY.                                                :     COUNTY
 STAT.                                                :     STATE
 CTRY.                                                :     COUNTRY
 SRVC.                                                :     SERVICE COMPANY
 DATE.                                                :     DATE
 API .                                                :     API NUMBER
 UWI .                                                :     UWI NUMBER
#
~Curve Information Block
#MNEM.UNIT       API CODE      Curve Description
#----------    -------------   -------------------
 DEPT.FT                   :   Depth in Feet
 GR  .GAPI                 :   Gamma Ray
 NEUT.GAPI                 :   Neutrons
#
~A  DEPTH         GR       NEUT  
# ...
  2578.000    140.766    770.132 
  2578.500    136.432    803.952 
  2579.000    130.382    828.416 
  2579.500    125.155    831.179 
  2580.000    121.185    823.668 
  2580.500    117.501    833.417 
  2581.000    114.681    871.805 
  2581.500    114.256    916.552 
  2582.000    115.855    932.437 
  2582.500    118.288    905.025 
  2583.000    122.855    848.259 
  2583.500    131.151    786.511 
  2584.000    140.240    738.492 
  2584.500    144.419    714.146 
  2585.000    142.318    714.467 
  2585.500    138.468    733.248 
  2586.000    137.160    765.302 
  2586.500    137.699    812.512 
  2587.000    136.852    870.501 
  2587.500    133.750    914.047 
  2588.000    130.398    913.534 
  2588.500    128.416    870.587 
  2589.000    127.697    820.284 
  2589.500    128.118    789.790 
  2590.000    129.424    774.947 
  2590.500    129.061    765.528 
  2591.000    123.632    769.920 
  2591.500    113.989    799.378 
  2592.000    105.313    847.930 
  2592.500    100.868    907.225 
  2593.000     99.068    983.209 
  2593.500     97.300   1077.642 
  2594.000     95.298   1163.628 
  2594.500     94.256   1199.776 
  2595.000     95.120   1169.656 
  2595.500     97.705   1097.210 
  2596.000    101.973   1025.305 
  2596.500    100.897    986.225 
  2597.000     93.229    988.071 
  2597.500     85.508   1017.942 
  2598.000     81.353   1053.143 
  2598.500     78.718   1076.809 
  2599.000     75.989   1089.958 
  2599.500     72.481   1105.690 
  2600.000     66.990   1131.896 
  2600.500     60.884   1164.367 
  2601.000     57.000   1197.321 
  2601.500     54.668   1230.606 
  2602.000     52.402   1263.982 
  2602.500     51.843   1298.702 
  2603.000     53.210   1345.678 
  2603.500     54.939   1415.628 
  2604.000     54.982   1493.286 
  2604.500     52.732   1538.242 
  2605.000     50.490   1522.754 
  2605.500     51.232   1458.498 
  2606.000     55.074   1380.880 
  2606.500     59.192   1315.269 
  2607.000     61.375   1263.862 
  2607.500     62.334   1216.080 
  2608.000     63.761   1166.654 
  2608.500     65.539   1126.017 
  2609.000     66.112   1113.789 
  2609.500     64.737   1139.477 
  2610.000     62.243   1190.565 
  2610.500     60.033   1243.242 
  2611.000     58.647   1296.309 
  2611.500     57.061   1344.639 
  2612.000     53.773   1393.706 
  2612.500     49.348   1425.436 
  2613.000     46.958   1389.829 
  2613.500     48.950   1286.391 
  2614.000     53.691   1178.420 
  2614.500     57.556   1108.048 
  2615.000     59.368   1082.212 
  2615.500     60.437   1101.579 
  2616.000     60.838   1150.211 
  2616.500     58.633   1215.312 
  2617.000     53.322   1312.190 
  2617.500     47.469   1437.554 
  2618.000     43.739   1542.879 
  2618.500     42.140   1578.024 
  2619.000     41.313   1515.223 
  2619.500     41.093   1395.920 
  2620.000     42.490   1296.841 
  2620.500     45.911   1267.181 
  2621.000     50.417   1294.805 
  2621.500     54.522   1334.699 
  2622.000     57.113   1358.588 
  2622.500     57.849   1364.897 
  2623.000     57.135   1353.159 
  2623.500     55.798   1315.408 
  2624.000     54.650   1261.085 
  2624.500     54.092   1228.595 
  2625.000     53.983   1249.820 
  2625.500     53.981   1310.303 
  2626.000     53.940   1361.672 
  2626.500     53.890   1373.097 
  2627.000     53.595   1351.249 
  2627.500     52.585   1319.669 
  2628.000     50.855   1301.248 
  2628.500     48.999   1312.805 
  2629.000     47.409   1349.929 
  2629.500     46.008   1382.902 
  2630.000     44.864   1399.168 
  2630.500     44.197   1434.699 
  2631.000     43.701   1524.377 
  2631.500     42.658   1632.850 
  2632.000     41.393   1681.687 
  2632.500     41.410   1640.871 
  2633.000     43.751   1553.428 
  2633.500     47.580   1475.932 
  2634.000     50.786   1424.442 
  2634.500     52.193   1380.694 
  2635.000     52.999   1339.119 
  2635.500     55.405   1259.904 
  2636.000     59.919   1148.242 
  2636.500     65.126   1059.743 
  2637.000     70.412   1022.854 
  2637.500     76.454   1035.680 
  2638.000     81.903   1098.854 
  2638.500     82.326   1173.882 
  2639.000     75.452   1200.308 
  2639.500     65.520   1212.579 
  2640.000     58.641   1317.295 
  2640.500     55.400   1544.813 
  2641.000     52.415   1820.468 
  2641.500     49.313   2046.389 
  2642.000     48.065   2193.552 
  2642.500     46.503   2175.730 
  2643.000     39.779   2223.059 
  2643.500     28.977   2159.684 
  2644.000     21.491   2016.801 
  2644.500     21.086   1968.012 
  2645.000     23.540   1922.689 
  2645.500     24.127   1795.045 
  2646.000     23.666   1640.364 
  2646.500     24.864   1579.424 
  2647.000     27.588   1508.550 
  2647.500     30.226   1525.962 
  2648.000     32.713   1831.186 
  2648.500     35.681   2038.139 
  2649.000     38.601   2118.367 
  2649.500     40.323   2275.789 
  2650.000     40.286   2369.205 
  2650.500     38.413   2387.190 
  2651.000     34.833   2369.524 
  2651.500     30.471   2359.827 
  2652.000     27.230   2316.764 
  2652.500     26.499   2223.075 
  2653.000     27.973   2156.162 
  2653.500     30.199   2186.561 
  2654.000     31.982   2277.530 
  2654.500     32.940   2346.248 
  2655.000     33.214   2374.439 
  2655.500     33.116   2387.284 
  2656.000     32.859   2389.403 
  2656.500     32.240   2384.803 
  2657.000     30.804   2392.617 
  2657.500     28.546   2409.920 
  2658.000     26.242   2443.574 
  2658.500     24.652   2482.447 
  2659.000     23.653   2512.958 
  2659.500     22.698   2532.844 
  2660.000     22.037   2548.843 
  2660.500     22.598   2563.097 
  2661.000     24.585   2567.414 
  2661.500     27.090   2552.416 
  2662.000     29.360   2522.000 
  2662.500     31.526   2491.242 
  2663.000     33.743   2468.347 
  2663.500     35.585   2435.876 
  2664.000     36.894   2362.177 
  2664.500     38.410   2234.134 
  2665.000     40.662   2068.708 
  2665.500     42.880   1931.034 
  2666.000     44.200   1814.885 
  2666.500     45.350   1717.382 
  2667.000     47.257   1644.933 
  2667.500     48.321   1573.518 
  2668.000     45.679   1549.283 
  2668.500     39.530   1700.287 
  2669.000     33.546   2000.911 
  2669.500     30.248   2247.919 
  2670.000     28.565   2350.463 
  2670.500     26.807   2387.707 
  2671.000     25.356   2410.031 
  2671.500     25.131   2415.928 
  2672.000     25.604   2426.217 
  2672.500     25.733   2435.682 
  2673.000     25.461   2408.893 
  2673.500     25.339   2362.022 
  2674.000     25.590   2346.743 
  2674.500     26.017   2364.810 
  2675.000     26.297   2378.839 
  2675.500     26.295   2379.574 
  2676.000     26.346   2384.304 
  2676.500     26.928   2392.550 
  2677.000     27.942   2396.552 
  2677.500     28.751   2406.807 
  2678.000     29.011   2433.924 
  2678.500     28.934   2465.257 
  2679.000     28.755   2475.893 
  2679.500     28.400   2460.787 
  2680.000     27.703   2452.123 
  2680.500     26.534   2476.146 
  2681.000     24.859   2511.539 
  2681.500     23.013   2519.826 
  2682.000     21.598   2491.467 
  2682.500     20.533   2454.769 
  2683.000     18.684   2424.747 
  2683.500     15.713   2373.407 
  2684.000     14.144   2285.153 
  2684.500     17.419   2218.269 
  2685.000     24.903   2253.483 
  2685.500     30.957   2382.692 
  2686.000     30.933   2506.080 
  2686.500     26.484   2557.075 
  2687.000     22.739   2582.740 
  2687.500     21.759   2664.939 
  2688.000     21.567   2788.501 
  2688.500     20.576   2849.365 
  2689.000     19.750   2779.082 
  2689.500     20.445   2580.893 
  2690.000     22.576   2380.352 
  2690.500     25.202   2281.424 
  2691.000     27.473   2248.454 
  2691.500     28.924   2242.240 
  2692.000     29.530   2332.357 
  2692.500     29.202   2541.324 
  2693.000     27.316   2732.717 
  2693.500     23.636   2784.162 
  2694.000     19.581   2730.604 
  2694.500     17.215   2661.981 
  2695.000     16.936   2615.241 
  2695.500     17.326   2596.453 
