~Version Information Block
 VERS.                2.00:     CWLS LOG ASCII STANDARD - VERSION 2.000000
 WRAP.                  NO:     One Line Per Depth Step
#
~Well Information Block
#MNEM.UNIT                     Data                         Information
#----------   ------------------------------------------   ----------------
 STRT.FT                                      100.0000:
 STOP.FT                                     3900.0000:
 STEP.FT                                        0.5000:
 NULL.                                       -999.2500:
 COMP.                                                :     COMPANY
 WELL.                                                :     WELL
 FLD .                                                :     FIELD
 CNTY.                                                :     COUNTY
 STAT.                                                :     STATE
 CTRY.                                                :     COUNTRY
 SRVC.                                                :     SERVICE COMPANY
 DATE.                                                :     DATE
 API .                                                :     API NUMBER
 UWI .                                                :     UWI NUMBER
#
~Curve Information Block
#MNEM.UNIT       API CODE      Curve Description
#----------    -------------   -------------------
 DEPT.FT                   :   Depth in Feet
 GR  .GAPI                 :   Gamma Ray
 NEUT.GAPI                 :   Neutrons
#
~A  DEPTH         GR       NEUT  
# ...
  3286.000    212.796   1207.099 
  3286.500    227.504   1205.416 
  3287.000    227.973   1210.090 
  3287.500    223.197   1223.078 
  3288.000    213.634   1253.070 
  3288.500    200.378   1302.284 
  3289.000    187.273   1354.706 
  3289.500    162.904   1392.660 
  3290.000    143.517   1419.384 
  3290.500    134.224   1448.120 
  3291.000    117.770   1475.050 
  3291.500    104.768   1484.065 
  3292.000    104.083   1477.191 
  3292.500    103.243   1481.669 
  3293.000    100.396   1522.057 
  3293.500     98.656   1594.180 
  3294.000     96.478   1672.039 
  3294.500     91.946   1734.009 
  3295.000     86.006   1777.226 
  3295.500     81.629   1810.369 
  3296.000     79.778   1840.417 
  3296.500     76.761   1870.291 
  3297.000     66.522   1904.731 
  3297.500     57.416   1948.507 
  3298.000     57.051   1992.296 
  3298.500     57.141   2010.809 
  3299.000     55.814   1989.260 
  3299.500     55.739   1948.943 
  3300.000     54.795   1927.846 
  3300.500     53.949   1936.308 
  3301.000     52.428   1951.436 
  3301.500     51.944   1953.637 
  3302.000     57.054   1943.172 
  3302.500     68.434   1921.994 
  3303.000     80.854   1886.709 
  3303.500     89.387   1843.740 
  3304.000     94.821   1806.474 
  3304.500    100.755   1774.040 
  3305.000    108.011   1732.449 
  3305.500    114.642   1679.288 
  3306.000    119.324   1630.034 
  3306.500    121.921   1599.192 
  3307.000    122.278   1585.783 
  3307.500    120.685   1578.234 
  3308.000    117.868   1568.656 
  3308.500    116.720   1560.673 
  3309.000    114.616   1561.201 
  3309.500    111.245   1565.692 
  3310.000    108.439   1560.323 
  3310.500    105.808   1543.612 
  3311.000    102.833   1532.438 
  3311.500    103.167   1538.323 
  3312.000    109.689   1549.706 
  3312.500    118.580   1546.777 
  3313.000    126.127   1523.420 
  3313.500    135.167   1488.063 
  3314.000    146.029   1453.598 
  3314.500    152.014   1434.220 
  3315.000    151.802   1440.071 
  3315.500    150.297   1467.103 
  3316.000    142.818   1498.620 
  3316.500    129.906   1520.038 
  3317.000    120.871   1525.447 
  3317.500    120.634   1514.610 
  3318.000    124.675   1495.004 
  3318.500    127.344   1481.313 
  3319.000    129.261   1480.006 
  3319.500    130.633   1483.577 
  3320.000    125.642   1492.277 
  3320.500    111.668   1524.119 
  3321.000     97.047   1584.745 
  3321.500     91.244   1645.264 
  3322.000     92.757   1674.133 
  3322.500     93.890   1676.730 
  3323.000     92.486   1679.975 
  3323.500     91.742   1691.600 
  3324.000     91.585   1701.396 
  3324.500     90.250   1712.982 
  3325.000     87.705   1744.264 
  3325.500     86.696   1796.922 
  3326.000     86.909   1850.166 
  3326.500     79.239   1889.710 
  3327.000     59.877   1920.789 
  3327.500     41.800   1942.668 
  3328.000     35.989   1934.277 
  3328.500     36.125   1886.297 
  3329.000     34.124   1832.276 
  3329.500     32.008   1820.944 
  3330.000     32.284   1861.460 
  3330.500     33.466   1917.326 
  3331.000     35.369   1950.212 
  3331.500     38.471   1953.094 
  3332.000     41.604   1941.501 
  3332.500     45.605   1927.871 
  3333.000     49.904   1913.598 
  3333.500     53.314   1901.874 
  3334.000     54.934   1905.709 
  3334.500     54.893   1932.257 
  3335.000     54.147   1967.195 
  3335.500     53.334   1990.811 
  3336.000     52.029   2007.102 
  3336.500     49.461   2035.699 
  3337.000     45.877   2075.447 
  3337.500     42.799   2098.194 
  3338.000     41.867   2083.232 
  3338.500     43.401   2040.151 
  3339.000     46.112   1991.438 
  3339.500     48.266   1945.366 
  3340.000     49.057   1889.827 
  3340.500     48.712   1809.895 
  3341.000     47.607   1709.384 
  3341.500     45.848   1614.871 
  3342.000     43.662   1555.894 
  3342.500     41.500   1539.192 
  3343.000     39.644   1544.154 
  3343.500     38.332   1540.539 
  3344.000     38.160   1516.834 
  3344.500     39.506   1494.118 
  3345.000     41.596   1507.983 
  3345.500     43.025   1571.266 
  3346.000     43.295   1663.420 
  3346.500     43.068   1759.683 
  3347.000     42.993   1848.783 
  3347.500     43.075   1916.589 
  3348.000     43.103   1945.832 
  3348.500     42.928   1942.699 
  3349.000     42.462   1929.432 
  3349.500     42.046   1901.325 
  3350.000     42.603   1832.295 
  3350.500     44.738   1732.618 
  3351.000     47.767   1658.104 
  3351.500     50.233   1644.624 
  3352.000     51.313   1670.178 
  3352.500     51.437   1695.744 
  3353.000     51.587   1712.467 
  3353.500     52.166   1733.707 
  3354.000     52.487   1765.450 
  3354.500     51.537   1799.746 
  3355.000     49.319   1825.076 
  3355.500     47.002   1837.162 
  3356.000     45.489   1841.733 
  3356.500     44.472   1848.597 
  3357.000     43.337   1863.104 
  3357.500     42.234   1885.021 
  3358.000     41.559   1914.109 
  3358.500     41.037   1950.269 
  3359.000     40.085   1989.727 
  3359.500     38.792   2023.153 
  3360.000     38.058   2042.376 
  3360.500     38.727   2046.326 
  3361.000     40.855   2037.970 
  3361.500     43.713   2016.521 
  3362.000     46.368   1979.077 
  3362.500     48.120   1929.132 
  3363.000     48.507   1879.217 
  3363.500     47.615   1841.555 
  3364.000     46.434   1819.096 
  3364.500     45.616   1805.221 
  3365.000     43.972   1791.159 
  3365.500     40.378   1776.562 
  3366.000     37.363   1770.014 
  3366.500     39.668   1771.553 
  3367.000     47.860   1765.181 
  3367.500     56.539   1747.340 
  3368.000     60.696   1750.875 
  3368.500     61.188   1807.918 
  3369.000     61.818   1896.007 
  3369.500     63.711   1956.103 
  3370.000     65.043   1964.077 
  3370.500     64.530   1949.046 
  3371.000     62.709   1942.310 
  3371.500     60.504   1942.621 
  3372.000     58.040   1936.882 
  3372.500     55.030   1923.847 
  3373.000     52.002   1907.022 
  3373.500     50.715   1882.723 
  3374.000     52.340   1848.320 
  3374.500     55.299   1816.905 
  3375.000     56.405   1813.243 
  3375.500     54.493   1848.381 
  3376.000     51.462   1902.493 
  3376.500     49.389   1946.491 
  3377.000     48.266   1977.233 
  3377.500     47.162   2014.790 
  3378.000     45.869   2066.907 
  3378.500     44.627   2114.278 
  3379.000     43.530   2134.146 
  3379.500     42.807   2126.704 
  3380.000     43.105   2114.109 
  3380.500     44.809   2116.475 
  3381.000     47.204   2125.903 
  3381.500     49.131   2110.003 
  3382.000     50.689   2051.237 
  3382.500     53.505   1970.882 
  3383.000     58.664   1897.731 
  3383.500     64.949   1832.997 
  3384.000     69.257   1776.533 
  3384.500     68.479   1759.863 
  3385.000     61.718   1806.638 
  3385.500     51.847   1883.943 
  3386.000     44.050   1946.863 
  3386.500     41.410   2008.592 
  3387.000     42.570   2108.308 
  3387.500     44.561   2225.734 
  3388.000     46.286   2287.615 
  3388.500     48.122   2253.118 
  3389.000     49.994   2147.033 
  3389.500     51.510   2016.723 
  3390.000     52.776   1898.791 
  3390.500     54.087   1820.915 
  3391.000     55.713   1796.682 
  3391.500     58.046   1811.722 
  3392.000     60.783   1834.344 
  3392.500     62.363   1844.538 
  3393.000     61.328   1843.620 
  3393.500     58.440   1839.108 
  3394.000     56.741   1832.987 
  3394.500     58.682   1827.840 
  3395.000     63.361   1829.908 
  3395.500     67.171   1834.254 
  3396.000     67.721   1818.164 
  3396.500     66.112   1767.974 
  3397.000     64.324   1703.441 
  3397.500     62.131   1653.428 
  3398.000     58.379   1621.923 
  3398.500     53.950   1603.098 
  3399.000     50.615   1613.872 
  3399.500     47.924   1671.935 
  3400.000     43.556   1751.682 
  3400.500     36.663   1802.775 
  3401.000     29.644   1813.411 
  3401.500     26.078   1819.432 
  3402.000     26.751   1852.066 
  3402.500     28.837   1909.596 
  3403.000     30.511   1979.122 
  3403.500     34.559   2055.791 
