~Version Information Block
 VERS.                2.00:     CWLS LOG ASCII STANDARD - VERSION 2.000000
 WRAP.                  NO:     One Line Per Depth Step
#
~Well Information Block
#MNEM.UNIT                     Data                         Information
#----------   ------------------------------------------   ----------------
 STRT.FT                                      100.0000:
 STOP.FT                                     3900.0000:
 STEP.FT                                        0.5000:
 NULL.                                       -999.2500:
 COMP.                                                :     COMPANY
 WELL.                                                :     WELL
 FLD .                                                :     FIELD
 CNTY.                                                :     COUNTY
 STAT.                                                :     STATE
 CTRY.                                                :     COUNTRY
 SRVC.                                                :     SERVICE COMPANY
 DATE.                                                :     DATE
 API .                                                :     API NUMBER
 UWI .                                                :     UWI NUMBER
#
~Curve Information Block
#MNEM.UNIT       API CODE      Curve Description
#----------    -------------   -------------------
 DEPT.FT                   :   Depth in Feet
 GR  .GAPI                 :   Gamma Ray
 NEUT.GAPI                 :   Neutrons
#
~A  DEPTH         GR       NEUT  
# ...
  2814.000     14.898   2574.117 
  2814.500     16.156   2634.514 
  2815.000     16.991   2689.125 
  2815.500     17.348   2714.122 
  2816.000     17.310   2687.956 
  2816.500     16.941   2624.501 
  2817.000     16.827   2569.598 
  2817.500     17.903   2561.611 
  2818.000     20.107   2603.257 
  2818.500     21.996   2667.639 
  2819.000     22.473   2718.964 
  2819.500     22.144   2731.815 
  2820.000     22.108   2707.464 
  2820.500     22.291   2678.416 
  2821.000     22.130   2684.362 
  2821.500     22.001   2734.050 
  2822.000     22.441   2801.404 
  2822.500     22.568   2864.610 
  2823.000     21.004   2926.200 
  2823.500     18.203   2980.873 
  2824.000     16.194   2997.017 
  2824.500     15.939   2962.750 
  2825.000     16.419   2922.752 
  2825.500     16.493   2928.884 
  2826.000     16.265   2972.113 
  2826.500     16.225   3001.290 
  2827.000     16.321   2993.464 
  2827.500     16.340   2967.864 
  2828.000     16.345   2939.153 
  2828.500     16.340   2891.790 
  2829.000     16.121   2807.317 
  2829.500     15.690   2700.592 
  2830.000     15.391   2618.590 
  2830.500     15.420   2599.726 
  2831.000     15.545   2636.739 
  2831.500     15.479   2688.393 
  2832.000     15.368   2725.688 
  2832.500     15.606   2750.818 
  2833.000     16.289   2774.182 
  2833.500     17.130   2796.290 
  2834.000     17.841   2813.860 
  2834.500     18.221   2822.139 
  2835.000     18.069   2810.509 
  2835.500     17.534   2772.146 
  2836.000     17.414   2719.665 
  2836.500     18.364   2678.403 
  2837.000     19.875   2665.367 
  2837.500     20.772   2676.231 
  2838.000     20.681   2685.117 
  2838.500     20.228   2659.148 
  2839.000     19.986   2589.593 
  2839.500     20.106   2505.625 
  2840.000     20.801   2443.884 
  2840.500     22.202   2413.342 
  2841.000     23.760   2408.595 
  2841.500     24.651   2442.605 
  2842.000     24.692   2532.334 
  2842.500     24.115   2660.197 
  2843.000     22.882   2783.897 
  2843.500     21.025   2878.405 
  2844.000     19.231   2934.321 
  2844.500     18.137   2930.278 
  2845.000     17.446   2856.011 
  2845.500     16.565   2761.200 
  2846.000     15.669   2725.694 
  2846.500     15.297   2764.966 
  2847.000     15.391   2808.835 
  2847.500     15.526   2796.840 
  2848.000     15.564   2760.336 
  2848.500     15.508   2776.552 
  2849.000     15.216   2862.272 
  2849.500     14.798   2949.327 
  2850.000     14.644   2964.614 
  2850.500     14.688   2903.697 
  2851.000     14.521   2818.488 
  2851.500     14.513   2753.372 
  2852.000     15.648   2708.199 
  2852.500     17.824   2651.572 
  2853.000     19.679   2562.252 
  2853.500     20.620   2460.250 
  2854.000     21.572   2398.226 
  2854.500     23.031   2410.153 
  2855.000     23.902   2474.573 
  2855.500     23.240   2538.279 
  2856.000     21.849   2568.333 
  2856.500     21.142   2573.497 
  2857.000     21.308   2578.418 
  2857.500     21.516   2588.119 
  2858.000     21.340   2584.884 
  2858.500     21.172   2565.500 
  2859.000     21.383   2566.167 
  2859.500     21.596   2620.728 
  2860.000     21.045   2705.420 
  2860.500     19.639   2768.979 
  2861.000     18.277   2805.471 
  2861.500     17.788   2840.062 
  2862.000     17.951   2852.727 
  2862.500     18.047   2792.615 
  2863.000     18.009   2670.979 
  2863.500     18.362   2566.238 
  2864.000     19.285   2527.256 
  2864.500     20.406   2533.838 
  2865.000     21.454   2551.886 
  2865.500     22.505   2560.535 
  2866.000     23.579   2532.371 
  2866.500     24.443   2458.424 
  2867.000     24.852   2390.933 
  2867.500     24.785   2397.601 
  2868.000     24.537   2477.106 
  2868.500     24.573   2570.025 
  2869.000     24.937   2637.305 
  2869.500     24.917   2674.613 
  2870.000     23.847   2673.501 
  2870.500     22.184   2626.521 
  2871.000     21.119   2559.054 
  2871.500     21.102   2510.659 
  2872.000     21.459   2489.989 
  2872.500     21.536   2480.197 
  2873.000     21.562   2474.450 
  2873.500     22.125   2476.849 
  2874.000     23.172   2482.606 
  2874.500     23.898   2482.691 
  2875.000     23.635   2479.151 
  2875.500     22.620   2476.071 
  2876.000     21.639   2465.671 
  2876.500     21.137   2439.284 
  2877.000     21.123   2407.269 
  2877.500     21.602   2395.237 
  2878.000     22.360   2420.789 
  2878.500     22.618   2483.175 
  2879.000     21.798   2569.297 
  2879.500     20.412   2656.782 
  2880.000     19.458   2714.416 
  2880.500     19.147   2719.876 
  2881.000     18.926   2682.788 
  2881.500     18.464   2635.420 
  2882.000     17.922   2597.797 
  2882.500     17.494   2567.030 
  2883.000     17.229   2540.863 
  2883.500     17.136   2526.784 
  2884.000     17.145   2524.465 
  2884.500     17.123   2524.137 
  2885.000     17.102   2528.644 
  2885.500     17.302   2551.787 
  2886.000     17.866   2589.128 
  2886.500     18.758   2621.014 
  2887.000     19.883   2651.070 
  2887.500     21.129   2700.768 
  2888.000     22.210   2754.043 
  2888.500     22.765   2750.967 
  2889.000     22.887   2665.426 
  2889.500     23.301   2551.012 
  2890.000     24.475   2477.161 
  2890.500     25.664   2448.742 
  2891.000     25.547   2425.312 
  2891.500     24.005   2395.557 
  2892.000     22.426   2392.319 
  2892.500     21.936   2438.835 
  2893.000     22.110   2515.184 
  2893.500     21.929   2583.424 
  2894.000     21.354   2624.610 
  2894.500     21.150   2638.924 
  2895.000     21.450   2623.831 
  2895.500     21.518   2573.192 
  2896.000     21.086   2500.677 
  2896.500     21.081   2440.214 
  2897.000     22.366   2409.424 
  2897.500     24.399   2390.275 
  2898.000     25.882   2362.030 
  2898.500     26.288   2329.795 
  2899.000     26.149   2301.309 
  2899.500     26.256   2263.911 
  2900.000     27.002   2210.809 
  2900.500     27.911   2160.019 
  2901.000     27.688   2126.482 
  2901.500     25.520   2115.251 
  2902.000     22.379   2158.842 
  2902.500     20.112   2300.048 
  2903.000     19.329   2508.102 
  2903.500     19.162   2673.282 
  2904.000     18.890   2723.389 
  2904.500     18.673   2695.866 
  2905.000     18.773   2667.886 
  2905.500     19.069   2665.639 
  2906.000     19.405   2670.241 
  2906.500     19.843   2665.012 
  2907.000     20.354   2645.360 
  2907.500     20.633   2611.388 
  2908.000     20.494   2574.333 
  2908.500     20.306   2556.490 
  2909.000     20.570   2571.680 
  2909.500     20.871   2608.714 
  2910.000     20.031   2641.872 
  2910.500     17.733   2662.944 
  2911.000     15.164   2696.694 
  2911.500     13.523   2763.645 
  2912.000     12.851   2832.247 
  2912.500     12.925   2844.300 
  2913.000     14.109   2796.840 
  2913.500     16.358   2757.898 
  2914.000     18.436   2779.939 
  2914.500     19.175   2834.962 
  2915.000     18.876   2862.502 
  2915.500     18.633   2848.879 
  2916.000     18.829   2826.842 
  2916.500     18.992   2816.931 
  2917.000     18.808   2806.223 
  2917.500     18.532   2779.829 
  2918.000     18.362   2746.718 
  2918.500     18.037   2726.981 
  2919.000     17.394   2723.403 
  2919.500     16.939   2712.484 
  2920.000     17.337   2668.939 
  2920.500     18.524   2600.458 
  2921.000     19.703   2553.864 
  2921.500     20.069   2575.663 
  2922.000     19.341   2668.026 
  2922.500     17.885   2789.561 
  2923.000     16.486   2890.676 
  2923.500     15.761   2942.859 
  2924.000     15.790   2941.103 
  2924.500     16.374   2901.511 
  2925.000     17.321   2855.833 
  2925.500     18.271   2826.532 
  2926.000     18.827   2801.391 
  2926.500     19.117   2749.522 
  2927.000     19.627   2663.570 
  2927.500     20.435   2570.433 
  2928.000     21.181   2504.804 
  2928.500     21.599   2493.763 
  2929.000     21.430   2556.553 
  2929.500     20.208   2685.882 
  2930.000     17.987   2831.646 
  2930.500     15.895   2933.582 
  2931.000     15.109   2972.542 
  2931.500     15.471   2973.049 
