~Version Information Block
 VERS.                2.00:     CWLS LOG ASCII STANDARD - VERSION 2.000000
 WRAP.                  NO:     One Line Per Depth Step
#
~Well Information Block
#MNEM.UNIT                     Data                         Information
#----------   ------------------------------------------   ----------------
 STRT.FT                                      100.0000:
 STOP.FT                                     3900.0000:
 STEP.FT                                        0.5000:
 NULL.                                       -999.2500:
 COMP.                                                :     COMPANY
 WELL.                                                :     WELL
 FLD .                                                :     FIELD
 CNTY.                                                :     COUNTY
 STAT.                                                :     STATE
 CTRY.                                                :     COUNTRY
 SRVC.                                                :     SERVICE COMPANY
 DATE.                                                :     DATE
 API .                                                :     API NUMBER
 UWI .                                                :     UWI NUMBER
#
~Curve Information Block
#MNEM.UNIT       API CODE      Curve Description
#----------    -------------   -------------------
 DEPT.FT                   :   Depth in Feet
 GR  .GAPI                 :   Gamma Ray
 NEUT.GAPI                 :   Neutrons
#
~A  DEPTH         GR       NEUT  
# ...
  1516.000     99.354   1007.425 
  1516.500    104.891    924.873 
  1517.000    109.226    846.126 
  1517.500    112.160    781.282 
  1518.000    115.197    732.790 
  1518.500    119.566    707.532 
  1519.000    124.459    707.147 
  1519.500    128.064    713.311 
  1520.000    129.942    699.122 
  1520.500    131.327    658.106 
  1521.000    133.203    611.322 
  1521.500    135.036    582.200 
  1522.000    135.634    574.106 
  1522.500    134.578    577.110 
  1523.000    132.552    585.897 
  1523.500    130.691    600.967 
  1524.000    129.714    620.953 
  1524.500    129.358    643.757 
  1525.000    128.826    669.668 
  1525.500    127.949    693.883 
  1526.000    127.304    704.456 
  1526.500    126.966    697.061 
  1527.000    126.013    682.661 
  1527.500    123.851    673.963 
  1528.000    121.300    672.976 
  1528.500    119.776    674.554 
  1529.000    119.944    671.411 
  1529.500    121.531    657.283 
  1530.000    123.868    636.681 
  1530.500    126.265    628.300 
  1531.000    128.296    644.924 
  1531.500    129.969    675.137 
  1532.000    131.389    697.196 
  1532.500    132.326    705.246 
  1533.000    132.456    708.409 
  1533.500    131.882    711.710 
  1534.000    131.115    712.348 
  1534.500    130.641    710.679 
  1535.000    130.622    711.121 
  1535.500    130.862    712.919 
  1536.000    130.951    710.102 
  1536.500    130.574    700.111 
  1537.000    129.753    684.716 
  1537.500    128.725    662.817 
  1538.000    127.681    630.608 
  1538.500    126.875    591.042 
  1539.000    126.979    556.488 
  1539.500    128.893    535.680 
  1540.000    132.857    523.482 
  1540.500    137.852    510.438 
  1541.000    142.236    500.655 
  1541.500    145.014    509.887 
  1542.000    146.326    542.247 
  1542.500    146.826    577.847 
  1543.000    146.968    591.396 
  1543.500    146.910    577.756 
  1544.000    146.803    552.848 
  1544.500    146.848    533.273 
  1545.000    146.957    522.725 
  1545.500    146.538    516.687 
  1546.000    145.027    513.030 
  1546.500    142.745    515.045 
  1547.000    140.758    525.120 
  1547.500    139.582    539.041 
  1548.000    138.600    549.530 
  1548.500    137.244    556.238 
  1549.000    136.161    565.485 
  1549.500    136.452    577.941 
  1550.000    138.129    584.289 
  1550.500    140.073    578.953 
  1551.000    141.333    571.443 
  1551.500    141.775    575.325 
  1552.000    141.537    590.693 
  1552.500    140.597    606.552 
  1553.000    138.998    615.958 
  1553.500    137.028    616.920 
  1554.000    135.063    602.400 
  1554.500    133.574    566.255 
  1555.000    133.152    521.516 
  1555.500    133.906    495.674 
  1556.000    135.050    500.587 
  1556.500    135.729    520.937 
  1557.000    136.039    538.693 
  1557.500    136.430    553.875 
  1558.000    136.525    572.217 
  1558.500    135.508    587.959 
  1559.000    133.494    591.874 
  1559.500    131.437    585.972 
  1560.000    129.774    580.016 
  1560.500    128.147    579.943 
  1561.000    126.456    585.380 
  1561.500    125.135    591.298 
  1562.000    124.305    588.897 
  1562.500    123.569    573.174 
  1563.000    122.938    551.614 
  1563.500    123.173    537.659 
  1564.000    124.739    533.892 
  1564.500    126.890    529.733 
  1565.000    128.340    516.512 
  1565.500    128.610    498.730 
  1566.000    128.248    488.044 
  1566.500    127.831    489.002 
  1567.000    127.382    493.938 
  1567.500    126.899    494.526 
  1568.000    126.815    497.126 
  1568.500    127.397    517.740 
  1569.000    127.951    559.015 
  1569.500    127.410    601.900 
  1570.000    125.811    625.938 
  1570.500    124.470    628.889 
  1571.000    124.440    622.398 
  1571.500    125.486    618.364 
  1572.000    126.952    622.789 
  1572.500    128.715    633.897 
  1573.000    130.656    643.043 
  1573.500    131.930    644.465 
  1574.000    131.708    642.458 
  1574.500    130.343    641.695 
  1575.000    129.049    636.754 
  1575.500    128.548    621.639 
  1576.000    128.510    603.257 
  1576.500    128.386    594.391 
  1577.000    128.291    597.326 
  1577.500    128.668    605.928 
  1578.000    129.253    621.045 
  1578.500    129.300    651.488 
  1579.000    129.005    697.311 
  1579.500    129.352    741.763 
  1580.000    129.895    765.957 
  1580.500    128.664    765.910 
  1581.000    125.705    749.189 
  1581.500    124.523    721.831 
  1582.000    127.781    687.420 
  1582.500    133.314    653.941 
  1583.000    136.855    629.453 
  1583.500    137.327    612.779 
  1584.000    137.114    597.946 
  1584.500    138.161    584.583 
  1585.000    140.176    574.790 
  1585.500    142.135    563.972 
  1586.000    143.515    546.364 
  1586.500    143.948    527.806 
  1587.000    143.069    522.258 
  1587.500    141.296    535.066 
  1588.000    140.114    556.743 
  1588.500    140.756    575.971 
  1589.000    142.480    591.871 
  1589.500    143.079    607.861 
  1590.000    141.540    618.287 
  1590.500    139.300    611.963 
  1591.000    138.166    591.209 
  1591.500    138.129    575.107 
  1592.000    138.073    576.263 
  1592.500    137.681    585.921 
  1593.000    137.482    592.121 
  1593.500    137.645    600.051 
  1594.000    137.771    618.221 
  1594.500    137.661    636.145 
  1595.000    137.567    637.346 
  1595.500    137.685    628.975 
  1596.000    137.687    635.272 
  1596.500    136.882    662.214 
  1597.000    134.984    690.537 
  1597.500    132.682    704.338 
  1598.000    131.121    705.047 
  1598.500    130.746    697.557 
  1599.000    130.986    684.169 
  1599.500    131.079    673.244 
  1600.000    130.904    673.218 
  1600.500    130.843    677.564 
  1601.000    131.034    673.148 
  1601.500    131.096    660.208 
  1602.000    130.804    647.153 
  1602.500    130.715    634.084 
  1603.000    131.509    619.420 
  1603.500    132.819    613.460 
  1604.000    133.446    625.049 
  1604.500    132.774    642.472 
  1605.000    131.359    645.877 
  1605.500    130.171    634.635 
  1606.000    129.826    627.264 
  1606.500    130.428    635.588 
  1607.000    131.569    651.501 
  1607.500    132.532    662.203 
  1608.000    132.860    667.826 
  1608.500    132.684    674.886 
  1609.000    132.459    678.531 
  1609.500    132.550    667.039 
  1610.000    133.089    643.830 
  1610.500    134.158    630.637 
  1611.000    135.946    644.019 
  1611.500    138.123    679.031 
  1612.000    138.957    717.105 
  1612.500    136.362    738.716 
  1613.000    130.666    732.395 
  1613.500    125.086    707.221 
  1614.000    122.380    695.237 
  1614.500    122.075    720.339 
  1615.000    122.093    766.056 
  1615.500    121.753    792.739 
  1616.000    121.618    785.647 
  1616.500    121.487    763.500 
  1617.000    120.394    740.776 
  1617.500    118.345    711.737 
  1618.000    116.360    676.631 
  1618.500    114.901    653.742 
  1619.000    114.143    657.514 
  1619.500    115.444    690.928 
  1620.000    119.428    760.538 
  1620.500    122.266    864.437 
  1621.000    118.158    962.538 
  1621.500    107.349    997.786 
  1622.000     97.481    958.809 
  1622.500     94.618    894.133 
  1623.000     96.987    852.728 
  1623.500     99.860    835.971 
  1624.000    102.164    816.957 
  1624.500    105.165    784.227 
  1625.000    108.607    747.847 
  1625.500    111.627    714.400 
  1626.000    114.872    678.358 
  1626.500    119.095    640.353 
  1627.000    123.337    615.700 
  1627.500    126.208    615.446 
  1628.000    127.856    633.418 
  1628.500    129.530    662.968 
  1629.000    131.123    712.053 
  1629.500    129.975    781.914 
  1630.000    123.520    846.041 
  1630.500    113.265    870.214 
  1631.000    104.381    850.898 
  1631.500    100.589    819.887 
  1632.000    101.118    807.639 
  1632.500    102.865    812.158 
  1633.000    103.509    808.975 
  1633.500    103.033    787.693 
