~Version Information Block
 VERS.                2.00:     CWLS LOG ASCII STANDARD - VERSION 2.000000
 WRAP.                  NO:     One Line Per Depth Step
#
~Well Information Block
#MNEM.UNIT                     Data                         Information
#----------   ------------------------------------------   ----------------
 STRT.FT                                      100.0000:
 STOP.FT                                     3900.0000:
 STEP.FT                                        0.5000:
 NULL.                                       -999.2500:
 COMP.                                                :     COMPANY
 WELL.                                                :     WELL
 FLD .                                                :     FIELD
 CNTY.                                                :     COUNTY
 STAT.                                                :     STATE
 CTRY.                                                :     COUNTRY
 SRVC.                                                :     SERVICE COMPANY
 DATE.                                                :     DATE
 API .                                                :     API NUMBER
 UWI .                                                :     UWI NUMBER
#
~Curve Information Block
#MNEM.UNIT       API CODE      Curve Description
#----------    -------------   -------------------
 DEPT.FT                   :   Depth in Feet
 GR  .GAPI                 :   Gamma Ray
 NEUT.GAPI                 :   Neutrons
#
~A  DEPTH         GR       NEUT  
# ...
  1752.000    127.546    806.224 
  1752.500    129.601    798.244 
  1753.000    129.433    799.138 
  1753.500    126.965    810.976 
  1754.000    124.581    833.064 
  1754.500    123.203    867.431 
  1755.000    121.417    911.971 
  1755.500    117.598    951.879 
  1756.000    112.976    968.909 
  1756.500    111.249    956.505 
  1757.000    114.131    921.171 
  1757.500    119.551    875.093 
  1758.000    124.805    836.355 
  1758.500    128.155    826.972 
  1759.000    127.723    855.246 
  1759.500    122.550    904.454 
  1760.000    115.425    951.228 
  1760.500    110.720    988.182 
  1761.000    109.320   1015.348 
  1761.500    108.948   1021.933 
  1762.000    108.861    997.017 
  1762.500    110.596    952.058 
  1763.000    114.341    913.469 
  1763.500    117.959    893.727 
  1764.000    120.023    884.635 
  1764.500    121.270    878.502 
  1765.000    122.586    881.808 
  1765.500    123.060    902.101 
  1766.000    121.514    930.492 
  1766.500    118.945    946.096 
  1767.000    118.118    937.402 
  1767.500    120.142    911.489 
  1768.000    122.710    883.516 
  1768.500    122.783    865.821 
  1769.000    120.464    866.103 
  1769.500    118.566    883.461 
  1770.000    118.000    904.580 
  1770.500    115.855    915.934 
  1771.000    109.535    922.095 
  1771.500    101.182    938.271 
  1772.000     95.381    968.103 
  1772.500     93.351   1007.548 
  1773.000     92.183   1066.568 
  1773.500     89.924   1159.304 
  1774.000     87.882   1271.598 
  1774.500     86.936   1364.784 
  1775.000     85.118   1413.302 
  1775.500     80.866   1414.794 
  1776.000     75.821   1368.864 
  1776.500     72.671   1280.160 
  1777.000     72.593   1182.405 
  1777.500     75.895   1121.852 
  1778.000     82.521   1107.308 
  1778.500     90.902   1105.477 
  1779.000     98.515   1092.738 
  1779.500    104.077   1080.446 
  1780.000    107.463   1080.700 
  1780.500    107.968   1079.834 
  1781.000    105.329   1062.020 
  1781.500    101.490   1034.693 
  1782.000     98.899   1015.989 
  1782.500     97.408   1015.531 
  1783.000     95.249   1036.611 
  1783.500     91.906   1075.087 
  1784.000     88.364   1111.351 
  1784.500     85.869   1130.222 
  1785.000     85.268   1153.167 
  1785.500     86.152   1218.234 
  1786.000     86.798   1323.461 
  1786.500     87.236   1420.476 
  1787.000     91.060   1462.128 
  1787.500    101.002   1424.275 
  1788.000    114.072   1295.757 
  1788.500    124.928   1097.186 
  1789.000    132.359    904.117 
  1789.500    138.425    797.333 
  1790.000    143.075    783.834 
  1790.500    144.169    804.833 
  1791.000    141.677    817.877 
  1791.500    137.907    828.945 
  1792.000    134.433    847.424 
  1792.500    131.613    858.923 
  1793.000    129.952    853.169 
  1793.500    129.842    841.134 
  1794.000    130.385    829.305 
  1794.500    130.350    805.846 
  1795.000    129.818    769.055 
  1795.500    129.931    745.533 
  1796.000    130.719    758.605 
  1796.500    130.247    794.164 
  1797.000    127.497    816.688 
  1797.500    124.616    809.430 
  1798.000    123.773    780.645 
  1798.500    123.234    742.415 
  1799.000    121.118    705.389 
  1799.500    121.151    687.518 
  1800.000    128.378    704.475 
  1800.500    139.961    749.313 
  1801.000    147.102    795.921 
  1801.500    146.415    822.360 
  1802.000    142.987    822.002 
  1802.500    141.709    797.754 
  1803.000    141.716    759.299 
  1803.500    140.568    724.536 
  1804.000    138.616    711.186 
  1804.500    137.197    721.524 
  1805.000    136.099    741.421 
  1805.500    134.822    755.711 
  1806.000    134.397    760.684 
  1806.500    136.268    760.469 
  1807.000    140.010    755.934 
  1807.500    143.335    742.467 
  1808.000    144.579    719.307 
  1808.500    144.390    698.050 
  1809.000    144.146    696.869 
  1809.500    143.817    724.939 
  1810.000    142.423    774.962 
  1810.500    140.088    830.551 
  1811.000    137.797    876.395 
  1811.500    135.651    902.783 
  1812.000    133.414    907.656 
  1812.500    132.513    897.567 
  1813.000    134.921    880.710 
  1813.500    139.747    857.184 
  1814.000    143.458    823.803 
  1814.500    144.159    788.011 
  1815.000    143.428    765.290 
  1815.500    143.252    760.767 
  1816.000    143.445    764.348 
  1816.500    143.065    767.353 
  1817.000    142.357    772.719 
  1817.500    142.012    785.561 
  1818.000    141.769    803.428 
  1818.500    140.917    819.824 
  1819.000    139.526    831.269 
  1819.500    138.346    837.675 
  1820.000    137.769    838.678 
  1820.500    137.586    830.767 
  1821.000    137.582    808.231 
  1821.500    137.853    769.982 
  1822.000    138.423    726.998 
  1822.500    139.145    699.505 
  1823.000    139.955    702.985 
  1823.500    140.707    735.963 
  1824.000    141.090    780.086 
  1824.500    141.355    809.698 
  1825.000    142.320    806.883 
  1825.500    143.637    773.968 
  1826.000    143.278    731.607 
  1826.500    140.292    700.828 
  1827.000    136.893    687.074 
  1827.500    136.002    682.827 
  1828.000    137.795    680.371 
  1828.500    140.412    678.524 
  1829.000    142.815    680.689 
  1829.500    145.050    689.525 
  1830.000    146.691    703.582 
  1830.500    147.112    719.261 
  1831.000    146.799    737.719 
  1831.500    146.791    766.672 
  1832.000    147.064    809.605 
  1832.500    146.653    855.676 
  1833.000    145.250    885.853 
  1833.500    143.650    887.472 
  1834.000    142.577    860.922 
  1834.500    141.847    819.113 
  1835.000    141.103    782.617 
  1835.500    140.757    767.026 
  1836.000    141.472    769.825 
  1836.500    143.067    775.724 
  1837.000    144.430    775.613 
  1837.500    144.785    772.412 
  1838.000    144.696    769.949 
  1838.500    145.153    768.071 
  1839.000    145.694    769.020 
  1839.500    144.412    775.768 
  1840.000    140.535    783.118 
  1840.500    136.026    781.519 
  1841.000    133.582    771.619 
  1841.500    133.749    764.595 
  1842.000    134.987    767.413 
  1842.500    135.946    774.996 
  1843.000    136.602    776.972 
  1843.500    137.408    767.291 
  1844.000    138.126    749.054 
  1844.500    137.777    734.007 
  1845.000    135.881    735.349 
  1845.500    133.611    757.318 
  1846.000    132.968    791.183 
  1846.500    134.571    820.885 
  1847.000    137.215    834.235 
  1847.500    139.581    830.902 
  1848.000    141.303    819.635 
  1848.500    142.317    806.630 
  1849.000    142.657    790.876 
  1849.500    142.792    772.976 
  1850.000    142.965    758.933 
  1850.500    142.431    749.146 
  1851.000    140.696    733.339 
  1851.500    139.146    706.015 
  1852.000    139.954    678.527 
  1852.500    143.201    667.153 
  1853.000    146.068    676.077 
  1853.500    145.506    697.235 
  1854.000    141.452    717.306 
  1854.500    136.885    723.533 
  1855.000    134.668    714.818 
  1855.500    134.797    709.384 
  1856.000    135.250    728.507 
  1856.500    134.770    771.237 
  1857.000    133.767    819.732 
  1857.500    132.816    866.127 
  1858.000    131.818    912.807 
  1858.500    130.894    946.472 
  1859.000    130.941    937.715 
  1859.500    132.606    876.140 
  1860.000    135.255    789.038 
  1860.500    137.380    715.751 
  1861.000    137.877    675.957 
  1861.500    137.014    668.275 
  1862.000    136.092    686.701 
  1862.500    135.670    726.543 
  1863.000    134.624    776.281 
  1863.500    132.240    811.714 
  1864.000    130.732    807.576 
  1864.500    133.302    762.687 
  1865.000    139.452    710.174 
  1865.500    144.802    691.423 
  1866.000    146.270    716.796 
  1866.500    145.176    759.376 
  1867.000    144.525    787.376 
  1867.500    145.238    794.973 
  1868.000    145.896    798.703 
  1868.500    144.890    810.251 
  1869.000    142.322    820.474 
  1869.500    140.198    812.830 
