~Version Information Block
 VERS.                2.00:     CWLS LOG ASCII STANDARD - VERSION 2.000000
 WRAP.                  NO:     One Line Per Depth Step
#
~Well Information Block
#MNEM.UNIT                     Data                         Information
#----------   ------------------------------------------   ----------------
 STRT.FT                                      100.0000:
 STOP.FT                                     3900.0000:
 STEP.FT                                        0.5000:
 NULL.                                       -999.2500:
 COMP.                                                :     COMPANY
 WELL.                                                :     WELL
 FLD .                                                :     FIELD
 CNTY.                                                :     COUNTY
 STAT.                                                :     STATE
 CTRY.                                                :     COUNTRY
 SRVC.                                                :     SERVICE COMPANY
 DATE.                                                :     DATE
 API .                                                :     API NUMBER
 UWI .                                                :     UWI NUMBER
#
~Curve Information Block
#MNEM.UNIT       API CODE      Curve Description
#----------    -------------   -------------------
 DEPT.FT                   :   Depth in Feet
 GR  .GAPI                 :   Gamma Ray
 NEUT.GAPI                 :   Neutrons
#
~A  DEPTH         GR       NEUT  
# ...
  1280.000     13.031   1592.100 
  1280.500     13.234   1606.723 
  1281.000     13.487   1616.514 
  1281.500     13.831   1622.449 
  1282.000     14.140   1619.189 
  1282.500     14.229   1603.996 
  1283.000     14.046   1584.497 
  1283.500     13.779   1569.254 
  1284.000     13.722   1557.958 
  1284.500     13.985   1546.198 
  1285.000     14.416   1533.984 
  1285.500     14.770   1523.734 
  1286.000     14.796   1515.055 
  1286.500     14.289   1506.940 
  1287.000     13.371   1503.898 
  1287.500     12.595   1512.005 
  1288.000     12.451   1527.032 
  1288.500     12.881   1535.022 
  1289.000     13.535   1531.239 
  1289.500     14.276   1528.676 
  1290.000     15.097   1535.883 
  1290.500     15.765   1537.564 
  1291.000     15.993   1514.150 
  1291.500     15.800   1473.484 
  1292.000     15.345   1443.335 
  1292.500     14.633   1434.626 
  1293.000     13.748   1434.035 
  1293.500     13.081   1434.276 
  1294.000     12.907   1448.319 
  1294.500     12.968   1480.580 
  1295.000     12.924   1505.242 
  1295.500     12.913   1494.210 
  1296.000     13.194   1455.717 
  1296.500     13.575   1421.267 
  1297.000     13.753   1404.130 
  1297.500     13.955   1398.140 
  1298.000     14.692   1406.811 
  1298.500     16.002   1437.093 
  1299.000     17.441   1467.547 
  1299.500     18.686   1463.969 
  1300.000     19.757   1433.593 
  1300.500     20.710   1425.303 
  1301.000     21.502   1468.431 
  1301.500     22.158   1540.294 
  1302.000     22.881   1600.319 
  1302.500     23.953   1627.288 
  1303.000     25.552   1617.698 
  1303.500     27.544   1575.555 
  1304.000     29.356   1515.186 
  1304.500     30.251   1458.223 
  1305.000     29.961   1418.262 
  1305.500     28.936   1396.449 
  1306.000     27.787   1392.296 
  1306.500     26.664   1408.886 
  1307.000     25.407   1442.666 
  1307.500     24.083   1475.461 
  1308.000     23.010   1486.075 
  1308.500     22.351   1471.475 
  1309.000     21.928   1450.922 
  1309.500     21.438   1446.916 
  1310.000     20.746   1468.357 
  1310.500     20.063   1511.349 
  1311.000     19.798   1565.784 
  1311.500     20.049   1612.717 
  1312.000     20.406   1627.481 
  1312.500     20.510   1599.150 
  1313.000     20.563   1544.127 
  1313.500     20.944   1490.370 
  1314.000     21.616   1448.538 
  1314.500     22.244   1407.709 
  1315.000     22.676   1357.495 
  1315.500     22.940   1305.447 
  1316.000     22.978   1271.422 
  1316.500     22.687   1268.042 
  1317.000     22.166   1289.326 
  1317.500     21.686   1320.311 
  1318.000     21.429   1357.026 
  1318.500     21.350   1409.543 
  1319.000     21.261   1480.615 
  1319.500     21.004   1549.713 
  1320.000     20.491   1588.535 
  1320.500     19.646   1589.171 
  1321.000     18.502   1566.741 
  1321.500     17.407   1537.034 
  1322.000     16.840   1503.449 
  1322.500     16.846   1470.512 
  1323.000     16.944   1454.414 
  1323.500     16.767   1464.683 
  1324.000     16.464   1484.457 
  1324.500     16.226   1491.969 
  1325.000     15.844   1496.010 
  1325.500     15.102   1521.838 
  1326.000     14.269   1561.937 
  1326.500     13.737   1574.768 
  1327.000     13.420   1540.967 
  1327.500     12.968   1487.405 
  1328.000     12.448   1446.026 
  1328.500     12.328   1420.941 
  1329.000     12.791   1409.120 
  1329.500     13.444   1420.823 
  1330.000     13.810   1457.907 
  1330.500     13.833   1496.769 
  1331.000     13.772   1515.429 
  1331.500     13.801   1521.069 
  1332.000     13.852   1530.459 
  1332.500     13.758   1536.721 
  1333.000     13.432   1518.148 
  1333.500     12.951   1473.683 
  1334.000     12.506   1428.413 
  1334.500     12.224   1403.473 
  1335.000     12.092   1397.825 
  1335.500     12.076   1398.923 
  1336.000     12.172   1400.408 
  1336.500     12.234   1407.956 
  1337.000     11.973   1430.956 
  1337.500     11.311   1466.878 
  1338.000     10.605   1498.053 
  1338.500     10.306   1509.660 
  1339.000     10.491   1500.284 
  1339.500     10.898   1469.027 
  1340.000     11.293   1410.596 
  1340.500     11.616   1337.718 
  1341.000     11.877   1286.085 
  1341.500     12.090   1275.906 
  1342.000     12.306   1287.286 
  1342.500     12.555   1291.843 
  1343.000     12.792   1292.432 
  1343.500     12.959   1309.573 
  1344.000     13.157   1345.325 
  1344.500     13.510   1384.679 
  1345.000     13.817   1423.469 
  1345.500     13.701   1471.339 
  1346.000     13.253   1527.193 
  1346.500     13.035   1573.444 
  1347.000     13.082   1601.423 
  1347.500     12.896   1622.496 
  1348.000     12.905   1640.751 
  1348.500     14.321   1634.025 
  1349.000     16.661   1581.790 
  1349.500     17.956   1496.456 
  1350.000     18.898   1408.525 
  1350.500     23.642   1334.652 
  1351.000     33.798   1277.058 
  1351.500     44.638   1236.818 
  1352.000     50.703   1209.103 
  1352.500     52.648   1178.033 
  1353.000     54.905   1131.181 
  1353.500     58.866   1069.172 
  1354.000     62.420    996.234 
  1354.500     64.643    918.817 
  1355.000     66.824    855.599 
  1355.500     69.452    827.806 
  1356.000     71.336    829.975 
  1356.500     71.783    831.354 
  1357.000     71.529    814.372 
  1357.500     71.542    795.339 
  1358.000     72.160    798.778 
  1358.500     72.883    825.144 
  1359.000     72.636    855.865 
  1359.500     71.205    877.636 
  1360.000     70.184    887.607 
  1360.500     70.439    890.617 
  1361.000     69.199    905.724 
  1361.500     63.052    962.294 
  1362.000     53.582   1067.634 
  1362.500     46.368   1186.050 
  1363.000     43.958   1271.014 
  1363.500     43.706   1310.597 
  1364.000     42.801   1322.642 
  1364.500     41.763   1321.157 
  1365.000     42.019   1317.798 
  1365.500     43.443   1343.701 
  1366.000     45.021   1431.424 
  1366.500     45.492   1557.506 
  1367.000     44.082   1629.125 
  1367.500     42.189   1555.177 
  1368.000     42.944   1340.820 
  1368.500     47.155   1101.655 
  1369.000     52.322    958.428 
  1369.500     57.126    912.567 
  1370.000     62.918    865.533 
  1370.500     69.385    791.167 
  1371.000     73.820    748.217 
  1371.500     76.057    898.170 
  1372.000     77.767   1170.628 
  1372.500     75.860   1347.488 
  1373.000     64.874   1374.202 
  1373.500     48.075   1354.417 
  1374.000     37.467   1339.793 
  1374.500     39.079   1333.692 
  1375.000     45.730   1362.292 
  1375.500     47.970   1419.189 
  1376.000     45.202   1460.859 
  1376.500     42.070   1479.183 
  1377.000     40.384   1497.130 
  1377.500     39.687   1522.477 
  1378.000     41.216   1543.216 
  1378.500     46.056   1546.003 
  1379.000     51.499   1524.930 
  1379.500     53.441   1488.252 
  1380.000     51.388   1446.006 
  1380.500     48.452   1405.901 
  1381.000     47.011   1378.617 
  1381.500     46.600   1369.900 
  1382.000     45.735   1365.823 
  1382.500     43.909   1339.568 
  1383.000     41.754   1282.842 
  1383.500     40.595   1220.886 
  1384.000     41.041   1186.379 
  1384.500     42.441   1190.721 
  1385.000     43.952   1225.750 
  1385.500     46.050   1273.485 
  1386.000     49.610   1306.281 
  1386.500     52.828   1330.520 
  1387.000     55.120   1325.601 
  1387.500     57.970   1339.930 
  1388.000     60.155   1364.016 
  1388.500     66.059   1286.175 
  1389.000     75.102   1095.985 
  1389.500     83.440    940.940 
  1390.000    104.195    867.465 
  1390.500    136.253    765.981 
  1391.000    155.743    626.196 
  1391.500    162.968    552.616 
  1392.000    168.541    549.754 
  1392.500    168.425    545.891 
  1393.000    166.710    539.824 
  1393.500    168.074    552.114 
  1394.000    167.737    547.786 
  1394.500    167.811    539.039 
  1395.000    168.055    520.228 
  1395.500    167.808    500.983 
  1396.000    166.998    489.294 
  1396.500    166.179    483.711 
  1397.000    165.671    480.186 
  1397.500    165.036    478.869 
