~Version Information Block
 VERS.                2.00:     CWLS LOG ASCII STANDARD - VERSION 2.000000
 WRAP.                  NO:     One Line Per Depth Step
#
~Well Information Block
#MNEM.UNIT                     Data                         Information
#----------   ------------------------------------------   ----------------
 STRT.FT                                      100.0000:
 STOP.FT                                     3900.0000:
 STEP.FT                                        0.5000:
 NULL.                                       -999.2500:
 COMP.                                                :     COMPANY
 WELL.                                                :     WELL
 FLD .                                                :     FIELD
 CNTY.                                                :     COUNTY
 STAT.                                                :     STATE
 CTRY.                                                :     COUNTRY
 SRVC.                                                :     SERVICE COMPANY
 DATE.                                                :     DATE
 API .                                                :     API NUMBER
 UWI .                                                :     UWI NUMBER
#
~Curve Information Block
#MNEM.UNIT       API CODE      Curve Description
#----------    -------------   -------------------
 DEPT.FT                   :   Depth in Feet
 GR  .GAPI                 :   Gamma Ray
 NEUT.GAPI                 :   Neutrons
#
~A  DEPTH         GR       NEUT  
# ...
  1044.000     27.350   1483.223 
  1044.500     26.389   1486.588 
  1045.000     26.118   1466.851 
  1045.500     26.344   1450.295 
  1046.000     26.821   1466.481 
  1046.500     27.021   1468.932 
  1047.000     26.836   1435.054 
  1047.500     27.459   1401.004 
  1048.000     30.247   1376.926 
  1048.500     34.539   1347.652 
  1049.000     37.931   1331.330 
  1049.500     39.006   1320.569 
  1050.000     38.977   1278.620 
  1050.500     39.666   1269.721 
  1051.000     40.238   1406.474 
  1051.500     37.373   1666.454 
  1052.000     29.687   1959.672 
  1052.500     20.995   2249.757 
  1053.000     16.729   2480.765 
  1053.500     17.318   2541.171 
  1054.000     18.331   2542.487 
  1054.500     17.766   2549.031 
  1055.000     18.903   2412.908 
  1055.500     24.031   2129.679 
  1056.000     29.875   1911.308 
  1056.500     32.327   1812.348 
  1057.000     31.569   1663.782 
  1057.500     29.384   1489.053 
  1058.000     25.701   1469.687 
  1058.500     21.522   1546.615 
  1059.000     20.957   1570.677 
  1059.500     25.968   1560.482 
  1060.000     32.350   1551.881 
  1060.500     35.007   1517.344 
  1061.000     34.607   1461.449 
  1061.500     35.111   1404.175 
  1062.000     36.972   1342.560 
  1062.500     36.866   1285.785 
  1063.000     33.160   1269.453 
  1063.500     28.180   1313.994 
  1064.000     24.825   1375.937 
  1064.500     23.355   1401.914 
  1065.000     22.546   1417.073 
  1065.500     22.064   1442.097 
  1066.000     22.223   1449.534 
  1066.500     22.392   1490.455 
  1067.000     21.449   1610.678 
  1067.500     19.538   1715.027 
  1068.000     17.954   1733.796 
  1068.500     17.417   1705.850 
  1069.000     17.558   1632.588 
  1069.500     17.854   1556.214 
  1070.000     18.155   1483.866 
  1070.500     18.477   1419.642 
  1071.000     18.853   1391.049 
  1071.500     18.996   1432.990 
  1072.000     18.183   1541.245 
  1072.500     16.455   1661.445 
  1073.000     15.690   1742.862 
  1073.500     17.859   1782.574 
  1074.000     22.172   1794.840 
  1074.500     25.747   1764.009 
  1075.000     27.189   1670.934 
  1075.500     27.428   1541.605 
  1076.000     27.282   1429.516 
  1076.500     26.769   1344.458 
  1077.000     26.931   1249.769 
  1077.500     29.417   1185.236 
  1078.000     33.429   1165.513 
  1078.500     35.928   1170.938 
  1079.000     35.951   1188.899 
  1079.500     35.863   1186.249 
  1080.000     36.746   1180.292 
  1080.500     35.726   1288.598 
  1081.000     30.473   1531.914 
  1081.500     23.876   1747.074 
  1082.000     20.939   1848.433 
  1082.500     22.484   1942.129 
  1083.000     25.060   2074.540 
  1083.500     26.133   2127.838 
  1084.000     26.249   2049.023 
  1084.500     26.322   1898.004 
  1085.000     25.792   1822.413 
  1085.500     24.123   1761.932 
  1086.000     22.002   1782.815 
  1086.500     20.202   1961.671 
  1087.000     18.662   2151.979 
  1087.500     17.151   2385.058 
  1088.000     15.877   2672.675 
  1088.500     15.066   2781.659 
  1089.000     14.561   2744.580 
  1089.500     14.116   2734.673 
  1090.000     13.837   2694.335 
  1090.500     14.096   2620.661 
  1091.000     15.191   2598.992 
  1091.500     16.964   2593.627 
  1092.000     18.699   2613.178 
  1092.500     19.782   2626.676 
  1093.000     20.435   2612.642 
  1093.500     21.326   2565.950 
  1094.000     22.255   2504.062 
  1094.500     22.004   2439.055 
  1095.000     19.863   2397.592 
  1095.500     16.875   2424.807 
  1096.000     14.873   2502.116 
  1096.500     14.587   2552.560 
  1097.000     15.432   2556.523 
  1097.500     16.930   2552.814 
  1098.000     19.232   2548.547 
  1098.500     22.075   2520.866 
  1099.000     24.390   2463.813 
  1099.500     25.663   2388.671 
  1100.000     26.689   2315.425 
  1100.500     28.326   2244.813 
  1101.000     30.371   2157.742 
  1101.500     32.229   2059.228 
  1102.000     33.665   1990.718 
  1102.500     34.302   1988.150 
  1103.000     33.510   2040.300 
  1103.500     31.520   2100.886 
  1104.000     29.720   2130.507 
  1104.500     29.120   2111.498 
  1105.000     29.329   2040.684 
  1105.500     29.770   1933.270 
  1106.000     30.957   1827.301 
  1106.500     33.283   1756.744 
  1107.000     35.161   1722.451 
  1107.500     34.178   1678.236 
  1108.000     30.322   1621.759 
  1108.500     26.452   1581.456 
  1109.000     24.939   1571.414 
  1109.500     25.402   1594.471 
  1110.000     26.386   1634.138 
  1110.500     27.731   1656.038 
  1111.000     29.930   1656.423 
  1111.500     32.402   1657.994 
  1112.000     34.017   1649.812 
  1112.500     34.720   1601.859 
  1113.000     35.330   1538.384 
  1113.500     35.934   1522.226 
  1114.000     35.508   1555.054 
  1114.500     33.302   1586.738 
  1115.000     29.968   1654.128 
  1115.500     26.985   1820.714 
  1116.000     25.259   2034.125 
  1116.500     24.613   2186.355 
  1117.000     24.529   2220.717 
  1117.500     24.722   2174.019 
  1118.000     24.881   2104.487 
  1118.500     24.637   2034.037 
  1119.000     24.324   1967.049 
  1119.500     25.066   1915.266 
  1120.000     27.355   1883.561 
  1120.500     29.939   1858.182 
  1121.000     30.938   1827.287 
  1121.500     29.923   1801.948 
  1122.000     28.200   1805.640 
  1122.500     26.990   1847.932 
  1123.000     26.079   1913.284 
  1123.500     24.564   1971.191 
  1124.000     22.362   2028.081 
  1124.500     20.384   2086.614 
  1125.000     19.393   2139.526 
  1125.500     19.345   2195.651 
  1126.000     19.845   2246.510 
  1126.500     20.577   2253.931 
  1127.000     21.278   2233.874 
  1127.500     22.066   2230.466 
  1128.000     23.627   2199.652 
  1128.500     26.134   2121.873 
  1129.000     28.555   2104.953 
  1129.500     30.200   2117.924 
  1130.000     32.136   1946.141 
  1130.500     35.257   1627.807 
  1131.000     37.989   1446.263 
  1131.500     37.906   1425.146 
  1132.000     35.013   1388.056 
  1132.500     31.601   1380.807 
  1133.000     29.472   1533.237 
  1133.500     28.696   1747.377 
  1134.000     28.601   1846.617 
  1134.500     28.897   1812.882 
  1135.000     30.084   1735.571 
  1135.500     32.974   1648.513 
  1136.000     37.341   1499.082 
  1136.500     41.420   1295.638 
  1137.000     43.634   1162.058 
  1137.500     44.367   1150.804 
  1138.000     45.076   1158.941 
  1138.500     46.092   1193.006 
  1139.000     46.298   1226.196 
  1139.500     44.922   1273.302 
  1140.000     42.657   1300.659 
  1140.500     40.638   1311.474 
  1141.000     38.949   1321.136 
  1141.500     36.984   1329.668 
  1142.000     35.065   1334.070 
  1142.500     34.236   1343.803 
  1143.000     34.100   1434.642 
  1143.500     32.825   1560.777 
  1144.000     29.847   1770.485 
  1144.500     26.533   2072.454 
  1145.000     23.521   2316.733 
  1145.500     19.752   2512.368 
  1146.000     15.367   2620.306 
  1146.500     12.819   2632.356 
  1147.000     13.349   2626.167 
  1147.500     14.712   2626.264 
  1148.000     14.936   2539.702 
  1148.500     15.990   2362.201 
  1149.000     20.668   2235.189 
  1149.500     27.294   2193.301 
  1150.000     31.081   2145.290 
  1150.500     30.400   2097.324 
  1151.000     28.275   2107.465 
  1151.500     27.072   2163.548 
  1152.000     25.526   2267.205 
  1152.500     22.904   2417.723 
  1153.000     22.364   2543.747 
  1153.500     26.848   2621.869 
  1154.000     34.120   2644.812 
  1154.500     39.469   2503.295 
  1155.000     41.464   2214.801 
  1155.500     42.054   2030.038 
  1156.000     42.520   2047.148 
  1156.500     42.375   2091.194 
  1157.000     41.419   2069.556 
  1157.500     40.358   2055.790 
  1158.000     39.526   2086.387 
  1158.500     38.403   2143.137 
  1159.000     36.170   2209.796 
  1159.500     32.519   2250.356 
  1160.000     28.334   2240.131 
  1160.500     25.236   2193.904 
  1161.000     23.785   2151.626 
  1161.500     22.871   2170.904 
