~Version Information Block
 VERS.                2.00:     CWLS LOG ASCII STANDARD - VERSION 2.000000
 WRAP.                  NO:     One Line Per Depth Step
#
~Well Information Block
#MNEM.UNIT                     Data                         Information
#----------   ------------------------------------------   ----------------
 STRT.FT                                      100.0000:
 STOP.FT                                     3900.0000:
 STEP.FT                                        0.5000:
 NULL.                                       -999.2500:
 COMP.                                                :     COMPANY
 WELL.                                                :     WELL
 FLD .                                                :     FIELD
 CNTY.                                                :     COUNTY
 STAT.                                                :     STATE
 CTRY.                                                :     COUNTRY
 SRVC.                                                :     SERVICE COMPANY
 DATE.                                                :     DATE
 API .                                                :     API NUMBER
 UWI .                                                :     UWI NUMBER
#
~Curve Information Block
#MNEM.UNIT       API CODE      Curve Description
#----------    -------------   -------------------
 DEPT.FT                   :   Depth in Feet
 GR  .GAPI                 :   Gamma Ray
 NEUT.GAPI                 :   Neutrons
#
~A  DEPTH         GR       NEUT  
# ...
   336.000    202.110    480.220 
   336.500    202.447    484.770 
   337.000    189.966    499.112 
   337.500    168.392    520.665 
   338.000    150.428    541.460 
   338.500    142.456    556.904 
   339.000    140.945    566.615 
   339.500    140.175    565.535 
   340.000    136.776    547.895 
   340.500    133.921    523.558 
   341.000    124.320    515.711 
   341.500    120.794    533.189 
   342.000    122.125    556.632 
   342.500    107.550    561.614 
   343.000     85.079    545.557 
   343.500     90.213    524.011 
   344.000    119.814    511.232 
   344.500    134.825    513.653 
   345.000    129.684    530.013 
   345.500    128.381    547.696 
   346.000    132.137    549.288 
   346.500    131.259    531.159 
   347.000    134.026    506.511 
   347.500    143.429    486.878 
   348.000    149.521    472.898 
   348.500    152.931    466.224 
   349.000    154.638    475.164 
   349.500    156.344    501.396 
   350.000    157.113    531.446 
   350.500    156.048    548.341 
   351.000    155.007    547.871 
   351.500    156.155    540.675 
   352.000    158.482    540.266 
   352.500    159.276    549.334 
   353.000    158.903    556.552 
   353.500    160.542    547.399 
   354.000    163.194    519.153 
   354.500    158.936    486.589 
   355.000    143.256    470.847 
   355.500    124.807    477.742 
   356.000    116.620    490.589 
   356.500    119.930    492.358 
   357.000    125.420    490.827 
   357.500    128.091    506.878 
   358.000    130.702    540.050 
   358.500    134.071    564.804 
   359.000    134.420    564.636 
   359.500    130.991    552.234 
   360.000    127.545    548.978 
   360.500    125.199    557.934 
   361.000    121.080    566.260 
   361.500    115.332    565.899 
   362.000    113.046    562.111 
   362.500    117.028    563.509 
   363.000    123.492    568.848 
   363.500    127.947    568.220 
   364.000    131.303    556.507 
   364.500    136.113    540.979 
   365.000    141.216    528.929 
   365.500    144.083    515.444 
   366.000    146.657    491.974 
   366.500    152.849    467.339 
   367.000    161.141    461.949 
   367.500    165.311    476.349 
   368.000    164.453    482.688 
   368.500    165.980    460.046 
   369.000    172.344    422.392 
   369.500    173.130    399.379 
   370.000    164.039    400.310 
   370.500    163.485    414.974 
   371.000    173.215    442.451 
   371.500    207.186    500.470 
   372.000    188.226    600.194 
   372.500     97.111    717.891 
   373.000     40.498    806.738 
   373.500     41.540    847.005 
   374.000     39.069    868.584 
   374.500     32.393    898.930 
   375.000     33.827    906.729 
   375.500     35.820    839.628 
   376.000     45.395    710.815 
   376.500     56.746    597.956 
   377.000     59.307    550.179 
   377.500     59.192    542.208 
   378.000     57.995    530.067 
   378.500     55.458    511.571 
   379.000     54.904    512.773 
   379.500     53.898    543.898 
   380.000     53.034    588.685 
   380.500     53.253    625.147 
   381.000     52.293    641.519 
   381.500     52.040    640.643 
   382.000     54.572    632.516 
   382.500     53.876    622.342 
   383.000     58.472    606.078 
   383.500     70.383    580.911 
   384.000     74.201    554.890 
   384.500     74.288    540.427 
   385.000     75.076    538.603 
   385.500     75.113    539.228 
   386.000     77.774    535.258 
   386.500     79.908    530.567 
   387.000     82.121    530.846 
   387.500     84.202    533.584 
   388.000     85.699    531.678 
   388.500     86.610    523.373 
   389.000     87.394    513.127 
   389.500     87.340    502.547 
   390.000     84.850    486.736 
   390.500     80.089    463.634 
   391.000     75.735    441.625 
   391.500     74.129    430.991 
   392.000     74.758    431.248 
   392.500     75.407    434.686 
   393.000     75.020    437.223 
   393.500     74.897    438.317 
   394.000     77.005    436.196 
   394.500     81.367    432.127 
   395.000     85.767    432.759 
   395.500     88.247    439.763 
   396.000     88.898    445.627 
   396.500     88.530    447.045 
   397.000     87.020    451.841 
   397.500     84.289    463.502 
   398.000     81.601    469.896 
   398.500     80.394    458.262 
   399.000     80.710    434.369 
   399.500     81.821    417.598 
   400.000     83.314    419.979 
   400.500     84.713    435.346 
   401.000     85.102    446.852 
   401.500     84.028    442.622 
   402.000     82.125    425.450 
   402.500     80.201    406.989 
   403.000     78.194    393.671 
   403.500     75.655    383.979 
   404.000     73.160    380.010 
   404.500     72.436    390.408 
   405.000     74.515    416.515 
   405.500     78.185    445.737 
   406.000     81.121    465.565 
   406.500     82.342    476.489 
   407.000     82.764    484.977 
   407.500     83.500    491.184 
   408.000     84.596    489.679 
   408.500     85.470    477.514 
   409.000     85.729    457.432 
   409.500     85.277    436.228 
   410.000     84.151    421.177 
   410.500     82.515    415.265 
   411.000     80.663    416.586 
   411.500     79.063    423.114 
   412.000     78.408    433.919 
   412.500     79.258    444.601 
   413.000     81.326    449.016 
   413.500     83.373    447.804 
   414.000     84.226    448.618 
   414.500     83.889    456.186 
   415.000     83.253    467.049 
   415.500     82.785    474.722 
   416.000     82.098    474.191 
   416.500     80.980    462.314 
   417.000     79.957    441.252 
   417.500     79.368    420.986 
   418.000     78.828    411.899 
   418.500     78.325    414.083 
   419.000     78.814    419.779 
   419.500     80.709    426.110 
   420.000     82.762    438.933 
   420.500     83.566    461.163 
   421.000     83.403    482.543 
   421.500     83.540    487.278 
   422.000     84.397    470.739 
   422.500     85.389    444.476 
   423.000     85.929    424.682 
   423.500     85.790    420.044 
   424.000     85.065    429.966 
   424.500     84.201    448.256 
   425.000     83.582    467.050 
   425.500     83.105    481.455 
   426.000     82.872    491.633 
   426.500     83.773    498.632 
   427.000     86.272    500.845 
   427.500     89.145    497.810 
   428.000     90.668    492.794 
   428.500     90.921    487.754 
   429.000     91.692    481.936 
   429.500     93.819    477.839 
   430.000     95.475    477.729 
   430.500     93.948    474.021 
   431.000     89.338    455.976 
   431.500     85.086    427.755 
   432.000     83.517    406.021 
   432.500     82.764    399.644 
   433.000     80.289    407.008 
   433.500     76.765    428.578 
   434.000     72.988    464.060 
   434.500     66.220    504.903 
   435.000     54.628    549.739 
   435.500     42.639    615.165 
   436.000     36.357    706.222 
   436.500     35.617    790.248 
   437.000     35.519    829.801 
   437.500     33.773    829.975 
   438.000     31.756    823.277 
   438.500     30.185    819.151 
   439.000     28.308    800.752 
   439.500     26.475    764.842 
   440.000     25.999    734.245 
   440.500     26.832    729.274 
   441.000     27.633    748.210 
   441.500     27.880    778.112 
   442.000     28.463    808.606 
   442.500     30.189    831.169 
   443.000     32.525    835.749 
   443.500     34.248    817.477 
   444.000     34.833    785.751 
   444.500     34.754    758.032 
   445.000     34.648    740.593 
   445.500     34.693    723.064 
   446.000     34.794    697.242 
   446.500     34.824    673.228 
   447.000     34.580    668.068 
   447.500     33.887    685.104 
   448.000     32.769    712.725 
   448.500     31.381    738.019 
   449.000     30.069    755.270 
   449.500     29.504    765.072 
   450.000     30.220    769.825 
   450.500     31.807    769.030 
   451.000     33.175    759.470 
   451.500     33.806    741.577 
   452.000     34.137    721.938 
   452.500     34.534    708.614 
   453.000     34.756    706.961 
   453.500     34.701    718.127 
