~Version Information Block
 VERS.                2.00:     CWLS LOG ASCII STANDARD - VERSION 2.000000
 WRAP.                  NO:     One Line Per Depth Step
#
~Well Information Block
#MNEM.UNIT                     Data                         Information
#----------   ------------------------------------------   ----------------
 STRT.FT                                      100.0000:
 STOP.FT                                     3900.0000:
 STEP.FT                                        0.5000:
 NULL.                                       -999.2500:
 COMP.                                                :     COMPANY
 WELL.                                                :     WELL
 FLD .                                                :     FIELD
 CNTY.                                                :     COUNTY
 STAT.                                                :     STATE
 CTRY.                                                :     COUNTRY
 SRVC.                                                :     SERVICE COMPANY
 DATE.                                                :     DATE
 API .                                                :     API NUMBER
 UWI .                                                :     UWI NUMBER
#
~Curve Information Block
#MNEM.UNIT       API CODE      Curve Description
#----------    -------------   -------------------
 DEPT.FT                   :   Depth in Feet
 GR  .GAPI                 :   Gamma Ray
 NEUT.GAPI                 :   Neutrons
#
~A  DEPTH         GR       NEUT  
# ...
  2342.000    206.000    612.628 
  2342.500    207.881    592.909 
  2343.000    207.711    590.380 
  2343.500    206.470    589.085 
  2344.000    205.388    583.846 
  2344.500    204.169    585.833 
  2345.000    201.863    595.095 
  2345.500    198.911    598.082 
  2346.000    196.892    592.969 
  2346.500    196.313    591.209 
  2347.000    196.115    592.613 
  2347.500    195.501    585.519 
  2348.000    194.832    572.233 
  2348.500    194.382    570.351 
  2349.000    193.732    587.184 
  2349.500    192.954    612.710 
  2350.000    192.723    637.394 
  2350.500    192.551    659.154 
  2351.000    190.539    673.626 
  2351.500    186.041    673.899 
  2352.000    181.181    659.567 
  2352.500    178.481    637.168 
  2353.000    178.029    614.302 
  2353.500    178.124    597.829 
  2354.000    177.830    590.581 
  2354.500    177.572    586.705 
  2355.000    177.929    579.345 
  2355.500    179.008    574.283 
  2356.000    180.686    583.939 
  2356.500    182.574    606.487 
  2357.000    183.961    623.905 
  2357.500    184.527    623.348 
  2358.000    184.896    610.309 
  2358.500    185.836    598.364 
  2359.000    187.140    596.425 
  2359.500    188.110    608.817 
  2360.000    188.990    634.946 
  2360.500    190.808    663.488 
  2361.000    193.597    677.303 
  2361.500    195.912    671.848 
  2362.000    196.628    660.434 
  2362.500    196.226    655.506 
  2363.000    195.591    653.290 
  2363.500    194.427    645.692 
  2364.000    191.881    640.369 
  2364.500    188.268    654.816 
  2365.000    185.130    688.525 
  2365.500    183.503    714.340 
  2366.000    182.965    708.539 
  2366.500    182.726    681.408 
  2367.000    182.924    661.136 
  2367.500    184.215    653.401 
  2368.000    186.521    639.322 
  2368.500    189.051    612.036 
  2369.000    191.224    588.218 
  2369.500    192.797    577.682 
  2370.000    193.688    567.893 
  2370.500    194.436    548.769 
  2371.000    195.706    530.747 
  2371.500    196.365    526.990 
  2372.000    193.685    535.227 
  2372.500    187.063    546.784 
  2373.000    179.873    560.307 
  2373.500    175.657    577.450 
  2374.000    173.992    593.418 
  2374.500    172.187    600.120 
  2375.000    169.499    596.472 
  2375.500    167.327    592.136 
  2376.000    166.324    598.883 
  2376.500    165.692    617.661 
  2377.000    164.861    636.900 
  2377.500    164.111    645.798 
  2378.000    163.861    647.901 
  2378.500    164.564    656.550 
  2379.000    166.845    676.312 
  2379.500    170.652    693.329 
  2380.000    174.608    688.579 
  2380.500    177.157    659.048 
  2381.000    178.291    620.988 
  2381.500    179.369    593.579 
  2382.000    181.244    583.415 
  2382.500    183.297    583.488 
  2383.000    184.512    583.185 
  2383.500    184.906    581.685 
  2384.000    185.440    592.502 
  2384.500    186.629    627.762 
  2385.000    187.804    677.045 
  2385.500    188.079    712.106 
  2386.000    187.728    716.231 
  2386.500    187.819    698.870 
  2387.000    188.300    679.394 
  2387.500    187.479    667.290 
  2388.000    184.270    662.114 
  2388.500    180.217    662.093 
  2389.000    178.061    665.923 
  2389.500    178.676    671.555 
  2390.000    180.544    678.878 
  2390.500    181.969    690.437 
  2391.000    182.579    705.286 
  2391.500    182.595    715.208 
  2392.000    181.733    712.047 
  2392.500    179.401    697.653 
  2393.000    175.769    682.098 
  2393.500    172.281    672.224 
  2394.000    170.622    667.767 
  2394.500    171.130    667.740 
  2395.000    172.919    672.339 
  2395.500    175.561    677.083 
  2396.000    179.328    673.162 
  2396.500    183.431    659.252 
  2397.000    185.601    647.620 
  2397.500    184.436    651.181 
  2398.000    181.095    667.201 
  2398.500    177.866    681.810 
  2399.000    175.929    688.311 
  2399.500    175.003    689.668 
  2400.000    174.305    684.558 
  2400.500    173.280    667.730 
  2401.000    171.974    645.954 
  2401.500    171.118    634.070 
  2402.000    171.484    633.441 
  2402.500    172.935    634.817 
  2403.000    174.389    642.176 
  2403.500    174.887    667.593 
  2404.000    174.513    700.696 
  2404.500    174.073    712.040 
  2405.000    174.074    692.595 
  2405.500    174.355    665.162 
  2406.000    174.561    653.090 
  2406.500    174.553    659.068 
  2407.000    174.402    676.746 
  2407.500    174.346    702.968 
  2408.000    174.565    733.136 
  2408.500    174.715    756.641 
  2409.000    174.301    761.776 
  2409.500    173.749    742.709 
  2410.000    173.938    705.169 
  2410.500    174.172    666.913 
  2411.000    172.215    645.760 
  2411.500    167.556    645.041 
  2412.000    163.248    655.506 
  2412.500    162.933    670.786 
  2413.000    166.825    693.192 
  2413.500    171.833    722.234 
  2414.000    174.963    745.552 
  2414.500    175.492    749.753 
  2415.000    174.380    738.534 
  2415.500    172.879    729.987 
  2416.000    171.890    732.420 
  2416.500    171.907    732.488 
  2417.000    172.992    716.302 
  2417.500    174.751    692.972 
  2418.000    176.497    684.433 
  2418.500    177.656    696.228 
  2419.000    178.178    711.671 
  2419.500    178.489    715.266 
  2420.000    178.850    708.792 
  2420.500    178.905    701.791 
  2421.000    178.423    697.323 
  2421.500    178.278    692.188 
  2422.000    179.623    683.306 
  2422.500    182.024    669.211 
  2423.000    183.588    652.395 
  2423.500    183.104    644.225 
  2424.000    180.877    658.093 
  2424.500    177.406    691.337 
  2425.000    172.857    721.709 
  2425.500    168.101    729.297 
  2426.000    164.686    715.530 
  2426.500    163.182    694.668 
  2427.000    162.647    676.445 
  2427.500    162.027    666.230 
  2428.000    161.129    673.257 
  2428.500    160.165    702.655 
  2429.000    159.296    740.160 
  2429.500    158.678    758.490 
  2430.000    158.143    744.510 
  2430.500    156.939    711.849 
  2431.000    154.585    681.830 
  2431.500    151.913    661.465 
  2432.000    150.392    649.141 
  2432.500    150.444    652.058 
  2433.000    151.304    681.052 
  2433.500    152.487    729.817 
  2434.000    154.391    775.180 
  2434.500    157.170    800.591 
  2435.000    159.908    807.070 
  2435.500    161.508    800.640 
  2436.000    161.915    783.218 
  2436.500    161.858    760.055 
  2437.000    161.679    743.154 
  2437.500    161.009    739.694 
  2438.000    159.698    744.330 
  2438.500    158.381    747.508 
  2439.000    157.683    745.602 
  2439.500    157.335    740.208 
  2440.000    156.865    733.147 
  2440.500    156.789    726.669 
  2441.000    157.962    724.160 
  2441.500    159.900    725.685 
  2442.000    161.294    725.277 
  2442.500    162.175    717.367 
  2443.000    163.512    705.073 
  2443.500    164.472    695.850 
  2444.000    162.525    691.140 
  2444.500    157.258    687.341 
  2445.000    151.934    686.059 
  2445.500    149.984    693.013 
  2446.000    151.434    706.174 
  2446.500    153.805    716.831 
  2447.000    155.420    724.307 
  2447.500    156.889    736.094 
  2448.000    159.540    749.634 
  2448.500    162.689    749.735 
  2449.000    163.403    730.693 
  2449.500    160.132    706.276 
  2450.000    155.566    690.341 
  2450.500    153.860    681.543 
  2451.000    155.646    675.441 
  2451.500    158.187    678.102 
  2452.000    159.949    696.692 
  2452.500    162.079    724.364 
  2453.000    165.434    744.914 
  2453.500    168.902    751.353 
  2454.000    171.381    754.442 
  2454.500    173.435    769.706 
  2455.000    175.939    794.956 
  2455.500    178.363    807.236 
  2456.000    179.441    789.468 
  2456.500    178.959    755.028 
  2457.000    178.199    734.021 
  2457.500    178.859    738.282 
  2458.000    181.955    751.742 
  2458.500    187.190    752.559 
  2459.000    192.460    732.760 
  2459.500    194.604    699.058 
