~Version Information Block
 VERS.                2.00:     CWLS LOG ASCII STANDARD - VERSION 2.000000
 WRAP.                  NO:     One Line Per Depth Step
#
~Well Information Block
#MNEM.UNIT                     Data                         Information
#----------   ------------------------------------------   ----------------
 STRT.FT                                      100.0000:
 STOP.FT                                     3900.0000:
 STEP.FT                                        0.5000:
 NULL.                                       -999.2500:
 COMP.                                                :     COMPANY
 WELL.                                                :     WELL
 FLD .                                                :     FIELD
 CNTY.                                                :     COUNTY
 STAT.                                                :     STATE
 CTRY.                                                :     COUNTRY
 SRVC.                                                :     SERVICE COMPANY
 DATE.                                                :     DATE
 API .                                                :     API NUMBER
 UWI .                                                :     UWI NUMBER
#
~Curve Information Block
#MNEM.UNIT       API CODE      Curve Description
#----------    -------------   -------------------
 DEPT.FT                   :   Depth in Feet
 GR  .GAPI                 :   Gamma Ray
 NEUT.GAPI                 :   Neutrons
#
~A  DEPTH         GR       NEUT  
   100.000     67.782    456.303 
   100.500     69.456    456.303 
   101.000     71.130    439.496 
   101.500     72.385    414.286 
   102.000     72.385    414.286 
   102.500     72.385    405.882 
   103.000     70.711    405.882 
   103.500     67.364    405.882 
   104.000     64.017    414.286 
   104.500     61.925    422.689 
   105.000     61.088    439.496 
   105.500     60.669    447.899 
   106.000     60.251    481.513 
   106.500     59.414    489.916 
   107.000     59.631    491.138 
   107.500     58.892    491.495 
   108.000     59.152    488.907 
   108.500     60.957    489.484 
   109.000     62.911    485.419 
   109.500     62.393    464.799 
   110.000     60.101    431.166 
   110.500     60.773    403.847 
   111.000     66.548    400.213 
   111.500     73.447    421.364 
   112.000     78.314    451.849 
   112.500     84.569    471.299 
   113.000     95.625    471.542 
   113.500    107.097    464.276 
   114.000    112.073    466.899 
   114.500    110.807    480.482 
   115.000    109.042    488.981 
   115.500    109.379    481.673 
   116.000    109.780    467.158 
   116.500    108.650    462.071 
   117.000    106.838    472.743 
   117.500    105.600    492.628 
   118.000    105.467    513.251 
   118.500    106.399    532.048 
   119.000    107.621    548.988 
   119.500    108.113    560.344 
   120.000    107.715    559.201 
   120.500    106.954    541.392 
   121.000    105.902    510.189 
   121.500    104.229    476.141 
   122.000    102.342    452.495 
   122.500    101.361    447.101 
   123.000    101.724    455.490 
   123.500    102.684    464.592 
   124.000    103.399    466.012 
   124.500    103.826    464.044 
   125.000    104.150    468.658 
   125.500    104.184    482.353 
   126.000    103.978    496.748 
   126.500    104.185    501.525 
   127.000    104.973    494.613 
   127.500    105.605    482.176 
   128.000    106.130    469.674 
   128.500    108.254    456.094 
   129.000    113.007    437.450 
   129.500    118.565    414.208 
   130.000    122.124    393.415 
   130.500    123.287    380.367 
   131.000    123.986    370.724 
   131.500    125.474    360.263 
   132.000    127.012    360.988 
   132.500    127.567    389.706 
   133.000    127.519    435.355 
   133.500    128.122    459.970 
   134.000    129.815    444.252 
   134.500    131.681    411.932 
   135.000    132.655    396.221 
   135.500    132.756    403.454 
   136.000    132.686    422.465 
   136.500    132.560    444.940 
   137.000    131.804    461.628 
   137.500    130.210    462.673 
   138.000    128.470    456.259 
   138.500    127.602    464.825 
   139.000    128.254    489.560 
   139.500    130.368    502.029 
   140.000    133.043    484.602 
   140.500    134.942    457.231 
   141.000    135.338    448.961 
   141.500    134.640    460.770 
   142.000    133.505    473.462 
   142.500    131.874    477.627 
   143.000    129.528    478.442 
   143.500    127.129    479.499 
   144.000    125.905    477.395 
   144.500    126.526    470.815 
   145.000    128.881    463.856 
   145.500    132.462    457.948 
   146.000    136.266    448.841 
   146.500    138.906    436.288 
   147.000    139.704    431.139 
   147.500    139.396    443.982 
   148.000    139.159    469.033 
   148.500    139.314    489.650 
   149.000    139.453    499.731 
   149.500    139.361    508.283 
   150.000    139.204    521.430 
   150.500    139.024    532.122 
   151.000    138.551    530.159 
   151.500    137.594    513.775 
   152.000    136.421    490.620 
   152.500    135.571    474.389 
   153.000    135.278    477.138 
   153.500    135.396    496.298 
   154.000    135.863    512.826 
   154.500    136.719    509.735 
   155.000    137.702    488.968 
   155.500    138.382    465.990 
   156.000    138.327    454.774 
   156.500    136.748    462.465 
   157.000    132.884    487.774 
   157.500    127.657    517.694 
   158.000    123.944    534.126 
   158.500    124.058    531.794 
   159.000    127.613    522.677 
   159.500    132.356    517.636 
   160.000    136.210    512.557 
   160.500    138.532    498.094 
   161.000    140.312    474.362 
   161.500    142.336    450.143 
   162.000    142.463    435.086 
   162.500    137.047    436.120 
   163.000    126.428    454.148 
   163.500    116.112    482.262 
   164.000    110.815    512.765 
   164.500    110.384    542.579 
   165.000    112.725    565.725 
   165.500    116.800    569.722 
   166.000    121.186    551.933 
   166.500    123.702    530.951 
   167.000    124.326    525.483 
   167.500    125.436    530.496 
   168.000    128.199    531.309 
   168.500    131.726    530.415 
   169.000    135.961    537.136 
   169.500    141.916    539.685 
   170.000    148.645    517.182 
   170.500    153.176    477.186 
   171.000    154.193    451.759 
   171.500    153.527    453.153 
   172.000    153.342    460.858 
   172.500    153.658    459.325 
   173.000    153.358    460.154 
   173.500    152.115    476.356 
   174.000    150.352    498.169 
   174.500    148.241    508.766 
   175.000    145.699    506.430 
   175.500    142.995    498.660 
   176.000    140.620    488.946 
   176.500    138.679    480.930 
   177.000    136.903    481.065 
   177.500    135.240    485.611 
   178.000    134.209    479.151 
   178.500    134.664    459.057 
   179.000    137.157    446.538 
   179.500    141.185    458.360 
   180.000    145.125    481.501 
   180.500    147.436    493.206 
   181.000    147.971    493.197 
   181.500    147.677    496.464 
   182.000    147.178    504.879 
   182.500    146.376    507.094 
   183.000    145.286    500.938 
   183.500    144.412    496.487 
   184.000    144.204    498.084 
   184.500    144.767    498.391 
   185.000    146.120    492.209 
   185.500    148.134    485.430 
   186.000    150.130    486.567 
   186.500    151.111    495.670 
   187.000    150.714    505.338 
   187.500    149.712    510.407 
   188.000    149.379    513.743 
   188.500    150.348    521.604 
   189.000    152.182    533.053 
   189.500    153.947    535.683 
   190.000    154.984    517.490 
   190.500    155.234    484.152 
   191.000    155.136    457.829 
   191.500    155.183    454.100 
   192.000    155.142    465.209 
   192.500    153.838    472.027 
   193.000    150.419    467.595 
   193.500    145.846    461.758 
   194.000    142.280    464.961 
   194.500    140.874    475.864 
   195.000    140.901    486.146 
   195.500    141.174    492.230 
   196.000    141.384    497.929 
   196.500    141.712    507.678 
   197.000    141.959    521.006 
   197.500    141.665    533.874 
   198.000    140.624    542.377 
   198.500    139.132    543.775 
   199.000    138.101    536.638 
   199.500    138.800    522.880 
   200.000    141.665    508.649 
   200.500    145.351    499.366 
   201.000    147.863    493.424 
   201.500    148.618    484.004 
   202.000    148.580    467.744 
   202.500    148.543    449.442 
   203.000    148.551    436.592 
   203.500    148.949    430.695 
   204.000    150.433    426.446 
   204.500    152.613    419.541 
   205.000    154.042    413.697 
   205.500    154.268    415.570 
   206.000    154.376    423.634 
   206.500    154.757    430.014 
   207.000    154.100    435.643 
   207.500    151.908    452.495 
   208.000    149.971    485.251 
   208.500    149.415    520.217 
   209.000    148.196    538.408 
   209.500    143.818    531.827 
   210.000    136.812    505.150 
   210.500    129.701    470.817 
   211.000    124.505    443.028 
   211.500    122.792    427.832 
   212.000    125.534    420.401 
   212.500    130.986    418.151 
   213.000    135.112    428.026 
   213.500    136.012    452.074 
   214.000    135.786    476.095 
   214.500    137.029    484.931 
   215.000    139.846    479.549 
   215.500    143.160    469.433 
   216.000    146.426    458.761 
   216.500    149.049    448.804 
   217.000    150.239    442.608 
   217.500    150.252    439.424 
