~Version Information Block
 VERS.                2.00:     CWLS LOG ASCII STANDARD - VERSION 2.000000
 WRAP.                  NO:     One Line Per Depth Step
#
~Well Information Block
#MNEM.UNIT                     Data                         Information
#----------   ------------------------------------------   ----------------
 STRT.FT                                      100.0000:
 STOP.FT                                     3900.0000:
 STEP.FT                                        0.5000:
 NULL.                                       -999.2500:
 COMP.                                                :     COMPANY
 WELL.                                                :     WELL
 FLD .                                                :     FIELD
 CNTY.                                                :     COUNTY
 STAT.                                                :     STATE
 CTRY.                                                :     COUNTRY
 SRVC.                                                :     SERVICE COMPANY
 DATE.                                                :     DATE
 API .                                                :     API NUMBER
 UWI .                                                :     UWI NUMBER
#
~Curve Information Block
#MNEM.UNIT       API CODE      Curve Description
#----------    -------------   -------------------
 DEPT.FT                   :   Depth in Feet
 GR  .GAPI                 :   Gamma Ray
 NEUT.GAPI                 :   Neutrons
#
~A  DEPTH         GR       NEUT  
# ...
  3050.000     14.618   2884.399 
  3050.500     16.428   2858.452 
  3051.000     18.362   2856.607 
  3051.500     19.359   2860.559 
  3052.000     19.325   2838.829 
  3052.500     18.986   2792.353 
  3053.000     18.821   2753.056 
  3053.500     18.776   2747.036 
  3054.000     18.794   2779.278 
  3054.500     18.930   2839.863 
  3055.000     18.938   2900.226 
  3055.500     18.433   2919.846 
  3056.000     17.564   2884.402 
  3056.500     17.010   2826.504 
  3057.000     17.078   2789.198 
  3057.500     17.278   2785.253 
  3058.000     17.137   2809.453 
  3058.500     16.980   2864.225 
  3059.000     17.469   2943.209 
  3059.500     18.599   3008.345 
  3060.000     19.617   3020.764 
  3060.500     19.887   2992.178 
  3061.000     19.591   2976.005 
  3061.500     19.466   3002.061 
  3062.000     19.917   3044.075 
  3062.500     20.479   3056.944 
  3063.000     20.392   3022.198 
  3063.500     19.640   2946.853 
  3064.000     18.983   2847.195 
  3064.500     18.937   2754.125 
  3065.000     19.197   2710.448 
  3065.500     19.222   2731.557 
  3066.000     18.910   2779.538 
  3066.500     18.477   2808.132 
  3067.000     18.153   2827.577 
  3067.500     18.152   2886.919 
  3068.000     18.550   2989.000 
  3068.500     18.988   3065.210 
  3069.000     18.841   3059.200 
  3069.500     17.963   3002.571 
  3070.000     16.988   2972.792 
  3070.500     16.524   2994.506 
  3071.000     16.369   3019.299 
  3071.500     16.097   3000.562 
  3072.000     16.096   2953.155 
  3072.500     17.126   2923.205 
  3073.000     18.861   2922.348 
  3073.500     19.935   2916.158 
  3074.000     19.695   2872.830 
  3074.500     18.932   2798.818 
  3075.000     18.636   2721.237 
  3075.500     18.931   2659.564 
  3076.000     19.481   2626.196 
  3076.500     20.135   2632.818 
  3077.000     20.837   2673.587 
  3077.500     21.420   2715.719 
  3078.000     21.731   2731.010 
  3078.500     21.731   2732.250 
  3079.000     21.517   2758.268 
  3079.500     21.344   2821.837 
  3080.000     21.360   2890.148 
  3080.500     21.252   2924.785 
  3081.000     20.586   2921.973 
  3081.500     19.542   2903.572 
  3082.000     18.877   2887.933 
  3082.500     18.954   2886.449 
  3083.000     19.386   2908.427 
  3083.500     19.819   2944.233 
  3084.000     20.445   2962.366 
  3084.500     21.377   2946.348 
  3085.000     22.206   2914.826 
  3085.500     22.758   2885.089 
  3086.000     23.716   2845.929 
  3086.500     25.627   2788.908 
  3087.000     27.777   2731.566 
  3087.500     29.028   2681.439 
  3088.000     29.470   2613.100 
  3088.500     30.221   2514.542 
  3089.000     31.716   2426.462 
  3089.500     33.208   2397.339 
  3090.000     34.011   2419.425 
  3090.500     34.344   2444.378 
  3091.000     34.712   2445.151 
  3091.500     35.171   2429.250 
  3092.000     35.545   2405.390 
  3092.500     35.888   2375.683 
  3093.000     36.295   2353.975 
  3093.500     36.678   2356.914 
  3094.000     36.960   2379.872 
  3094.500     37.242   2407.425 
  3095.000     37.439   2441.248 
  3095.500     37.246   2489.361 
  3096.000     36.842   2531.047 
  3096.500     36.761   2529.451 
  3097.000     36.758   2484.588 
  3097.500     36.039   2443.535 
  3098.000     34.880   2446.704 
  3098.500     34.143   2490.777 
  3099.000     32.942   2557.967 
  3099.500     29.345   2655.056 
  3100.000     24.011   2792.839 
  3100.500     20.314   2939.835 
  3101.000     19.875   3032.535 
  3101.500     20.646   3039.320 
  3102.000     20.414   2990.555 
  3102.500     19.584   2938.316 
  3103.000     19.396   2906.848 
  3103.500     19.708   2889.708 
  3104.000     19.770   2873.354 
  3104.500     19.544   2848.501 
  3105.000     19.265   2812.967 
  3105.500     18.827   2774.756 
  3106.000     18.274   2747.291 
  3106.500     18.026   2737.090 
  3107.000     18.107   2732.580 
  3107.500     17.973   2711.027 
  3108.000     17.637   2683.053 
  3108.500     18.333   2647.832 
  3109.000     21.116   2587.097 
  3109.500     25.346   2523.945 
  3110.000     29.167   2480.950 
  3110.500     31.278   2426.126 
  3111.000     31.887   2387.743 
  3111.500     32.158   2473.751 
  3112.000     32.797   2668.558 
  3112.500     32.958   2823.824 
  3113.000     30.975   2885.199 
  3113.500     26.629   2906.973 
  3114.000     21.937   2899.768 
  3114.500     19.073   2856.469 
  3115.000     18.384   2817.010 
  3115.500     19.115   2774.869 
  3116.000     20.808   2733.150 
  3116.500     23.016   2696.944 
  3117.000     24.680   2674.492 
  3117.500     25.010   2668.590 
  3118.000     24.551   2676.948 
  3118.500     24.478   2701.028 
  3119.000     24.993   2736.721 
  3119.500     25.033   2763.517 
  3120.000     23.602   2764.190 
  3120.500     21.196   2747.302 
  3121.000     19.721   2733.756 
  3121.500     20.709   2729.524 
  3122.000     23.575   2729.606 
  3122.500     26.003   2735.066 
  3123.000     26.145   2749.712 
  3123.500     24.088   2767.223 
  3124.000     21.198   2771.696 
  3124.500     18.598   2753.199 
  3125.000     16.630   2725.709 
  3125.500     15.407   2726.396 
  3126.000     15.267   2781.670 
  3126.500     16.451   2872.750 
  3127.000     18.498   2955.094 
  3127.500     20.355   3006.914 
  3128.000     21.289   3033.851 
  3128.500     21.461   3035.442 
  3129.000     21.385   3002.913 
  3129.500     21.248   2943.426 
  3130.000     21.171   2871.106 
  3130.500     21.647   2784.040 
  3131.000     22.947   2684.748 
  3131.500     24.415   2608.684 
  3132.000     24.962   2592.847 
  3132.500     24.245   2627.888 
  3133.000     22.908   2676.460 
  3133.500     21.819   2726.845 
  3134.000     21.353   2791.569 
  3134.500     21.322   2862.627 
  3135.000     21.345   2906.510 
  3135.500     21.289   2905.918 
  3136.000     21.367   2878.949 
  3136.500     21.792   2851.917 
  3137.000     22.461   2835.264 
  3137.500     23.081   2831.487 
  3138.000     23.487   2846.436 
  3138.500     23.719   2878.744 
  3139.000     23.927   2907.134 
  3139.500     24.244   2901.570 
  3140.000     24.625   2846.522 
  3140.500     24.793   2751.365 
  3141.000     24.617   2641.607 
  3141.500     24.605   2543.304 
  3142.000     25.648   2471.604 
  3142.500     28.024   2427.372 
  3143.000     30.896   2403.732 
  3143.500     33.059   2396.501 
  3144.000     33.977   2407.097 
  3144.500     33.913   2435.880 
  3145.000     33.361   2476.645 
  3145.500     32.714   2519.620 
  3146.000     32.265   2557.183 
  3146.500     32.149   2588.803 
  3147.000     32.232   2618.789 
  3147.500     32.263   2643.597 
  3148.000     32.189   2644.816 
  3148.500     32.175   2609.988 
  3149.000     32.276   2560.478 
  3149.500     32.277   2539.048 
  3150.000     32.096   2561.928 
  3150.500     32.095   2600.262 
  3151.000     32.636   2616.528 
  3151.500     33.459   2604.967 
  3152.000     34.069   2594.815 
  3152.500     34.531   2619.542 
  3153.000     35.192   2681.080 
  3153.500     35.949   2735.888 
  3154.000     36.417   2725.006 
  3154.500     36.680   2625.172 
  3155.000     37.157   2465.534 
  3155.500     37.915   2301.657 
  3156.000     38.747   2179.941 
  3156.500     39.483   2114.539 
  3157.000     40.062   2089.401 
  3157.500     40.963   2089.065 
  3158.000     43.193   2127.102 
  3158.500     46.432   2229.720 
  3159.000     47.839   2388.535 
  3159.500     44.851   2541.806 
  3160.000     39.118   2612.550 
  3160.500     35.404   2571.864 
  3161.000     36.468   2463.252 
  3161.500     40.882   2353.071 
  3162.000     45.620   2309.051 
  3162.500     49.037   2254.507 
  3163.000     51.578   2163.723 
  3163.500     54.621   2089.035 
  3164.000     58.124   2033.063 
  3164.500     59.424   1982.845 
  3165.000     56.129   1954.617 
  3165.500     50.013   1936.692 
  3166.000     45.445   1921.353 
  3166.500     44.077   1938.102 
  3167.000     43.956   1987.373 
  3167.500     43.516   2066.262 
