~Version Information Block
 VERS.                2.00:     CWLS LOG ASCII STANDARD - VERSION 2.000000
 WRAP.                  NO:     One Line Per Depth Step
#
~Well Information Block
#MNEM.UNIT                     Data                         Information
#----------   ------------------------------------------   ----------------
 STRT.FT                                      100.0000:
 STOP.FT                                     3900.0000:
 STEP.FT                                        0.5000:
 NULL.                                       -999.2500:
 COMP.                                                :     COMPANY
 WELL.                                                :     WELL
 FLD .                                                :     FIELD
 CNTY.                                                :     COUNTY
 STAT.                                                :     STATE
 CTRY.                                                :     COUNTRY
 SRVC.                                                :     SERVICE COMPANY
 DATE.                                                :     DATE
 API .                                                :     API NUMBER
 UWI .                                                :     UWI NUMBER
#
~Curve Information Block
#MNEM.UNIT       API CODE      Curve Description
#----------    -------------   -------------------
 DEPT.FT                   :   Depth in Feet
 GR  .GAPI                 :   Gamma Ray
 NEUT.GAPI                 :   Neutrons
#
~A  DEPTH         GR       NEUT  
# ...
  2106.000    109.622    811.101 
  2106.500    109.063    827.405 
  2107.000    107.396    834.709 
  2107.500    102.706    822.976 
  2108.000     99.905    781.746 
  2108.500    105.897    723.251 
  2109.000    118.403    674.899 
  2109.500    127.667    652.131 
  2110.000    129.759    653.479 
  2110.500    130.025    670.640 
  2111.000    132.669    687.551 
  2111.500    135.264    684.674 
  2112.000    135.083    662.267 
  2112.500    133.688    645.949 
  2113.000    133.188    653.391 
  2113.500    133.028    671.474 
  2114.000    131.933    680.308 
  2114.500    129.906    681.966 
  2115.000    127.674    688.474 
  2115.500    125.981    695.633 
  2116.000    125.212    688.828 
  2116.500    125.052    665.283 
  2117.000    125.044    635.663 
  2117.500    125.221    608.081 
  2118.000    126.035    586.464 
  2118.500    127.378    579.693 
  2119.000    128.620    596.850 
  2119.500    129.273    632.054 
  2120.000    129.433    665.088 
  2120.500    129.696    681.056 
  2121.000    130.331    680.990 
  2121.500    130.586    671.179 
  2122.000    129.844    653.806 
  2122.500    128.828    635.699 
  2123.000    127.867    636.587 
  2123.500    124.894    673.364 
  2124.000    118.349    734.531 
  2124.500    111.366    782.439 
  2125.000    108.986    789.216 
  2125.500    111.296    762.007 
  2126.000    113.746    724.217 
  2126.500    114.446    684.104 
  2127.000    116.500    638.008 
  2127.500    122.176    595.340 
  2128.000    128.977    576.203 
  2128.500    133.202    585.510 
  2129.000    134.252    607.541 
  2129.500    133.776    629.363 
  2130.000    132.707    652.763 
  2130.500    130.852    678.922 
  2131.000    128.294    697.486 
  2131.500    125.634    698.878 
  2132.000    122.915    688.030 
  2132.500    119.520    679.408 
  2133.000    115.744    682.485 
  2133.500    113.657    691.891 
  2134.000    115.645    689.829 
  2134.500    121.613    662.515 
  2135.000    128.292    617.480 
  2135.500    131.878    580.476 
  2136.000    131.349    570.869 
  2136.500    128.754    584.072 
  2137.000    126.474    600.193 
  2137.500    124.901    606.369 
  2138.000    123.057    608.264 
  2138.500    120.702    621.850 
  2139.000    118.956    653.758 
  2139.500    118.606    688.669 
  2140.000    118.719    701.268 
  2140.500    118.085    682.777 
  2141.000    117.696    648.971 
  2141.500    119.937    619.003 
  2142.000    124.987    595.657 
  2142.500    129.917    574.141 
  2143.000    132.265    560.671 
  2143.500    132.731    568.593 
  2144.000    133.249    596.078 
  2144.500    134.163    621.132 
  2145.000    134.597    623.283 
  2145.500    134.354    603.555 
  2146.000    134.121    579.267 
  2146.500    134.303    565.563 
  2147.000    134.547    565.936 
  2147.500    134.345    573.456 
  2148.000    133.663    575.490 
  2148.500    132.732    564.061 
  2149.000    131.458    546.960 
  2149.500    129.705    542.514 
  2150.000    128.106    558.466 
  2150.500    127.404    582.454 
  2151.000    127.006    597.391 
  2151.500    125.763    599.285 
  2152.000    124.483    595.479 
  2152.500    125.543    592.604 
  2153.000    129.345    591.484 
  2153.500    133.199    590.482 
  2154.000    134.729    589.704 
  2154.500    134.672    590.793 
  2155.000    135.241    592.699 
  2155.500    137.083    590.066 
  2156.000    138.957    579.858 
  2156.500    139.561    567.478 
  2157.000    138.735    560.504 
  2157.500    137.132    558.166 
  2158.000    135.426    554.155 
  2158.500    133.885    547.987 
  2159.000    132.453    546.108 
  2159.500    131.098    552.124 
  2160.000    130.110    561.760 
  2160.500    129.796    568.795 
  2161.000    129.837    571.841 
  2161.500    129.152    573.561 
  2162.000    127.023    576.227 
  2162.500    124.305    579.566 
  2163.000    123.050    582.595 
  2163.500    124.624    586.227 
  2164.000    128.379    592.967 
  2164.500    132.400    603.783 
  2165.000    135.547    615.416 
  2165.500    138.089    621.635 
  2166.000    139.929    619.376 
  2166.500    139.450    614.961 
  2167.000    135.627    620.451 
  2167.500    130.420    640.879 
  2168.000    126.958    668.530 
  2168.500    125.544    691.746 
  2169.000    123.798    702.612 
  2169.500    120.962    693.889 
  2170.000    119.478    660.912 
  2170.500    121.444    614.299 
  2171.000    125.594    580.137 
  2171.500    129.069    578.021 
  2172.000    130.716    605.162 
  2172.500    131.401    644.145 
  2173.000    131.841    675.653 
  2173.500    131.885    684.204 
  2174.000    131.629    669.233 
  2174.500    131.769    652.307 
  2175.000    132.291    656.094 
  2175.500    132.001    675.104 
  2176.000    130.366    683.715 
  2176.500    128.331    671.828 
  2177.000    126.203    655.004 
  2177.500    122.770    648.655 
  2178.000    118.685    650.384 
  2178.500    118.280    650.838 
  2179.000    124.387    647.670 
  2179.500    133.131    643.569 
  2180.000    137.976    639.169 
  2180.500    137.699    633.324 
  2181.000    136.328    625.473 
  2181.500    136.441    613.562 
  2182.000    136.967    593.332 
  2182.500    136.959    565.591 
  2183.000    137.181    542.866 
  2183.500    137.845    539.639 
  2184.000    137.890    554.314 
  2184.500    136.920    570.236 
  2185.000    135.433    577.337 
  2185.500    133.187    581.958 
  2186.000    129.338    591.799 
  2186.500    124.857    603.298 
  2187.000    123.264    609.635 
  2187.500    127.183    611.033 
  2188.000    134.184    611.942 
  2188.500    138.678    614.838 
  2189.000    138.745    618.796 
  2189.500    138.091    618.656 
  2190.000    139.735    609.026 
  2190.500    141.380    594.879 
  2191.000    139.964    591.614 
  2191.500    136.985    607.048 
  2192.000    135.546    629.927 
  2192.500    135.451    644.509 
  2193.000    134.774    649.720 
  2193.500    133.163    654.877 
  2194.000    130.762    661.176 
  2194.500    127.427    658.015 
  2195.000    125.184    637.299 
  2195.500    127.336    605.283 
  2196.000    133.149    577.878 
  2196.500    137.556    566.111 
  2197.000    137.817    567.502 
  2197.500    136.472    571.960 
  2198.000    136.386    574.718 
  2198.500    137.007    580.582 
  2199.000    136.960    596.645 
  2199.500    136.751    624.049 
  2200.000    137.063    655.257 
  2200.500    137.251    674.689 
  2201.000    136.735    666.121 
  2201.500    135.869    629.105 
  2202.000    134.746    586.467 
  2202.500    132.961    564.985 
  2203.000    130.923    568.805 
  2203.500    129.829    580.413 
  2204.000    129.967    584.002 
  2204.500    130.266    577.674 
  2205.000    129.980    568.227 
  2205.500    129.475    565.148 
  2206.000    129.216    575.558 
  2206.500    129.019    595.941 
  2207.000    128.683    614.115 
  2207.500    128.628    624.533 
  2208.000    129.510    633.402 
  2208.500    131.513    645.532 
  2209.000    134.043    655.345 
  2209.500    136.148    655.267 
  2210.000    137.350    644.627 
  2210.500    137.982    627.498 
  2211.000    138.538    608.229 
  2211.500    139.064    592.527 
  2212.000    139.405    588.700 
  2212.500    139.650    602.847 
  2213.000    140.023    629.414 
  2213.500    140.660    649.965 
  2214.000    141.579    650.852 
  2214.500    142.476    641.927 
  2215.000    142.654    645.259 
  2215.500    141.674    663.884 
  2216.000    139.896    676.724 
  2216.500    137.879    668.528 
  2217.000    135.643    647.794 
  2217.500    133.037    630.109 
  2218.000    130.436    620.047 
  2218.500    128.460    615.049 
  2219.000    127.327    612.136 
  2219.500    126.890    604.487 
  2220.000    126.968    583.925 
  2220.500    127.417    553.772 
  2221.000    128.227    530.629 
  2221.500    129.610    527.812 
  2222.000    131.585    542.358 
  2222.500    133.473    560.561 
  2223.000    134.372    571.720 
  2223.500    134.296    574.319 
