~Version Information Block
 VERS.                2.00:     CWLS LOG ASCII STANDARD - VERSION 2.000000
 WRAP.                  NO:     One Line Per Depth Step
#
~Well Information Block
#MNEM.UNIT                     Data                         Information
#----------   ------------------------------------------   ----------------
 STRT.FT                                      100.0000:
 STOP.FT                                     3900.0000:
 STEP.FT                                        0.5000:
 NULL.                                       -999.2500:
 COMP.                                                :     COMPANY
 WELL.                                                :     WELL
 FLD .                                                :     FIELD
 CNTY.                                                :     COUNTY
 STAT.                                                :     STATE
 CTRY.                                                :     COUNTRY
 SRVC.                                                :     SERVICE COMPANY
 DATE.                                                :     DATE
 API .                                                :     API NUMBER
 UWI .                                                :     UWI NUMBER
#
~Curve Information Block
#MNEM.UNIT       API CODE      Curve Description
#----------    -------------   -------------------
 DEPT.FT                   :   Depth in Feet
 GR  .GAPI                 :   Gamma Ray
 NEUT.GAPI                 :   Neutrons
#
~A  DEPTH         GR       NEUT  
# ...
  3758.000     39.685   2186.902 
  3758.500     41.442   2137.406 
  3759.000     43.724   2128.986 
  3759.500     46.545   2148.319 
  3760.000     50.624   2169.539 
  3760.500     56.305   2182.776 
  3761.000     61.981   2193.735 
  3761.500     64.632   2204.701 
  3762.000     63.075   2209.805 
  3762.500     59.689   2203.762 
  3763.000     57.563   2189.237 
  3763.500     56.915   2177.760 
  3764.000     56.194   2184.072 
  3764.500     55.610   2211.116 
  3765.000     56.997   2241.766 
  3765.500     60.650   2254.696 
  3766.000     64.766   2243.346 
  3766.500     67.454   2207.872 
  3767.000     67.538   2140.600 
  3767.500     64.390   2045.211 
  3768.000     58.861   1958.575 
  3768.500     53.491   1921.019 
  3769.000     50.426   1928.944 
  3769.500     49.795   1950.290 
  3770.000     50.477   1979.208 
  3770.500     50.273   2031.942 
  3771.000     46.810   2097.222 
  3771.500     41.265   2140.075 
  3772.000     39.386   2152.228 
  3772.500     45.044   2146.844 
  3773.000     55.442   2112.325 
  3773.500     62.129   2029.987 
  3774.000     69.928   1933.972 
  3774.500     83.314   1892.191 
  3775.000     97.753   1921.205 
  3775.500    104.215   1968.130 
  3776.000     95.594   1985.295 
  3776.500     79.161   1977.033 
  3777.000     72.616   1963.829 
  3777.500     76.559   1940.095 
  3778.000     75.719   1890.712 
  3778.500     68.510   1828.488 
  3779.000     63.555   1788.380 
  3779.500     58.884   1783.662 
  3780.000     50.327   1787.858 
  3780.500     41.747   1772.265 
  3781.000     36.992   1753.339 
  3781.500     39.429   1773.968 
  3782.000     52.128   1836.396 
  3782.500     67.072   1886.208 
  3783.000     70.753   1880.808 
  3783.500     65.028   1848.134 
  3784.000     62.667   1841.501 
  3784.500     65.147   1861.266 
  3785.000     64.551   1869.552 
  3785.500     63.598   1860.304 
  3786.000     71.894   1849.194 
  3786.500     85.498   1805.753 
  3787.000     92.256   1678.133 
  3787.500     93.244   1493.616 
  3788.000     95.334   1360.741 
  3788.500     96.174   1349.502 
  3789.000    100.488   1424.964 
  3789.500    118.818   1509.666 
  3790.000    130.307   1560.303 
  3790.500    102.713   1576.883 
  3791.000     56.359   1584.511 
  3791.500     37.152   1612.863 
  3792.000     42.305   1669.488 
  3792.500     44.719   1732.937 
  3793.000     48.666   1782.533 
  3793.500     62.381   1815.642 
  3794.000     71.008   1833.731 
  3794.500     69.557   1841.068 
  3795.000     70.197   1855.687 
  3795.500     73.107   1893.682 
  3796.000     70.423   1951.658 
  3796.500     65.633   2017.879 
  3797.000     64.425   2079.169 
  3797.500     62.759   2101.332 
  3798.000     56.776   2047.778 
  3798.500     51.404   1941.949 
  3799.000     48.887   1861.717 
  3799.500     43.924   1844.895 
  3800.000     39.586   1850.359 
  3800.500     47.681   1835.766 
  3801.000     64.333   1814.968 
  3801.500     72.597   1809.054 
  3802.000     70.421   1801.049 
  3802.500     68.216   1776.694 
  3803.000     67.971   1760.162 
  3803.500     67.157   1772.102 
  3804.000     68.058   1793.862 
  3804.500     66.503   1803.016 
  3805.000     65.180   1806.063 
  3805.500     63.904   1810.155 
  3806.000     59.722   1798.633 
  3806.500     52.825   1763.434 
  3807.000     49.435   1732.624 
  3807.500     54.455   1734.546 
  3808.000     64.097   1757.145 
  3808.500     70.909   1764.271 
  3809.000     72.802   1736.653 
  3809.500     71.222   1682.097 
  3810.000     65.323   1623.523 
  3810.500     54.991   1591.147 
  3811.000     45.539   1608.683 
  3811.500     42.023   1670.347 
  3812.000     42.705   1738.957 
  3812.500     44.176   1776.594 
  3813.000     48.145   1771.741 
  3813.500     57.164   1736.285 
  3814.000     68.009   1693.840 
  3814.500     75.042   1674.254 
  3815.000     76.202   1697.171 
  3815.500     72.579   1751.647 
  3816.000     65.462   1810.266 
  3816.500     57.114   1865.386 
  3817.000     50.781   1927.339 
  3817.500     47.488   1993.714 
  3818.000     45.787   2050.928 
  3818.500     45.151   2097.591 
  3819.000     46.087   2131.195 
  3819.500     47.337   2124.718 
  3820.000     44.992   2057.349 
  3820.500     41.649   1957.267 
  3821.000     46.320   1874.811 
  3821.500     62.580   1822.677 
  3822.000     85.026   1774.706 
  3822.500    103.871   1715.163 
  3823.000    112.280   1662.686 
  3823.500    112.445   1648.078 
  3824.000    110.270   1681.542 
  3824.500    107.633   1738.643 
  3825.000    105.814   1779.152 
  3825.500    105.375   1782.839 
  3826.000    102.283   1761.609 
  3826.500     98.087   1733.834 
  3827.000    102.375   1699.975 
  3827.500    112.056   1652.076 
  3828.000    117.472   1596.433 
  3828.500    117.315   1553.601 
  3829.000    114.186   1538.026 
  3829.500    110.953   1550.219 
  3830.000    108.976   1591.460 
  3830.500    108.668   1666.077 
  3831.000    107.921   1752.860 
  3831.500    104.740   1798.988 
  3832.000    102.275   1773.711 
  3832.500    105.515   1709.303 
  3833.000    112.568   1651.800 
  3833.500    117.425   1597.261 
  3834.000    119.025   1519.688 
  3834.500    118.077   1442.306 
  3835.000    108.556   1423.813 
  3835.500     85.441   1490.977 
  3836.000     59.080   1584.182 
  3836.500     47.228   1684.354 
  3837.000     51.344   1778.169 
  3837.500     55.340   1833.055 
  3838.000     51.199   1834.597 
  3838.500     51.179   1793.868 
  3839.000     67.110   1734.253 
  3839.500     90.250   1678.898 
  3840.000    102.599   1603.381 
  3840.500    100.106   1471.749 
  3841.000     93.445   1370.063 
  3841.500     90.785   1428.143 
  3842.000     91.056   1577.331 
  3842.500     91.736   1629.804 
  3843.000     93.278   1594.009 
  3843.500     95.435   1563.410 
  3844.000     96.327   1590.157 
  3844.500     95.900   1635.761 
  3845.000     95.819   1649.906 
  3845.500     96.362   1641.739 
  3846.000     96.217   1643.331 
  3846.500     94.867   1657.194 
  3847.000     93.149   1666.391 
  3847.500     91.852   1666.746 
  3848.000     90.853   1667.520 
  3848.500     90.193   1673.913 
  3849.000     90.649   1681.464 
  3849.500     92.869   1686.346 
  3850.000     96.146   1689.838 
  3850.500     98.981   1692.744 
  3851.000    100.888   1690.047 
  3851.500    102.562   1674.668 
  3852.000    104.307   1644.127 
  3852.500    105.561   1603.850 
  3853.000    106.217   1566.682 
  3853.500    107.040   1549.621 
  3854.000    108.346   1564.131 
  3854.500    109.564   1605.775 
  3855.000    110.332   1657.276 
  3855.500    110.775   1705.424 
  3856.000    110.772   1750.189 
  3856.500    110.433   1792.755 
  3857.000    111.026   1822.593 
  3857.500    113.620   1828.478 
  3858.000    116.930   1817.723 
  3858.500    118.344   1808.865 
  3859.000    117.071   1805.683 
  3859.500    114.657   1793.382 
  3860.000    112.590   1762.571 
  3860.500    111.145   1722.041 
  3861.000    110.503   1684.311 
  3861.500    111.140   1652.497 
  3862.000    112.694   1625.848 
  3862.500    113.796   1606.032 
  3863.000    113.613   1591.329 
  3863.500    112.704   1573.672 
  3864.000    112.001   1548.604 
  3864.500    111.619   1522.968 
  3865.000    111.105   1506.491 
  3865.500    110.401   1500.576 
  3866.000    109.909   1501.404 
  3866.500    109.695   1509.068 
  3867.000    109.342   1525.420 
  3867.500    108.867   1544.999 
  3868.000    109.256   1558.392 
  3868.500    111.347   1565.328 
  3869.000    114.371   1573.884 
  3869.500    116.390   1583.437 
  3870.000    116.404   1580.517 
  3870.500    115.295   1558.121 
  3871.000    114.428   1530.482 
  3871.500    114.065   1518.702 
  3872.000    113.584   1527.168 
  3872.500    112.671   1544.296 
  3873.000    111.636   1562.588 
  3873.500    110.799   1584.578 
  3874.000    110.195   1606.449 
  3874.500    109.919   1610.325 
  3875.000    110.279   1585.023 
  3875.500    111.485   1547.006 
