~Version Information Block
 VERS.                2.00:     CWLS LOG ASCII STANDARD - VERSION 2.000000
 WRAP.                  NO:     One Line Per Depth Step
#
~Well Information Block
#MNEM.UNIT                     Data                         Information
#----------   ------------------------------------------   ----------------
 STRT.FT                                        0.0000:
 STOP.FT                                     9910.0000:
 STEP.FT                                        0.5000:
 NULL.                                       -999.2500:
 COMP.                                                :     COMPANY
 WELL.                                                :     WELL
 FLD .                                                :     FIELD
 CNTY.                                                :     COUNTY
 STAT.                                                :     STATE
 CTRY.                                                :     COUNTRY
 SRVC.                                                :     SERVICE COMPANY
 DATE.                                                :     DATE
 API .                                                :     API NUMBER
 UWI .                                                :     UWI NUMBER
#
~Curve Information Block
#MNEM.UNIT       API CODE      Curve Description
#----------    -------------   -------------------
 DEPT.FT                   :   Depth in Feet
 GR  .GAPI                 :   Gamma Ray
 RHOB.G/C3                 :   Bulk Density
#
~A  DEPTH         GR       RHOB  
# ...
  1888.000    131.652   -999.250 
  1888.500    131.724   -999.250 
  1889.000    133.380   -999.250 
  1889.500    135.998   -999.250 
  1890.000    137.601   -999.250 
  1890.500    136.477   -999.250 
  1891.000    132.791   -999.250 
  1891.500    128.047   -999.250 
  1892.000    123.739   -999.250 
  1892.500    120.866   -999.250 
  1893.000    119.641   -999.250 
  1893.500    119.417   -999.250 
  1894.000    119.319   -999.250 
  1894.500    119.008   -999.250 
  1895.000    118.529   -999.250 
  1895.500    118.201   -999.250 
  1896.000    118.869   -999.250 
  1896.500    120.840   -999.250 
  1897.000    122.794   -999.250 
  1897.500    123.762   -999.250 
  1898.000    125.106   -999.250 
  1898.500    127.412   -999.250 
  1899.000    126.941   -999.250 
  1899.500    120.019   -999.250 
  1900.000    110.178   -999.250 
  1900.500    105.518   -999.250 
  1901.000    108.692   -999.250 
  1901.500    114.501   -999.250 
  1902.000    117.725   -999.250 
  1902.500    118.438   -999.250 
  1903.000    118.797   -999.250 
  1903.500    119.089   -999.250 
  1904.000    118.553   -999.250 
  1904.500    117.166   -999.250 
  1905.000    115.459   -999.250 
  1905.500    114.252   -999.250 
  1906.000    114.722   -999.250 
  1906.500    117.197   -999.250 
  1907.000    120.167   -999.250 
  1907.500    121.814   -999.250 
  1908.000    122.150   -999.250 
  1908.500    122.570   -999.250 
  1909.000    123.609   -999.250 
  1909.500    124.697   -999.250 
  1910.000    125.594   -999.250 
  1910.500    126.673   -999.250 
  1911.000    127.937   -999.250 
  1911.500    128.838   -999.250 
  1912.000    129.101   -999.250 
  1912.500    128.925   -999.250 
  1913.000    128.575   -999.250 
  1913.500    128.266   -999.250 
  1914.000    128.172   -999.250 
  1914.500    128.257   -999.250 
  1915.000    128.385   -999.250 
  1915.500    128.552   -999.250 
  1916.000    128.574   -999.250 
  1916.500    127.762   -999.250 
  1917.000    125.636   -999.250 
  1917.500    122.818   -999.250 
  1918.000    120.433   -999.250 
  1918.500    118.814   -999.250 
  1919.000    117.395   -999.250 
  1919.500    115.721   -999.250 
  1920.000    113.878   -999.250 
  1920.500    112.126   -999.250 
  1921.000    110.719   -999.250 
  1921.500    109.808   -999.250 
  1922.000    109.128   -999.250 
  1922.500    108.402   -999.250 
  1923.000    108.080   -999.250 
  1923.500    108.446   -999.250 
  1924.000    107.822   -999.250 
  1924.500    103.852   -999.250 
  1925.000     97.551   -999.250 
  1925.500     93.950   -999.250 
  1926.000     96.955   -999.250 
  1926.500    104.813   -999.250 
  1927.000    112.374   -999.250 
  1927.500    116.754   -999.250 
  1928.000    118.890   -999.250 
  1928.500    120.140   -999.250 
  1929.000    119.893   -999.250 
  1929.500    117.216   -999.250 
  1930.000    112.908   -999.250 
  1930.500    108.438   -999.250 
  1931.000    104.116   -999.250 
  1931.500     99.877   -999.250 
  1932.000     96.866   -999.250 
  1932.500     96.343   -999.250 
  1933.000     97.587   -999.250 
  1933.500     98.775   -999.250 
  1934.000     99.486   -999.250 
  1934.500    100.730   -999.250 
  1935.000    102.890   -999.250 
  1935.500    105.311   -999.250 
  1936.000    107.679   -999.250 
  1936.500    110.264   -999.250 
  1937.000    112.808   -999.250 
  1937.500    114.532   -999.250 
  1938.000    115.294   -999.250 
  1938.500    115.558   -999.250 
  1939.000    115.236   -999.250 
  1939.500    113.948   -999.250 
  1940.000    112.665   -999.250 
  1940.500    113.504   -999.250 
  1941.000    117.198   -999.250 
  1941.500    121.730   -999.250 
  1942.000    123.953   -999.250 
  1942.500    122.140   -999.250 
  1943.000    117.531   -999.250 
  1943.500    114.076   -999.250 
  1944.000    115.437   -999.250 
  1944.500    120.756   -999.250 
  1945.000    124.662   -999.250 
  1945.500    123.077   -999.250 
  1946.000    117.775   -999.250 
  1946.500    113.543   -999.250 
  1947.000    112.367   -999.250 
  1947.500    112.434   -999.250 
  1948.000    111.816   -999.250 
  1948.500    110.770   -999.250 
  1949.000    110.570   -999.250 
  1949.500    111.594   -999.250 
  1950.000    112.903   -999.250 
  1950.500    112.985   -999.250 
  1951.000    110.876   -999.250 
  1951.500    106.969   -999.250 
  1952.000    102.598   -999.250 
  1952.500     98.594   -999.250 
  1953.000     94.895   -999.250 
  1953.500     92.028   -999.250 
  1954.000     91.589   -999.250 
  1954.500     94.090   -999.250 
  1955.000     97.672   -999.250 
  1955.500    100.480   -999.250 
  1956.000    102.971   -999.250 
  1956.500    106.207   -999.250 
  1957.000    109.442   -999.250 
  1957.500    111.280   -999.250 
  1958.000    111.743   -999.250 
  1958.500    111.577   -999.250 
  1959.000    111.156   -999.250 
  1959.500    111.258   -999.250 
  1960.000    112.994   -999.250 
  1960.500    115.885   -999.250 
  1961.000    118.025   -999.250 
  1961.500    118.763   -999.250 
  1962.000    119.166   -999.250 
  1962.500    119.447   -999.250 
  1963.000    118.338   -999.250 
  1963.500    115.560   -999.250 
  1964.000    112.891   -999.250 
  1964.500    111.923   -999.250 
  1965.000    112.289   -999.250 
  1965.500    112.844   -999.250 
  1966.000    113.345   -999.250 
  1966.500    114.248   -999.250 
  1967.000    115.680   -999.250 
  1967.500    117.340   -999.250 
  1968.000    119.056   -999.250 
  1968.500    120.833   -999.250 
  1969.000    122.469   -999.250 
  1969.500    123.668   -999.250 
  1970.000    124.365   -999.250 
  1970.500    124.608   -999.250 
  1971.000    124.220   -999.250 
  1971.500    123.032   -999.250 
  1972.000    121.421   -999.250 
  1972.500    120.298   -999.250 
  1973.000    120.403   -999.250 
  1973.500    121.651   -999.250 
  1974.000    123.153   -999.250 
  1974.500    123.974   -999.250 
  1975.000    123.848   -999.250 
  1975.500    123.070   -999.250 
  1976.000    121.978   -999.250 
  1976.500    120.746   -999.250 
  1977.000    119.519   -999.250 
  1977.500    118.305   -999.250 
  1978.000    116.932   -999.250 
  1978.500    115.377   -999.250 
  1979.000    113.826   -999.250 
  1979.500    112.363   -999.250 
  1980.000    111.052   -999.250 
  1980.500    110.240   -999.250 
  1981.000    109.917   -999.250 
  1981.500    108.942   -999.250 
  1982.000    106.133   -999.250 
  1982.500    102.406   -999.250 
  1983.000    100.571   -999.250 
  1983.500    102.225   -999.250 
  1984.000    105.746   -999.250 
  1984.500    108.267   -999.250 
  1985.000    109.059   -999.250 
  1985.500    109.877   -999.250 
  1986.000    112.052   -999.250 
  1986.500    114.484   -999.250 
  1987.000    115.117   -999.250 
  1987.500    113.737   -999.250 
  1988.000    112.258   -999.250 
  1988.500    112.225   -999.250 
  1989.000    113.002   -999.250 
  1989.500    112.992   -999.250 
  1990.000    111.813   -999.250 
  1990.500    110.301   -999.250 
  1991.000    108.876   -999.250 
  1991.500    107.200   -999.250 
  1992.000    105.420   -999.250 
  1992.500    104.486   -999.250 
  1993.000    105.025   -999.250 
  1993.500    106.752   -999.250 
  1994.000    109.100   -999.250 
  1994.500    111.453   -999.250 
  1995.000    112.713   -999.250 
  1995.500    112.080   -999.250 
  1996.000    110.798   -999.250 
  1996.500    111.747   -999.250 
  1997.000    116.243   -999.250 
  1997.500    122.106   -999.250 
  1998.000    125.809   -999.250 
  1998.500    125.883   -999.250 
  1999.000    123.531   -999.250 
  1999.500    120.787   -999.250 
  2000.000    118.917   -999.250 
  2000.500    118.025   -999.250 
  2001.000    117.408   -999.250 
  2001.500    116.496   -999.250 
  2002.000    115.529   -999.250 
  2002.500    115.043   -999.250 
  2003.000    115.058   -999.250 
  2003.500    115.368   -999.250 
  2004.000    116.130   -999.250 
  2004.500    117.444   -999.250 
  2005.000    118.896   -999.250 
  2005.500    120.015   -999.250 
