~Version Information Block
 VERS.                2.00:     CWLS LOG ASCII STANDARD - VERSION 2.000000
 WRAP.                  NO:     One Line Per Depth Step
#
~Well Information Block
#MNEM.UNIT                     Data                         Information
#----------   ------------------------------------------   ----------------
 STRT.FT                                        0.0000:
 STOP.FT                                     9910.0000:
 STEP.FT                                        0.5000:
 NULL.                                       -999.2500:
 COMP.                                                :     COMPANY
 WELL.                                                :     WELL
 FLD .                                                :     FIELD
 CNTY.                                                :     COUNTY
 STAT.                                                :     STATE
 CTRY.                                                :     COUNTRY
 SRVC.                                                :     SERVICE COMPANY
 DATE.                                                :     DATE
 API .                                                :     API NUMBER
 UWI .                                                :     UWI NUMBER
#
~Curve Information Block
#MNEM.UNIT       API CODE      Curve Description
#----------    -------------   -------------------
 DEPT.FT                   :   Depth in Feet
 GR  .GAPI                 :   Gamma Ray
 RHOB.G/C3                 :   Bulk Density
#
~A  DEPTH         GR       RHOB  
# ...
  4484.000    162.852      2.348 
  4484.500    161.297      2.267 
  4485.000    160.507      2.223 
  4485.500    160.677      2.198 
  4486.000    161.093      2.081 
  4486.500    160.995      2.055 
  4487.000    161.362      2.014 
  4487.500    163.806      2.137 
  4488.000    169.735      2.272 
  4488.500    178.387      2.501 
  4489.000    185.006      2.505 
  4489.500    185.446      2.512 
  4490.000    185.223      2.522 
  4490.500    194.138      2.535 
  4491.000    210.201      2.535 
  4491.500    224.804      2.484 
  4492.000    238.062      2.478 
  4492.500    253.188      2.463 
  4493.000    266.703      2.415 
  4493.500    276.207      2.411 
  4494.000    283.359      2.399 
  4494.500    287.188      2.350 
  4495.000    287.188      2.279 
  4495.500    286.563      2.300 
  4496.000    284.688      2.327 
  4496.500    283.438      2.275 
  4497.000    282.188      2.253 
  4497.500    266.563      2.300 
  4498.000    206.563      2.439 
  4498.500    192.813      2.490 
  4499.000    154.850      2.495 
  4499.500    178.438      2.543 
  4500.000    147.813      2.588 
  4500.500    116.563      2.636 
  4501.000    101.563      2.700 
  4501.500    101.563      2.761 
  4502.000     85.938      2.775 
  4502.500     84.513      2.765 
  4503.000     85.784      2.772 
  4503.500     86.341      2.769 
  4504.000     87.386      2.758 
  4504.500     91.225      2.750 
  4505.000     93.191      2.740 
  4505.500     98.215      2.677 
  4506.000    109.946      2.675 
  4506.500    111.646      2.679 
  4507.000    107.023      2.681 
  4507.500    106.806      2.679 
  4508.000    105.508      2.658 
  4508.500    103.577      2.646 
  4509.000    104.040      2.629 
  4509.500    105.406      2.612 
  4510.000    107.305      2.589 
  4510.500    109.136      2.520 
  4511.000    108.892      2.394 
  4511.500    107.242      2.459 
  4512.000    104.634      2.548 
  4512.500     99.559      2.628 
  4513.000     91.717      2.733 
  4513.500     84.869      2.831 
  4514.000     83.533      2.842 
  4514.500     87.207      2.832 
  4515.000     91.329      2.828 
  4515.500     93.451      2.801 
  4516.000     95.696      2.798 
  4516.500     99.881      2.802 
  4517.000    104.052      2.722 
  4517.500    106.150      2.634 
  4518.000    108.438      2.627 
  4518.500    109.797      2.634 
  4519.000    111.563      2.631 
  4519.500    112.188      2.634 
  4520.000    118.438      2.631 
  4520.500    119.688      2.631 
  4521.000    147.813      2.605 
  4521.500    157.041      2.571 
  4522.000    164.063      2.559 
  4522.500    189.063      2.532 
  4523.000    258.087      2.487 
  4523.500    267.188      2.481 
  4524.000    274.688      2.508 
  4524.500    290.938      2.523 
  4525.000    299.688      2.488 
  4525.500    148.438      2.441 
  4526.000    148.438      2.405 
  4526.500    170.417      2.358 
  4527.000    191.970      2.323 
  4527.500    213.522      2.322 
  4528.000    235.075      2.330 
  4528.500    256.628      2.333 
  4529.000    278.180      2.335 
  4529.500    297.813      2.340 
  4530.000    274.688      2.347 
  4530.500    257.188      2.340 
  4531.000    254.688      2.315 
  4531.500    238.438      2.304 
  4532.000    233.438      2.316 
  4532.500    225.938      2.322 
  4533.000    217.188      2.311 
  4533.500    150.938      2.335 
  4534.000    148.725      2.436 
  4534.500    147.188      2.557 
  4535.000    104.063      2.633 
  4535.500     93.438      2.664 
  4536.000     91.563      2.668 
  4536.500     90.938      2.679 
  4537.000     90.313      2.694 
  4537.500     90.313      2.705 
  4538.000     89.688      2.710 
  4538.500     93.438      2.699 
  4539.000     94.688      2.699 
  4539.500     96.563      2.731 
  4540.000    104.063      2.760 
  4540.500    107.188      2.771 
  4541.000    113.412      2.777 
  4541.500    112.796      2.761 
  4542.000    107.032      2.729 
  4542.500     99.723      2.720 
  4543.000     93.957      2.720 
  4543.500     90.067      2.721 
  4544.000     87.034      2.714 
  4544.500     85.126      2.701 
  4545.000     84.644      2.687 
  4545.500     84.797      2.677 
  4546.000     87.792      2.668 
  4546.500     96.234      2.662 
  4547.000    105.536      2.665 
  4547.500    110.739      2.669 
  4548.000    115.105      2.669 
  4548.500    119.828      2.669 
  4549.000    118.576      2.682 
  4549.500    109.768      2.707 
  4550.000     97.740      2.728 
  4550.500     85.102      2.731 
  4551.000     77.836      2.723 
  4551.500     83.477      2.719 
  4552.000     95.695      2.719 
  4552.500    101.245      2.719 
  4553.000    101.555      2.718 
  4553.500    104.628      2.722 
  4554.000    106.080      2.732 
  4554.500    103.328      2.739 
  4555.000    110.570      2.739 
  4555.500    132.370      2.733 
  4556.000    146.615      2.727 
  4556.500    140.771      2.723 
  4557.000    130.319      2.716 
  4557.500    127.392      2.697 
  4558.000    114.035      2.664 
  4558.500     81.777      2.623 
  4559.000     61.563      2.586 
  4559.500     57.367      2.557 
  4560.000     54.996      2.539 
  4560.500     52.064      2.537 
  4561.000     46.269      2.554 
  4561.500     44.304      2.579 
  4562.000     46.154      2.594 
  4562.500     45.928      2.594 
  4563.000     43.173      2.589 
  4563.500     38.236      2.588 
  4564.000     33.442      2.588 
  4564.500     30.379      2.585 
  4565.000     30.400      2.578 
  4565.500     33.486      2.570 
  4566.000     38.290      2.565 
  4566.500     43.141      2.567 
  4567.000     46.356      2.571 
  4567.500     47.046      2.574 
  4568.000     45.671      2.574 
  4568.500     42.622      2.568 
  4569.000     38.278      2.554 
  4569.500     34.357      2.530 
  4570.000     31.495      2.505 
  4570.500     28.115      2.494 
  4571.000     25.100      2.495 
  4571.500     26.067      2.501 
  4572.000     30.231      2.509 
  4572.500     34.512      2.518 
  4573.000     37.171      2.522 
  4573.500     38.067      2.514 
  4574.000     37.814      2.498 
  4574.500     37.152      2.484 
  4575.000     37.308      2.476 
  4575.500     39.096      2.470 
  4576.000     41.361      2.462 
  4576.500     41.847      2.454 
  4577.000     40.183      2.447 
  4577.500     38.848      2.446 
  4578.000     40.176      2.448 
  4578.500     43.345      2.453 
  4579.000     45.737      2.460 
  4579.500     46.465      2.465 
  4580.000     46.505      2.466 
  4580.500     45.809      2.465 
  4581.000     43.074      2.467 
  4581.500     38.524      2.475 
  4582.000     34.268      2.477 
  4582.500     31.393      2.467 
  4583.000     29.017      2.452 
  4583.500     26.620      2.438 
  4584.000     25.000      2.423 
  4584.500     24.473      2.402 
  4585.000     24.167      2.381 
  4585.500     23.500      2.370 
  4586.000     22.827      2.368 
  4586.500     22.428      2.372 
  4587.000     22.172      2.383 
  4587.500     22.209      2.402 
  4588.000     22.881      2.422 
  4588.500     23.937      2.433 
  4589.000     24.657      2.438 
  4589.500     24.712      2.444 
  4590.000     24.305      2.455 
  4590.500     23.618      2.466 
  4591.000     22.808      2.472 
  4591.500     22.372      2.475 
  4592.000     22.828      2.479 
  4592.500     24.005      2.485 
  4593.000     25.139      2.492 
  4593.500     25.608      2.499 
  4594.000     25.214      2.507 
  4594.500     23.975      2.511 
  4595.000     22.259      2.502 
  4595.500     20.958      2.480 
  4596.000     20.921      2.456 
  4596.500     22.178      2.441 
  4597.000     24.047      2.433 
  4597.500     25.886      2.429 
  4598.000     27.364      2.426 
  4598.500     28.263      2.424 
  4599.000     28.434      2.425 
  4599.500     27.939      2.424 
  4600.000     26.934      2.415 
  4600.500     25.483      2.395 
  4601.000     23.686      2.375 
  4601.500     21.883      2.366 
