~Version Information Block
 VERS.                2.00:     CWLS LOG ASCII STANDARD - VERSION 2.000000
 WRAP.                  NO:     One Line Per Depth Step
#
~Well Information Block
#MNEM.UNIT                     Data                         Information
#----------   ------------------------------------------   ----------------
 STRT.FT                                        0.0000:
 STOP.FT                                     9910.0000:
 STEP.FT                                        0.5000:
 NULL.                                       -999.2500:
 COMP.                                                :     COMPANY
 WELL.                                                :     WELL
 FLD .                                                :     FIELD
 CNTY.                                                :     COUNTY
 STAT.                                                :     STATE
 CTRY.                                                :     COUNTRY
 SRVC.                                                :     SERVICE COMPANY
 DATE.                                                :     DATE
 API .                                                :     API NUMBER
 UWI .                                                :     UWI NUMBER
#
~Curve Information Block
#MNEM.UNIT       API CODE      Curve Description
#----------    -------------   -------------------
 DEPT.FT                   :   Depth in Feet
 GR  .GAPI                 :   Gamma Ray
 RHOB.G/C3                 :   Bulk Density
#
~A  DEPTH         GR       RHOB  
# ...
  5782.000     26.934      2.850 
  5782.500     25.257      2.849 
  5783.000     23.008      2.845 
  5783.500     21.585      2.838 
  5784.000     21.369      2.829 
  5784.500     21.627      2.819 
  5785.000     21.586      2.812 
  5785.500     21.071      2.810 
  5786.000     20.459      2.816 
  5786.500     20.602      2.831 
  5787.000     22.230      2.846 
  5787.500     24.762      2.857 
  5788.000     26.370      2.860 
  5788.500     25.999      2.860 
  5789.000     24.642      2.862 
  5789.500     23.889      2.865 
  5790.000     23.947      2.866 
  5790.500     23.920      2.865 
  5791.000     23.327      2.860 
  5791.500     22.429      2.853 
  5792.000     21.497      2.845 
  5792.500     20.553      2.836 
  5793.000     19.641      2.817 
  5793.500     18.834      2.782 
  5794.000     18.124      2.742 
  5794.500     17.554      2.711 
  5795.000     17.260      2.699 
  5795.500     17.216      2.704 
  5796.000     17.246      2.717 
  5796.500     17.462      2.733 
  5797.000     18.225      2.744 
  5797.500     19.528      2.751 
  5798.000     20.810      2.753 
  5798.500     21.649      2.753 
  5799.000     22.223      2.756 
  5799.500     22.861      2.762 
  5800.000     23.590      2.771 
  5800.500     24.379      2.780 
  5801.000     25.235      2.789 
  5801.500     25.773      2.798 
  5802.000     25.337      2.807 
  5802.500     23.934      2.814 
  5803.000     22.517      2.822 
  5803.500     21.944      2.826 
  5804.000     22.117      2.822 
  5804.500     22.437      2.809 
  5805.000     22.638      2.792 
  5805.500     22.800      2.779 
  5806.000     22.972      2.770 
  5806.500     23.263      2.763 
  5807.000     24.037      2.759 
  5807.500     25.572      2.757 
  5808.000     27.535      2.760 
  5808.500     29.130      2.766 
  5809.000     29.800      2.774 
  5809.500     29.611      2.778 
  5810.000     29.035      2.779 
  5810.500     28.533      2.780 
  5811.000     28.275      2.787 
  5811.500     28.061      2.796 
  5812.000     27.622      2.805 
  5812.500     27.083      2.811 
  5813.000     26.937      2.816 
  5813.500     27.482      2.820 
  5814.000     28.534      2.820 
  5814.500     29.671      2.814 
  5815.000     30.415      2.802 
  5815.500     30.321      2.789 
  5816.000     29.452      2.777 
  5816.500     28.697      2.769 
  5817.000     29.011      2.763 
  5817.500     30.362      2.757 
  5818.000     31.925      2.752 
  5818.500     33.149      2.752 
  5819.000     34.027      2.757 
  5819.500     34.479      2.761 
  5820.000     34.212      2.759 
  5820.500     33.300      2.751 
  5821.000     32.353      2.743 
  5821.500     31.778      2.734 
  5822.000     31.191      2.724 
  5822.500     29.934      2.714 
  5823.000     27.987      2.706 
  5823.500     26.024      2.701 
  5824.000     24.622      2.696 
  5824.500     23.859      2.694 
  5825.000     23.662      2.693 
  5825.500     24.001      2.694 
  5826.000     24.651      2.693 
  5826.500     25.194      2.686 
  5827.000     25.412      2.674 
  5827.500     25.370      2.663 
  5828.000     25.196      2.662 
  5828.500     25.151      2.674 
  5829.000     25.671      2.695 
  5829.500     26.890      2.712 
  5830.000     28.276      2.723 
  5830.500     29.241      2.729 
  5831.000     29.963      2.731 
  5831.500     31.087      2.733 
  5832.000     32.704      2.738 
  5832.500     34.183      2.742 
  5833.000     34.987      2.741 
  5833.500     35.090      2.731 
  5834.000     34.616      2.718 
  5834.500     33.665      2.707 
  5835.000     32.625      2.700 
  5835.500     32.015      2.702 
  5836.000     31.802      2.718 
  5836.500     31.555      2.746 
  5837.000     31.526      2.776 
  5837.500     32.656      2.802 
  5838.000     35.062      2.825 
  5838.500     37.707      2.842 
  5839.000     40.243      2.851 
  5839.500     43.713      2.856 
  5840.000     48.227      2.863 
  5840.500     51.449      2.870 
  5841.000     51.203      2.873 
  5841.500     48.599      2.872 
  5842.000     46.764      2.870 
  5842.500     47.103      2.870 
  5843.000     48.618      2.870 
  5843.500     50.294      2.869 
  5844.000     52.286      2.869 
  5844.500     54.643      2.871 
  5845.000     56.530      2.876 
  5845.500     57.342      2.880 
  5846.000     57.754      2.882 
  5846.500     59.078      2.884 
  5847.000     61.786      2.886 
  5847.500     64.957      2.887 
  5848.000     66.975      2.883 
  5848.500     66.435      2.875 
  5849.000     62.621      2.866 
  5849.500     55.990      2.862 
  5850.000     48.640      2.859 
  5850.500     43.414      2.854 
  5851.000     41.662      2.844 
  5851.500     42.227      2.835 
  5852.000     43.349      2.836 
  5852.500     44.823      2.849 
  5853.000     47.203      2.862 
  5853.500     49.599      2.867 
  5854.000     49.974      2.872 
  5854.500     47.780      2.887 
  5855.000     44.913      2.905 
  5855.500     43.424      2.913 
  5856.000     43.133      2.909 
  5856.500     42.291      2.902 
  5857.000     40.131      2.900 
  5857.500     37.814      2.901 
  5858.000     36.669      2.903 
  5858.500     36.542      2.907 
  5859.000     36.767      2.913 
  5859.500     37.777      2.916 
  5860.000     40.370      2.913 
  5860.500     43.800      2.906 
  5861.000     46.234      2.900 
  5861.500     47.027      2.897 
  5862.000     47.161      2.895 
  5862.500     47.488      2.892 
  5863.000     47.904      2.890 
  5863.500     48.243      2.894 
  5864.000     48.747      2.905 
  5864.500     49.304      2.920 
  5865.000     49.261      2.927 
  5865.500     47.957      2.923 
  5866.000     45.359      2.914 
  5866.500     42.532      2.907 
  5867.000     41.595      2.904 
  5867.500     44.041      2.899 
  5868.000     48.705      2.892 
  5868.500     52.900      2.887 
  5869.000     56.096      2.883 
  5869.500     60.171      2.877 
  5870.000     64.920      2.873 
  5870.500     66.349      2.870 
  5871.000     61.884      2.869 
  5871.500     54.692      2.868 
  5872.000     49.814      2.867 
  5872.500     47.992      2.869 
  5873.000     46.380      2.876 
  5873.500     43.742      2.883 
  5874.000     41.648      2.887 
  5874.500     41.255      2.890 
  5875.000     41.813      2.897 
  5875.500     42.484      2.908 
  5876.000     43.541      2.919 
  5876.500     45.053      2.927 
  5877.000     45.644      2.935 
  5877.500     43.718      2.940 
  5878.000     39.851      2.941 
  5878.500     36.933      2.936 
  5879.000     37.170      2.931 
  5879.500     39.622      2.926 
  5880.000     41.775      2.920 
  5880.500     42.622      2.911 
  5881.000     43.101      2.903 
  5881.500     43.844      2.895 
  5882.000     44.052      2.884 
  5882.500     42.754      2.869 
  5883.000     40.135      2.851 
  5883.500     37.178      2.833 
  5884.000     34.599      2.816 
  5884.500     32.581      2.800 
  5885.000     31.177      2.790 
  5885.500     30.407      2.785 
  5886.000     29.926      2.784 
  5886.500     29.102      2.782 
  5887.000     27.685      2.776 
  5887.500     26.149      2.767 
  5888.000     25.120      2.758 
  5888.500     24.687      2.751 
  5889.000     24.522      2.746 
  5889.500     24.357      2.741 
  5890.000     24.000      2.736 
  5890.500     23.206      2.732 
  5891.000     22.050      2.727 
  5891.500     21.190      2.723 
  5892.000     21.194      2.719 
  5892.500     21.760      2.715 
  5893.000     22.157      2.714 
  5893.500     22.265      2.723 
  5894.000     22.553      2.746 
  5894.500     23.278      2.774 
  5895.000     24.354      2.796 
  5895.500     25.727      2.815 
  5896.000     27.153      2.843 
  5896.500     27.779      2.880 
  5897.000     26.829      2.914 
  5897.500     24.675      2.939 
  5898.000     22.503      2.958 
  5898.500     21.006      2.972 
  5899.000     20.150      2.984 
  5899.500     20.035      2.985 
