~Version Information Block
 VERS.                2.00:     CWLS LOG ASCII STANDARD - VERSION 2.000000
 WRAP.                  NO:     One Line Per Depth Step
#
~Well Information Block
#MNEM.UNIT                     Data                         Information
#----------   ------------------------------------------   ----------------
 STRT.FT                                        0.0000:
 STOP.FT                                     9910.0000:
 STEP.FT                                        0.5000:
 NULL.                                       -999.2500:
 COMP.                                                :     COMPANY
 WELL.                                                :     WELL
 FLD .                                                :     FIELD
 CNTY.                                                :     COUNTY
 STAT.                                                :     STATE
 CTRY.                                                :     COUNTRY
 SRVC.                                                :     SERVICE COMPANY
 DATE.                                                :     DATE
 API .                                                :     API NUMBER
 UWI .                                                :     UWI NUMBER
#
~Curve Information Block
#MNEM.UNIT       API CODE      Curve Description
#----------    -------------   -------------------
 DEPT.FT                   :   Depth in Feet
 GR  .GAPI                 :   Gamma Ray
 RHOB.G/C3                 :   Bulk Density
#
~A  DEPTH         GR       RHOB  
# ...
  9733.000    151.430      2.749
  9733.500    150.518      2.748
  9734.000    150.664      2.751
  9734.500    150.902      2.756
  9735.000    149.732      2.761
  9735.500    147.747      2.761
  9736.000    145.757      2.753
  9736.500    142.969      2.746
  9737.000    139.848      2.738
  9737.500    140.223      2.735
  9738.000    146.705      2.732
  9738.500    155.486      2.734
  9739.000    160.291      2.737
  9739.500    160.169      2.738
  9740.000    159.058      2.741
  9740.500    158.542      2.743
  9741.000    156.485      2.751
  9741.500    152.056      2.757
  9742.000    147.128      2.752
  9742.500    142.546      2.745
  9743.000    137.734      2.737
  9743.500    134.470      2.730
  9744.000    136.397      2.724
  9744.500    144.012      2.711
  9745.000    153.402      2.706
  9745.500    159.878      2.704
  9746.000    162.280      2.704
  9746.500    161.065      2.707
  9747.000    155.676      2.714
  9747.500    148.484      2.726
  9748.000    141.426      2.732
  9748.500    131.930      2.739
  9749.000    117.566      2.736
  9749.500    104.926      2.735
  9750.000    107.677      2.738
  9750.500    128.325      2.748
  9751.000    149.309      2.752
  9751.500    155.034      2.753
  9752.000    151.942      2.758
  9752.500    152.879      2.761
  9753.000    156.190      2.764
  9753.500    153.602      2.767
  9754.000    144.885      2.772
  9754.500    134.710      2.791
  9755.000    124.704      2.796
  9755.500    114.970      2.796
  9756.000    107.796      2.795
  9756.500    104.943      2.795
  9757.000    104.383      2.785
  9757.500    103.131      2.783
  9758.000    101.160      2.776
  9758.500    100.296      2.774
  9759.000    102.239      2.754
  9759.500    109.234      2.747
  9760.000    122.539      2.735
  9760.500    137.683      2.733
  9761.000    146.113      2.732
  9761.500    147.022      2.732
  9762.000    144.029      2.733
  9762.500    142.334      2.726
  9763.000    143.892      2.725
  9763.500    147.527      2.725
  9764.000    151.471      2.727
  9764.500    154.681      2.738
  9765.000    157.123      2.740
  9765.500    159.263      2.749
  9766.000    160.973      2.751
  9766.500    161.848      2.754
  9767.000    162.788      2.746
  9767.500    164.806      2.735
  9768.000    165.664      2.726
  9768.500    160.572      2.718
  9769.000    147.255      2.721
  9769.500    128.844      2.733
  9770.000    112.405      2.748
  9770.500    106.049      2.763
  9771.000    113.893      2.771
  9771.500    130.335      2.769
  9772.000    142.959      2.770
  9772.500    145.053      2.768
  9773.000    142.083      2.754
  9773.500    142.236      2.736
  9774.000    145.693      2.698
  9774.500    147.607      2.669
  9775.000    146.778      2.635
  9775.500    146.048      2.577
  9776.000    147.113      2.560
  9776.500    148.763      2.547
  9777.000    148.927      2.574
  9777.500    147.242      2.654
  9778.000    146.054      2.693
  9778.500    147.919      2.730
  9779.000    151.875      2.753
  9779.500    154.429      2.773
  9780.000    154.737      2.780
  9780.500    154.707      2.786
  9781.000    153.857      2.785
  9781.500    149.420      2.783
  9782.000    142.335      2.775
  9782.500    137.127      2.766
  9783.000    134.617      2.756
  9783.500    130.748      2.745
  9784.000    124.253      2.723
  9784.500    119.903      2.716
  9785.000    122.293      2.705
  9785.500    130.632      2.707
  9786.000    140.966      2.711
  9786.500    150.512      2.715
  9787.000    158.328      2.722
  9787.500    163.144      2.726
  9788.000    162.511      2.728
  9788.500    154.976      2.730
  9789.000    143.472      2.732
  9789.500    134.269      2.738
  9790.000    130.928      2.752
  9790.500    130.938      2.764
  9791.000    130.114      2.778
  9791.500    128.223      2.777
  9792.000    127.687      2.778
  9792.500    128.550      2.770
  9793.000    128.478      2.769
  9793.500    127.327      2.768
  9794.000    127.800      2.764
  9794.500    131.021      2.761
  9795.000    134.875      2.759
  9795.500    137.839      2.762
  9796.000    141.666      2.765
  9796.500    148.282      2.770
  9797.000    155.699      2.768
  9797.500    158.489      2.768
  9798.000    152.722      2.763
  9798.500    140.718      2.756
  9799.000    129.434      2.744
  9799.500    122.423      2.740
  9800.000    116.973      2.737
  9800.500    112.956      2.731
  9801.000    117.790      2.724
  9801.500    135.097      2.723
  9802.000    154.790      2.727
  9802.500    164.291      2.735
  9803.000    164.010      2.744
  9803.500    161.570      2.747
  9804.000    158.046      2.751
  9804.500    151.097      2.753
  9805.000    145.033      2.753
  9805.500    144.833      2.749
  9806.000    145.371      2.749
  9806.500    138.482      2.751
  9807.000    126.406      2.759
  9807.500    117.555      2.763
  9808.000    117.257      2.768
  9808.500    115.776      2.770
  9809.000    116.036      2.774
  9809.500    124.725      2.776
  9810.000    136.057      2.780
  9810.500    142.414      2.782
  9811.000    145.582      2.786
  9811.500    147.696      2.798
  9812.000    147.897      2.804
  9812.500    147.370      2.804
  9813.000    147.463      2.799
  9813.500    148.477      2.789
  9814.000    152.311      2.783
  9814.500    158.427      2.775
  9815.000    161.825      2.771
  9815.500    161.400      2.769
  9816.000    161.951      2.768
  9816.500    162.813      2.766
  9817.000    162.695      2.762
  9817.500    163.153      2.759
  9818.000    165.784      2.755
  9818.500    166.292      2.754
  9819.000    158.389      2.758
  9819.500    143.334      2.759
  9820.000    129.711      2.765
  9820.500    123.898      2.769
  9821.000    125.973      2.772
  9821.500    133.511      2.772
  9822.000    143.523      2.777
  9822.500    151.475      2.776
  9823.000    153.833      2.769
  9823.500    152.165      2.775
  9824.000    151.219      2.790
  9824.500    153.079      2.789
  9825.000    155.787      2.796
  9825.500    157.240      2.794
  9826.000    157.791      2.791
  9826.500    158.533      2.783
  9827.000    158.905      2.778
  9827.500    157.381      2.768
  9828.000    154.114      2.764
  9828.500    151.184      2.758
  9829.000    150.239      2.755
  9829.500    150.748      2.750
  9830.000    150.996      2.750
  9830.500    149.914      2.747
  9831.000    147.482      2.742
  9831.500    144.067      2.732
  9832.000    139.978      2.723
  9832.500    135.711      2.707
  9833.000    132.143      2.704
  9833.500    129.898      2.706
  9834.000    128.341      2.717
  9834.500    125.765      2.713
  9835.000    121.401      2.733
  9835.500    117.323      2.749
  9836.000    117.333      2.778
  9836.500    123.106      2.775
  9837.000    131.987      2.776
  9837.500    139.598      2.774
  9838.000    144.131      2.765
  9838.500    146.895      2.753
  9839.000    149.170      2.754
  9839.500    150.551      2.749
  9840.000    150.789      2.745
  9840.500    151.226      2.743
  9841.000    153.097      2.741
  9841.500    155.540      2.740
  9842.000    156.810      2.743
  9842.500    156.775      2.741
  9843.000    156.738      2.741
  9843.500    157.012      2.747
  9844.000    156.357      2.759
  9844.500    154.361      2.771
  9845.000    152.649      2.775
  9845.500    152.510      2.780
  9846.000    152.460      2.780
  9846.500    149.962      2.780
  9847.000    145.013      2.778
  9847.500    140.531      2.779
  9848.000    139.087      2.779
  9848.500    140.530      2.774
  9849.000    143.073      2.770
  9849.500    145.507      2.766
  9850.000    147.709      2.765
  9850.500    149.837      2.765
  9851.000    151.945      2.765
  9851.500    153.908      2.772
  9852.000    155.011      2.772
  9852.500    154.728      2.769
  9853.000    154.203      2.767
  9853.500    154.547      2.761
  9854.000    152.749      2.763
