~Version Information Block
 VERS.                2.00:     CWLS LOG ASCII STANDARD - VERSION 2.000000
 WRAP.                  NO:     One Line Per Depth Step
#
~Well Information Block
#MNEM.UNIT                     Data                         Information
#----------   ------------------------------------------   ----------------
 STRT.FT                                        0.0000:
 STOP.FT                                     9910.0000:
 STEP.FT                                        0.5000:
 NULL.                                       -999.2500:
 COMP.                                                :     COMPANY
 WELL.                                                :     WELL
 FLD .                                                :     FIELD
 CNTY.                                                :     COUNTY
 STAT.                                                :     STATE
 CTRY.                                                :     COUNTRY
 SRVC.                                                :     SERVICE COMPANY
 DATE.                                                :     DATE
 API .                                                :     API NUMBER
 UWI .                                                :     UWI NUMBER
#
~Curve Information Block
#MNEM.UNIT       API CODE      Curve Description
#----------    -------------   -------------------
 DEPT.FT                   :   Depth in Feet
 GR  .GAPI                 :   Gamma Ray
 RHOB.G/C3                 :   Bulk Density
#
~A  DEPTH         GR       RHOB  
# ...
  7789.000    131.377      2.775
  7789.500    134.204      2.752
  7790.000    140.637      2.735
  7790.500    148.395      2.719
  7791.000    154.864      2.711
  7791.500    158.688      2.701
  7792.000    159.875      2.695
  7792.500    159.079      2.691
  7793.000    157.279      2.694
  7793.500    155.828      2.694
  7794.000    155.855      2.696
  7794.500    157.231      2.696
  7795.000    158.703      2.695
  7795.500    159.262      2.694
  7796.000    158.919      2.692
  7796.500    158.084      2.686
  7797.000    157.127      2.678
  7797.500    156.877      2.658
  7798.000    158.155      2.641
  7798.500    160.191      2.617
  7799.000    161.379      2.602
  7799.500    162.208      2.591
  7800.000    165.182      2.590
  7800.500    170.449      2.587
  7801.000    174.170      2.599
  7801.500    173.104      2.620
  7802.000    168.672      2.642
  7802.500    164.439      2.680
  7803.000    161.599      2.702
  7803.500    159.063      2.718
  7804.000    156.405      2.735
  7804.500    154.499      2.736
  7805.000    153.781      2.742
  7805.500    153.353      2.745
  7806.000    151.743      2.758
  7806.500    148.402      2.767
  7807.000    144.589      2.774
  7807.500    141.968      2.779
  7808.000    140.201      2.789
  7808.500    137.958      2.799
  7809.000    136.700      2.804
  7809.500    140.211      2.806
  7810.000    148.779      2.804
  7810.500    157.163      2.796
  7811.000    160.658      2.785
  7811.500    160.242      2.777
  7812.000    159.693      2.774
  7812.500    160.498      2.778
  7813.000    161.556      2.783
  7813.500    161.476      2.788
  7814.000    159.433      2.796
  7814.500    155.497      2.797
  7815.000    151.025      2.798
  7815.500    147.769      2.798
  7816.000    146.443      2.802
  7816.500    146.208      2.804
  7817.000    145.072      2.810
  7817.500    141.899      2.808
  7818.000    139.192      2.795
  7818.500    141.711      2.787
  7819.000    150.359      2.773
  7819.500    159.907      2.773
  7820.000    164.909      2.776
  7820.500    165.273      2.780
  7821.000    164.227      2.784
  7821.500    163.841      2.786
  7822.000    164.124      2.777
  7822.500    163.772      2.767
  7823.000    161.119      2.752
  7823.500    156.659      2.729
  7824.000    154.205      2.701
  7824.500    156.796      2.672
  7825.000    162.390      2.661
  7825.500    166.507      2.654
  7826.000    167.916      2.656
  7826.500    168.693      2.677
  7827.000    169.709      2.694
  7827.500    169.243      2.721
  7828.000    166.050      2.738
  7828.500    161.304      2.742
  7829.000    156.972      2.741
  7829.500    153.806      2.743
  7830.000    151.338      2.742
  7830.500    148.883      2.741
  7831.000    146.144      2.741
  7831.500    143.279      2.739
  7832.000    140.492      2.740
  7832.500    137.145      2.746
  7833.000    132.015      2.753
  7833.500    125.418      2.773
  7834.000    120.189      2.785
  7834.500    119.212      2.799
  7835.000    122.605      2.800
  7835.500    128.687      2.800
  7836.000    136.375      2.794
  7836.500    144.898      2.782
  7837.000    152.300      2.773
  7837.500    155.995      2.762
  7838.000    154.925      2.757
  7838.500    150.054      2.759
  7839.000    143.580      2.767
  7839.500    131.054      2.773
  7840.000    120.649      2.771
  7840.500    109.882      2.803
  7841.000     97.770      2.801
  7841.500     96.487      2.801
  7842.000    102.212      2.801
  7842.500    100.078      2.801
  7843.000    102.102      2.797
  7843.500    119.955      2.785
  7844.000    138.536      2.772
  7844.500    147.984      2.768
  7845.000    140.846      2.761
  7845.500    111.721      2.760
  7846.000     84.834      2.760
  7846.500     75.022      2.758
  7847.000     66.764      2.756
  7847.500     59.272      2.757
  7848.000     61.906      2.773
  7848.500     70.595      2.793
  7849.000     77.370      2.805
  7849.500     83.536      2.816
  7850.000    104.092      2.818
  7850.500    133.999      2.820
  7851.000    143.501      2.821
  7851.500    135.600      2.822
  7852.000    132.392      2.826
  7852.500    129.522      2.829
  7853.000    127.232      2.827
  7853.500    138.238      2.827
  7854.000    152.826      2.824
  7854.500    155.119      2.815
  7855.000    154.116      2.809
  7855.500    156.674      2.801
  7856.000    159.740      2.801
  7856.500    144.911      2.805
  7857.000    118.890      2.813
  7857.500    103.714      2.817
  7858.000     94.430      2.822
  7858.500     87.782      2.827
  7859.000     84.131      2.832
  7859.500     84.030      2.834
  7860.000     83.223      2.829
  7860.500     83.690      2.821
  7861.000    112.384      2.815
  7861.500    146.216      2.804
  7862.000    145.409      2.797
  7862.500    137.076      2.790
  7863.000    133.544      2.791
  7863.500    135.999      2.794
  7864.000    132.642      2.796
  7864.500    122.688      2.799
  7865.000    112.535      2.803
  7865.500    109.572      2.803
  7866.000    118.186      2.801
  7866.500    132.401      2.799
  7867.000    140.955      2.797
  7867.500    141.015      2.795
  7868.000    137.572      2.800
  7868.500    133.674      2.805
  7869.000    129.557      2.808
  7869.500    126.682      2.810
  7870.000    126.994      2.807
  7870.500    128.126      2.802
  7871.000    128.336      2.794
  7871.500    129.205      2.779
  7872.000    134.460      2.767
  7872.500    144.062      2.751
  7873.000    153.149      2.745
  7873.500    157.796      2.744
  7874.000    158.841      2.755
  7874.500    158.992      2.770
  7875.000    158.972      2.794
  7875.500    158.133      2.809
  7876.000    156.798      2.811
  7876.500    155.924      2.807
  7877.000    155.496      2.799
  7877.500    154.741      2.797
  7878.000    153.324      2.791
  7878.500    151.234      2.791
  7879.000    147.915      2.796
  7879.500    142.487      2.797
  7880.000    134.815      2.792
  7880.500    125.917      2.789
  7881.000    117.260      2.785
  7881.500    109.813      2.788
  7882.000    103.576      2.795
  7882.500     98.187      2.799
  7883.000     94.216      2.805
  7883.500     93.146      2.807
  7884.000     95.302      2.807
  7884.500     98.643      2.809
  7885.000    101.006      2.814
  7885.500    102.874      2.814
  7886.000    106.225      2.810
  7886.500    111.563      2.806
  7887.000    117.977      2.806
  7887.500    124.891      2.807
  7888.000    131.453      2.805
  7888.500    136.135      2.802
  7889.000    139.689      2.794
  7889.500    146.097      2.786
  7890.000    156.879      2.780
  7890.500    166.690      2.776
  7891.000    168.820      2.773
  7891.500    163.394      2.772
  7892.000    156.299      2.774
  7892.500    151.453      2.779
  7893.000    147.724      2.785
  7893.500    142.528      2.787
  7894.000    135.406      2.785
  7894.500    128.142      2.787
  7895.000    123.010      2.796
  7895.500    121.037      2.799
  7896.000    121.782      2.802
  7896.500    124.605      2.805
  7897.000    129.158      2.811
  7897.500    133.751      2.815
  7898.000    135.676      2.820
  7898.500    134.540      2.822
  7899.000    133.544      2.822
  7899.500    135.506      2.822
  7900.000    138.927      2.822
  7900.500    140.531      2.822
  7901.000    140.593      2.822
  7901.500    142.366      2.822
  7902.000    145.688      2.821
  7902.500    145.482      2.818
  7903.000    139.101      2.814
  7903.500    131.435      2.814
  7904.000    129.291      2.816
  7904.500    132.975      2.814
  7905.000    137.561      2.810
  7905.500    139.900      2.803
  7906.000    139.898      2.807
  7906.500    136.241      2.806
  7907.000    126.423      2.815
  7907.500    112.129      2.817
  7908.000    100.451      2.812
  7908.500     95.818      2.810
  7909.000     94.775      2.810
  7909.500     95.398      2.811
  7910.000     97.647      2.814
