~Version Information Block
 VERS.                2.00:     CWLS LOG ASCII STANDARD - VERSION 2.000000
 WRAP.                  NO:     One Line Per Depth Step
#
~Well Information Block
#MNEM.UNIT                     Data                         Information
#----------   ------------------------------------------   ----------------
 STRT.FT                                        0.0000:
 STOP.FT                                     9910.0000:
 STEP.FT                                        0.5000:
 NULL.                                       -999.2500:
 COMP.                                                :     COMPANY
 WELL.                                                :     WELL
 FLD .                                                :     FIELD
 CNTY.                                                :     COUNTY
 STAT.                                                :     STATE
 CTRY.                                                :     COUNTRY
 SRVC.                                                :     SERVICE COMPANY
 DATE.                                                :     DATE
 API .                                                :     API NUMBER
 UWI .                                                :     UWI NUMBER
#
~Curve Information Block
#MNEM.UNIT       API CODE      Curve Description
#----------    -------------   -------------------
 DEPT.FT                   :   Depth in Feet
 GR  .GAPI                 :   Gamma Ray
 RHOB.G/C3                 :   Bulk Density
#
~A  DEPTH         GR       RHOB  
# ...
   590.000     74.147   -999.250 
   590.500     74.863   -999.250 
   591.000     75.751   -999.250 
   591.500     77.220   -999.250 
   592.000     79.016   -999.250 
   592.500     80.057   -999.250 
   593.000     79.241   -999.250 
   593.500     76.592   -999.250 
   594.000     73.369   -999.250 
   594.500     70.943   -999.250 
   595.000     69.924   -999.250 
   595.500     70.300   -999.250 
   596.000     71.678   -999.250 
   596.500     73.234   -999.250 
   597.000     74.194   -999.250 
   597.500     74.642   -999.250 
   598.000     75.274   -999.250 
   598.500     76.216   -999.250 
   599.000     76.731   -999.250 
   599.500     76.285   -999.250 
   600.000     75.289   -999.250 
   600.500     74.496   -999.250 
   601.000     74.095   -999.250 
   601.500     73.713   -999.250 
   602.000     73.093   -999.250 
   602.500     72.360   -999.250 
   603.000     71.721   -999.250 
   603.500     71.344   -999.250 
   604.000     71.442   -999.250 
   604.500     72.026   -999.250 
   605.000     72.505   -999.250 
   605.500     72.064   -999.250 
   606.000     70.611   -999.250 
   606.500     68.937   -999.250 
   607.000     67.770   -999.250 
   607.500     67.137   -999.250 
   608.000     66.719   -999.250 
   608.500     66.365   -999.250 
   609.000     66.068   -999.250 
   609.500     65.864   -999.250 
   610.000     65.866   -999.250 
   610.500     66.198   -999.250 
   611.000     66.901   -999.250 
   611.500     67.686   -999.250 
   612.000     67.666   -999.250 
   612.500     66.127   -999.250 
   613.000     64.219   -999.250 
   613.500     64.604   -999.250 
   614.000     68.040   -999.250 
   614.500     71.607   -999.250 
   615.000     72.059   -999.250 
   615.500     69.850   -999.250 
   616.000     67.894   -999.250 
   616.500     67.494   -999.250 
   617.000     67.591   -999.250 
   617.500     67.361   -999.250 
   618.000     67.348   -999.250 
   618.500     67.995   -999.250 
   619.000     68.676   -999.250 
   619.500     68.720   -999.250 
   620.000     68.466   -999.250 
   620.500     68.685   -999.250 
   621.000     69.354   -999.250 
   621.500     69.667   -999.250 
   622.000     69.172   -999.250 
   622.500     68.176   -999.250 
   623.000     67.225   -999.250 
   623.500     66.855   -999.250 
   624.000     67.311   -999.250 
   624.500     67.891   -999.250 
   625.000     67.724   -999.250 
   625.500     67.767   -999.250 
   626.000     69.903   -999.250 
   626.500     73.044   -999.250 
   627.000     73.243   -999.250 
   627.500     69.502   -999.250 
   628.000     66.244   -999.250 
   628.500     67.492   -999.250 
   629.000     71.485   -999.250 
   629.500     73.748   -999.250 
   630.000     73.138   -999.250 
   630.500     72.145   -999.250 
   631.000     72.700   -999.250 
   631.500     74.236   -999.250 
   632.000     75.388   -999.250 
   632.500     75.866   -999.250 
   633.000     76.192   -999.250 
   633.500     76.263   -999.250 
   634.000     75.161   -999.250 
   634.500     72.783   -999.250 
   635.000     70.804   -999.250 
   635.500     71.005   -999.250 
   636.000     73.026   -999.250 
   636.500     74.865   -999.250 
   637.000     75.371   -999.250 
   637.500     75.035   -999.250 
   638.000     74.448   -999.250 
   638.500     73.200   -999.250 
   639.000     70.835   -999.250 
   639.500     68.016   -999.250 
   640.000     65.973   -999.250 
   640.500     65.151   -999.250 
   641.000     65.003   -999.250 
   641.500     64.773   -999.250 
   642.000     64.118   -999.250 
   642.500     63.377   -999.250 
   643.000     63.575   -999.250 
   643.500     65.638   -999.250 
   644.000     69.111   -999.250 
   644.500     72.252   -999.250 
   645.000     73.837   -999.250 
   645.500     74.317   -999.250 
   646.000     74.645   -999.250 
   646.500     74.618   -999.250 
   647.000     73.390   -999.250 
   647.500     71.357   -999.250 
   648.000     70.083   -999.250 
   648.500     69.932   -999.250 
   649.000     69.297   -999.250 
   649.500     67.253   -999.250 
   650.000     65.577   -999.250 
   650.500     66.545   -999.250 
   651.000     69.694   -999.250 
   651.500     72.474   -999.250 
   652.000     73.374   -999.250 
   652.500     72.730   -999.250 
   653.000     71.205   -999.250 
   653.500     69.197   -999.250 
   654.000     67.392   -999.250 
   654.500     66.340   -999.250 
   655.000     65.641   -999.250 
   655.500     64.946   -999.250 
   656.000     65.385   -999.250 
   656.500     67.982   -999.250 
   657.000     70.762   -999.250 
   657.500     70.054   -999.250 
   658.000     65.636   -999.250 
   658.500     62.052   -999.250 
   659.000     63.068   -999.250 
   659.500     67.082   -999.250 
   660.000     69.923   -999.250 
   660.500     70.274   -999.250 
   661.000     69.935   -999.250 
   661.500     70.254   -999.250 
   662.000     70.798   -999.250 
   662.500     70.963   -999.250 
   663.000     70.941   -999.250 
   663.500     71.132   -999.250 
   664.000     71.598   -999.250 
   664.500     72.048   -999.250 
   665.000     72.054   -999.250 
   665.500     71.505   -999.250 
   666.000     70.755   -999.250 
   666.500     70.032   -999.250 
   667.000     68.995   -999.250 
   667.500     67.435   -999.250 
   668.000     66.069   -999.250 
   668.500     65.929   -999.250 
   669.000     67.028   -999.250 
   669.500     68.224   -999.250 
   670.000     68.538   -999.250 
   670.500     68.268   -999.250 
   671.000     68.431   -999.250 
   671.500     69.130   -999.250 
   672.000     69.121   -999.250 
   672.500     67.540   -999.250 
   673.000     65.480   -999.250 
   673.500     64.819   -999.250 
   674.000     65.770   -999.250 
   674.500     66.867   -999.250 
   675.000     67.297   -999.250 
   675.500     67.857   -999.250 
   676.000     69.287   -999.250 
   676.500     70.839   -999.250 
   677.000     71.076   -999.250 
   677.500     69.442   -999.250 
   678.000     66.676   -999.250 
   678.500     64.134   -999.250 
   679.000     62.870   -999.250 
   679.500     63.003   -999.250 
   680.000     63.779   -999.250 
   680.500     64.415   -999.250 
   681.000     64.915   -999.250 
   681.500     65.942   -999.250 
   682.000     67.880   -999.250 
   682.500     70.256   -999.250 
   683.000     72.169   -999.250 
   683.500     73.160   -999.250 
   684.000     73.443   -999.250 
   684.500     73.438   -999.250 
   685.000     73.391   -999.250 
   685.500     73.419   -999.250 
   686.000     73.558   -999.250 
   686.500     73.684   -999.250 
   687.000     73.660   -999.250 
   687.500     73.595   -999.250 
   688.000     73.717   -999.250 
   688.500     73.994   -999.250 
   689.000     74.140   -999.250 
   689.500     74.053   -999.250 
   690.000     74.069   -999.250 
   690.500     74.661   -999.250 
   691.000     75.956   -999.250 
   691.500     77.572   -999.250 
   692.000     78.950   -999.250 
   692.500     79.741   -999.250 
   693.000     79.831   -999.250 
   693.500     79.317   -999.250 
   694.000     78.629   -999.250 
   694.500     78.264   -999.250 
   695.000     78.090   -999.250 
   695.500     77.429   -999.250 
   696.000     76.191   -999.250 
   696.500     75.159   -999.250 
   697.000     74.849   -999.250 
   697.500     75.045   -999.250 
   698.000     75.609   -999.250 
   698.500     76.359   -999.250 
   699.000     75.895   -999.250 
   699.500     72.473   -999.250 
   700.000     66.683   -999.250 
   700.500     61.538   -999.250 
   701.000     59.178   -999.250 
   701.500     58.968   -999.250 
   702.000     59.262   -999.250 
   702.500     59.605   -999.250 
   703.000     60.679   -999.250 
   703.500     63.166   -999.250 
   704.000     67.084   -999.250 
   704.500     71.685   -999.250 
   705.000     75.895   -999.250 
   705.500     79.071   -999.250 
   706.000     81.179   -999.250 
   706.500     82.317   -999.250 
   707.000     82.588   -999.250 
   707.500     82.360   -999.250 
