~Version Information Block
 VERS.                2.00:     CWLS LOG ASCII STANDARD - VERSION 2.000000
 WRAP.                  NO:     One Line Per Depth Step
#
~Well Information Block
#MNEM.UNIT                     Data                         Information
#----------   ------------------------------------------   ----------------
 STRT.FT                                        0.0000:
 STOP.FT                                     9910.0000:
 STEP.FT                                        0.5000:
 NULL.                                       -999.2500:
 COMP.                                                :     COMPANY
 WELL.                                                :     WELL
 FLD .                                                :     FIELD
 CNTY.                                                :     COUNTY
 STAT.                                                :     STATE
 CTRY.                                                :     COUNTRY
 SRVC.                                                :     SERVICE COMPANY
 DATE.                                                :     DATE
 API .                                                :     API NUMBER
 UWI .                                                :     UWI NUMBER
#
~Curve Information Block
#MNEM.UNIT       API CODE      Curve Description
#----------    -------------   -------------------
 DEPT.FT                   :   Depth in Feet
 GR  .GAPI                 :   Gamma Ray
 RHOB.G/C3                 :   Bulk Density
#
~A  DEPTH         GR       RHOB  
# ...
  6490.000     74.532      2.843 
  6490.500     73.507      2.842 
  6491.000     72.922      2.837 
  6491.500     72.645      2.830 
  6492.000     72.401      2.821 
  6492.500     72.218      2.809 
  6493.000     71.931      2.790 
  6493.500     71.042      2.768 
  6494.000     69.435      2.745 
  6494.500     68.188      2.724 
  6495.000     68.745      2.702 
  6495.500     71.214      2.690 
  6496.000     74.847      2.701 
  6496.500     79.923      2.730 
  6497.000     86.354      2.759 
  6497.500     90.651      2.775 
  6498.000     88.582      2.788 
  6498.500     81.410      2.805 
  6499.000     74.998      2.821 
  6499.500     72.185      2.829 
  6500.000     70.809      2.829 
  6500.500     69.502      2.827 
  6501.000     69.907      2.822 
  6501.500     72.339      2.815 
  6502.000     74.291      2.804 
  6502.500     74.375      2.791 
  6503.000     73.885      2.775 
  6503.500     73.923      2.763 
  6504.000     74.099      2.757 
  6504.500     74.091      2.760 
  6505.000     74.136      2.770 
  6505.500     74.079      2.780 
  6506.000     73.833      2.786 
  6506.500     74.143      2.787 
  6507.000     75.738      2.786 
  6507.500     78.057      2.786 
  6508.000     80.392      2.786 
  6508.500     83.174      2.788 
  6509.000     86.483      2.793 
  6509.500     88.700      2.798 
  6510.000     88.608      2.805 
  6510.500     87.389      2.815 
  6511.000     86.149      2.827 
  6511.500     83.401      2.839 
  6512.000     77.956      2.849 
  6512.500     72.493      2.857 
  6513.000     70.813      2.862 
  6513.500     72.695      2.862 
  6514.000     74.485      2.855 
  6514.500     74.180      2.845 
  6515.000     73.400      2.838 
  6515.500     74.100      2.833 
  6516.000     75.320      2.824 
  6516.500     74.060      2.814 
  6517.000     69.258      2.810 
  6517.500     64.026      2.813 
  6518.000     62.845      2.821 
  6518.500     66.566      2.828 
  6519.000     71.720      2.830 
  6519.500     75.133      2.827 
  6520.000     77.746      2.823 
  6520.500     82.185      2.818 
  6521.000     87.436      2.814 
  6521.500     88.432      2.812 
  6522.000     82.247      2.814 
  6522.500     72.883      2.820 
  6523.000     67.100      2.824 
  6523.500     66.271      2.823 
  6524.000     65.992      2.822 
  6524.500     63.858      2.827 
  6525.000     63.082      2.835 
  6525.500     66.909      2.843 
  6526.000     73.525      2.847 
  6526.500     79.058      2.847 
  6527.000     82.337      2.845 
  6527.500     84.500      2.842 
  6528.000     86.606      2.840 
  6528.500     89.479      2.842 
  6529.000     93.355      2.847 
  6529.500     96.372      2.852 
  6530.000     95.898      2.855 
  6530.500     92.164      2.855 
  6531.000     88.239      2.852 
  6531.500     85.939      2.844 
  6532.000     84.346      2.837 
  6532.500     82.316      2.835 
  6533.000     79.924      2.839 
  6533.500     77.523      2.845 
  6534.000     75.553      2.849 
  6534.500     74.854      2.848 
  6535.000     75.629      2.846 
  6535.500     76.704      2.844 
  6536.000     77.329      2.843 
  6536.500     78.690      2.845 
  6537.000     82.063      2.848 
  6537.500     86.334      2.852 
  6538.000     89.357      2.853 
  6538.500     91.270      2.851 
  6539.000     93.637      2.850 
  6539.500     94.779      2.853 
  6540.000     89.467      2.860 
  6540.500     75.807      2.867 
  6541.000     59.991      2.871 
  6541.500     51.065      2.871 
  6542.000     52.095      2.866 
  6542.500     58.985      2.860 
  6543.000     66.460      2.853 
  6543.500     72.196      2.848 
  6544.000     75.769      2.844 
  6544.500     76.788      2.842 
  6545.000     75.324      2.842 
  6545.500     72.690      2.843 
  6546.000     70.786      2.841 
  6546.500     70.555      2.838 
  6547.000     71.264      2.838 
  6547.500     71.487      2.838 
  6548.000     70.502      2.835 
  6548.500     68.755      2.833 
  6549.000     67.371      2.835 
  6549.500     67.324      2.841 
  6550.000     68.941      2.839 
  6550.500     72.363      2.825 
  6551.000     78.267      2.808 
  6551.500     86.501      2.801 
  6552.000     93.461      2.807 
  6552.500     93.215      2.818 
  6553.000     83.703      2.828 
  6553.500     70.180      2.840 
  6554.000     60.217      2.850 
  6554.500     56.757      2.855 
  6555.000     57.991      2.854 
  6555.500     61.367      2.850 
  6556.000     64.518      2.848 
  6556.500     64.679      2.847 
  6557.000     61.118      2.846 
  6557.500     56.709      2.844 
  6558.000     54.028      2.844 
  6558.500     51.687      2.844 
  6559.000     47.638      2.841 
  6559.500     43.763      2.833 
  6560.000     43.077      2.825 
  6560.500     44.354      2.821 
  6561.000     44.470      2.823 
  6561.500     44.933      2.826 
  6562.000     50.780      2.825 
  6562.500     62.378      2.819 
  6563.000     73.100      2.811 
  6563.500     77.023      2.804 
  6564.000     75.122      2.799 
  6564.500     72.070      2.798 
  6565.000     70.069      2.796 
  6565.500     68.538      2.791 
  6566.000     67.600      2.786 
  6566.500     68.413      2.787 
  6567.000     70.884      2.793 
  6567.500     73.025      2.800 
  6568.000     72.497      2.799 
  6568.500     68.644      2.795 
  6569.000     64.207      2.790 
  6569.500     64.321      2.782 
  6570.000     71.370      2.767 
  6570.500     81.201      2.752 
  6571.000     87.292      2.746 
  6571.500     88.511      2.750 
  6572.000     89.535      2.758 
  6572.500     93.417      2.766 
  6573.000     97.620      2.771 
  6573.500     98.628      2.768 
  6574.000     96.990      2.756 
  6574.500     95.441      2.742 
  6575.000     94.473      2.739 
  6575.500     92.896      2.749 
  6576.000     91.285      2.756 
  6576.500     90.922      2.756 
  6577.000     89.779      2.763 
  6577.500     84.582      2.765 
  6578.000     77.908      2.733 
  6578.500     77.504      2.676 
  6579.000     85.863      2.632 
  6579.500     95.928      2.615 
  6580.000    100.275      2.637 
  6580.500     99.784      2.697 
  6581.000     99.660      2.735 
  6581.500    101.361      2.717 
  6582.000    102.725      2.693 
  6582.500    102.907      2.701 
  6583.000    103.039      2.710 
  6583.500    103.589      2.694 
  6584.000    103.553      2.675 
  6584.500    102.195      2.666 
  6585.000    100.117      2.659 
  6585.500     98.625      2.653 
  6586.000     98.014      2.653 
  6586.500     96.894      2.655 
  6587.000     94.425      2.652 
  6587.500     92.260      2.646 
  6588.000     91.618      2.645 
  6588.500     90.061      2.645 
  6589.000     85.684      2.638 
  6589.500     82.980      2.653 
  6590.000     88.069      2.698 
  6590.500     98.474      2.752 
  6591.000    104.763      2.785 
  6591.500    103.061      2.789 
  6592.000     98.851      2.779 
  6592.500     97.094      2.767 
  6593.000     95.703      2.759 
  6593.500     91.319      2.760 
  6594.000     85.597      2.773 
  6594.500     82.312      2.791 
  6595.000     82.019      2.803 
  6595.500     82.459      2.809 
  6596.000     82.167      2.814 
  6596.500     81.496      2.818 
  6597.000     81.056      2.820 
  6597.500     80.597      2.819 
  6598.000     79.540      2.819 
  6598.500     78.096      2.820 
  6599.000     77.156      2.818 
  6599.500     77.374      2.819 
  6600.000     78.275      2.832 
  6600.500     78.868      2.849 
  6601.000     78.644      2.859 
  6601.500     77.823      2.862 
  6602.000     76.837      2.862 
  6602.500     76.110      2.864 
  6603.000     75.818      2.871 
  6603.500     75.560      2.883 
  6604.000     75.185      2.893 
  6604.500     75.692      2.900 
  6605.000     77.386      2.897 
  6605.500     78.005      2.878 
  6606.000     76.259      2.853 
  6606.500     76.244      2.825 
  6607.000     83.246      2.790 
  6607.500     95.347      2.743 
