~Version Information Block
 VERS.                2.00:     CWLS LOG ASCII STANDARD - VERSION 2.000000
 WRAP.                  NO:     One Line Per Depth Step
#
~Well Information Block
#MNEM.UNIT                     Data                         Information
#----------   ------------------------------------------   ----------------
 STRT.FT                                        0.0000:
 STOP.FT                                     9910.0000:
 STEP.FT                                        0.5000:
 NULL.                                       -999.2500:
 COMP.                                                :     COMPANY
 WELL.                                                :     WELL
 FLD .                                                :     FIELD
 CNTY.                                                :     COUNTY
 STAT.                                                :     STATE
 CTRY.                                                :     COUNTRY
 SRVC.                                                :     SERVICE COMPANY
 DATE.                                                :     DATE
 API .                                                :     API NUMBER
 UWI .                                                :     UWI NUMBER
#
~Curve Information Block
#MNEM.UNIT       API CODE      Curve Description
#----------    -------------   -------------------
 DEPT.FT                   :   Depth in Feet
 GR  .GAPI                 :   Gamma Ray
 RHOB.G/C3                 :   Bulk Density
#
~A  DEPTH         GR       RHOB  
     0.000     38.438   -999.250 
     0.500     37.813   -999.250 
     1.000     37.188   -999.250 
     1.500     37.188   -999.250 
     2.000     36.563   -999.250 
     2.500     35.938   -999.250 
     3.000     35.938   -999.250 
     3.500     34.063   -999.250 
     4.000     33.438   -999.250 
     4.500     33.438   -999.250 
     5.000     34.063   -999.250 
     5.500     37.813   -999.250 
     6.000     37.813   -999.250 
     6.500     38.438   -999.250 
     7.000     38.653   -999.250 
     7.500     38.967   -999.250 
     8.000     39.521   -999.250 
     8.500     39.830   -999.250 
     9.000     39.758   -999.250 
     9.500     39.621   -999.250 
    10.000     39.635   -999.250 
    10.500     39.752   -999.250 
    11.000     39.911   -999.250 
    11.500     40.085   -999.250 
    12.000     40.240   -999.250 
    12.500     40.451   -999.250 
    13.000     40.802   -999.250 
    13.500     41.084   -999.250 
    14.000     40.814   -999.250 
    14.500     39.689   -999.250 
    15.000     37.966   -999.250 
    15.500     36.316   -999.250 
    16.000     35.390   -999.250 
    16.500     35.354   -999.250 
    17.000     35.853   -999.250 
    17.500     36.481   -999.250 
    18.000     37.169   -999.250 
    18.500     37.994   -999.250 
    19.000     38.915   -999.250 
    19.500     39.981   -999.250 
    20.000     41.379   -999.250 
    20.500     42.862   -999.250 
    21.000     43.724   -999.250 
    21.500     43.988   -999.250 
    22.000     45.007   -999.250 
    22.500     48.018   -999.250 
    23.000     52.626   -999.250 
    23.500     57.319   -999.250 
    24.000     60.851   -999.250 
    24.500     62.610   -999.250 
    25.000     62.512   -999.250 
    25.500     61.265   -999.250 
    26.000     59.926   -999.250 
    26.500     58.678   -999.250 
    27.000     56.855   -999.250 
    27.500     54.450   -999.250 
    28.000     52.504   -999.250 
    28.500     51.609   -999.250 
    29.000     51.010   -999.250 
    29.500     49.704   -999.250 
    30.000     47.629   -999.250 
    30.500     45.465   -999.250 
    31.000     43.877   -999.250 
    31.500     43.201   -999.250 
    32.000     43.423   -999.250 
    32.500     44.119   -999.250 
    33.000     44.729   -999.250 
    33.500     45.097   -999.250 
    34.000     45.472   -999.250 
    34.500     45.868   -999.250 
    35.000     45.789   -999.250 
    35.500     44.930   -999.250 
    36.000     43.825   -999.250 
    36.500     43.376   -999.250 
    37.000     43.784   -999.250 
    37.500     44.311   -999.250 
    38.000     44.042   -999.250 
    38.500     42.721   -999.250 
    39.000     41.024   -999.250 
    39.500     40.116   -999.250 
    40.000     40.703   -999.250 
    40.500     42.416   -999.250 
    41.000     44.225   -999.250 
    41.500     45.322   -999.250 
    42.000     45.483   -999.250 
    42.500     44.960   -999.250 
    43.000     44.243   -999.250 
    43.500     43.671   -999.250 
    44.000     43.193   -999.250 
    44.500     42.722   -999.250 
    45.000     42.430   -999.250 
    45.500     42.301   -999.250 
    46.000     41.790   -999.250 
    46.500     40.547   -999.250 
    47.000     39.138   -999.250 
    47.500     38.378   -999.250 
    48.000     38.249   -999.250 
    48.500     38.013   -999.250 
    49.000     37.160   -999.250 
    49.500     35.818   -999.250 
    50.000     34.424   -999.250 
    50.500     33.290   -999.250 
    51.000     32.316   -999.250 
    51.500     31.126   -999.250 
    52.000     29.725   -999.250 
    52.500     28.938   -999.250 
    53.000     29.758   -999.250 
    53.500     32.270   -999.250 
    54.000     35.586   -999.250 
    54.500     38.773   -999.250 
    55.000     41.429   -999.250 
    55.500     43.427   -999.250 
    56.000     44.681   -999.250 
    56.500     45.353   -999.250 
    57.000     45.907   -999.250 
    57.500     46.597   -999.250 
    58.000     47.162   -999.250 
    58.500     47.269   -999.250 
    59.000     47.031   -999.250 
    59.500     46.789   -999.250 
    60.000     46.506   -999.250 
    60.500     45.835   -999.250 
    61.000     44.817   -999.250 
    61.500     44.133   -999.250 
    62.000     44.438   -999.250 
    62.500     45.697   -999.250 
    63.000     47.429   -999.250 
    63.500     49.282   -999.250 
    64.000     50.990   -999.250 
    64.500     52.009   -999.250 
    65.000     51.814   -999.250 
    65.500     50.550   -999.250 
    66.000     48.938   -999.250 
    66.500     47.526   -999.250 
    67.000     46.417   -999.250 
    67.500     45.621   -999.250 
    68.000     45.222   -999.250 
    68.500     45.179   -999.250 
    69.000     45.325   -999.250 
    69.500     45.534   -999.250 
    70.000     45.733   -999.250 
    70.500     45.967   -999.250 
    71.000     46.476   -999.250 
    71.500     47.378   -999.250 
    72.000     48.325   -999.250 
    72.500     48.912   -999.250 
    73.000     49.277   -999.250 
    73.500     49.754   -999.250 
    74.000     50.102   -999.250 
    74.500     49.819   -999.250 
    75.000     49.056   -999.250 
    75.500     48.505   -999.250 
    76.000     48.404   -999.250 
    76.500     48.252   -999.250 
    77.000     47.528   -999.250 
    77.500     46.342   -999.250 
    78.000     45.271   -999.250 
    78.500     44.611   -999.250 
    79.000     43.849   -999.250 
    79.500     42.161   -999.250 
    80.000     39.522   -999.250 
    80.500     36.916   -999.250 
    81.000     35.397   -999.250 
    81.500     35.422   -999.250 
    82.000     36.963   -999.250 
    82.500     39.456   -999.250 
    83.000     41.932   -999.250 
    83.500     44.232   -999.250 
    84.000     47.626   -999.250 
    84.500     52.933   -999.250 
    85.000     58.829   -999.250 
    85.500     63.610   -999.250 
    86.000     67.779   -999.250 
    86.500     72.979   -999.250 
    87.000     79.083   -999.250 
    87.500     84.298   -999.250 
    88.000     87.616   -999.250 
    88.500     89.545   -999.250 
    89.000     90.816   -999.250 
    89.500     91.583   -999.250 
    90.000     91.445   -999.250 
    90.500     89.657   -999.250 
    91.000     85.923   -999.250 
    91.500     80.974   -999.250 
    92.000     75.669   -999.250 
    92.500     70.223   -999.250 
    93.000     65.425   -999.250 
    93.500     63.383   -999.250 
    94.000     65.181   -999.250 
    94.500     68.781   -999.250 
    95.000     71.083   -999.250 
    95.500     71.285   -999.250 
    96.000     70.688   -999.250 
    96.500     70.192   -999.250 
    97.000     69.699   -999.250 
    97.500     69.227   -999.250 
    98.000     69.010   -999.250 
    98.500     68.867   -999.250 
    99.000     68.563   -999.250 
    99.500     68.376   -999.250 
   100.000     68.506   -999.250 
   100.500     68.465   -999.250 
   101.000     67.924   -999.250 
   101.500     67.649   -999.250 
   102.000     68.523   -999.250 
   102.500     69.932   -999.250 
   103.000     70.215   -999.250 
   103.500     68.773   -999.250 
   104.000     66.797   -999.250 
   104.500     65.724   -999.250 
   105.000     65.787   -999.250 
   105.500     66.331   -999.250 
   106.000     66.864   -999.250 
   106.500     67.249   -999.250 
   107.000     67.341   -999.250 
   107.500     67.069   -999.250 
   108.000     66.755   -999.250 
   108.500     66.742   -999.250 
   109.000     66.687   -999.250 
   109.500     65.886   -999.250 
   110.000     64.486   -999.250 
   110.500     63.699   -999.250 
   111.000     64.426   -999.250 
   111.500     66.174   -999.250 
   112.000     67.678   -999.250 
   112.500     68.154   -999.250 
   113.000     67.647   -999.250 
   113.500     66.638   -999.250 
   114.000     65.695   -999.250 
   114.500     65.190   -999.250 
   115.000     65.063   -999.250 
   115.500     65.042   -999.250 
   116.000     65.158   -999.250 
   116.500     65.751   -999.250 
   117.000     66.923   -999.250 
   117.500     68.304   -999.250 
