~Version Information Block
 VERS.                2.00:     CWLS LOG ASCII STANDARD - VERSION 2.000000
 WRAP.                  NO:     One Line Per Depth Step
#
~Well Information Block
#MNEM.UNIT                     Data                         Information
#----------   ------------------------------------------   ----------------
 STRT.FT                                        0.0000:
 STOP.FT                                     9910.0000:
 STEP.FT                                        0.5000:
 NULL.                                       -999.2500:
 COMP.                                                :     COMPANY
 WELL.                                                :     WELL
 FLD .                                                :     FIELD
 CNTY.                                                :     COUNTY
 STAT.                                                :     STATE
 CTRY.                                                :     COUNTRY
 SRVC.                                                :     SERVICE COMPANY
 DATE.                                                :     DATE
 API .                                                :     API NUMBER
 UWI .                                                :     UWI NUMBER
#
~Curve Information Block
#MNEM.UNIT       API CODE      Curve Description
#----------    -------------   -------------------
 DEPT.FT                   :   Depth in Feet
 GR  .GAPI                 :   Gamma Ray
 RHOB.G/C3                 :   Bulk Density
#
~A  DEPTH         GR       RHOB  
# ...
  1298.000    109.932   -999.250 
  1298.500    109.601   -999.250 
  1299.000    109.028   -999.250 
  1299.500    108.042   -999.250 
  1300.000    106.475   -999.250 
  1300.500    104.226   -999.250 
  1301.000    102.067   -999.250 
  1301.500    101.677   -999.250 
  1302.000    103.933   -999.250 
  1302.500    107.703   -999.250 
  1303.000    111.401   -999.250 
  1303.500    114.816   -999.250 
  1304.000    117.921   -999.250 
  1304.500    119.194   -999.250 
  1305.000    117.381   -999.250 
  1305.500    114.069   -999.250 
  1306.000    112.143   -999.250 
  1306.500    112.132   -999.250 
  1307.000    112.181   -999.250 
  1307.500    111.005   -999.250 
  1308.000    108.824   -999.250 
  1308.500    105.950   -999.250 
  1309.000    102.504   -999.250 
  1309.500     99.438   -999.250 
  1310.000     98.233   -999.250 
  1310.500     99.428   -999.250 
  1311.000    102.445   -999.250 
  1311.500    106.473   -999.250 
  1312.000    110.175   -999.250 
  1312.500    111.278   -999.250 
  1313.000    108.587   -999.250 
  1313.500    104.550   -999.250 
  1314.000    103.741   -999.250 
  1314.500    108.087   -999.250 
  1315.000    115.039   -999.250 
  1315.500    120.664   -999.250 
  1316.000    123.123   -999.250 
  1316.500    122.931   -999.250 
  1317.000    121.384   -999.250 
  1317.500    119.389   -999.250 
  1318.000    117.198   -999.250 
  1318.500    114.928   -999.250 
  1319.000    113.199   -999.250 
  1319.500    112.756   -999.250 
  1320.000    113.384   -999.250 
  1320.500    114.116   -999.250 
  1321.000    114.797   -999.250 
  1321.500    116.208   -999.250 
  1322.000    118.348   -999.250 
  1322.500    119.754   -999.250 
  1323.000    119.401   -999.250 
  1323.500    118.219   -999.250 
  1324.000    117.591   -999.250 
  1324.500    117.477   -999.250 
  1325.000    117.304   -999.250 
  1325.500    117.289   -999.250 
  1326.000    117.030   -999.250 
  1326.500    114.374   -999.250 
  1327.000    108.240   -999.250 
  1327.500    101.490   -999.250 
  1328.000     98.368   -999.250 
  1328.500     99.723   -999.250 
  1329.000    102.840   -999.250 
  1329.500    105.208   -999.250 
  1330.000    106.503   -999.250 
  1330.500    107.567   -999.250 
  1331.000    109.124   -999.250 
  1331.500    111.173   -999.250 
  1332.000    112.760   -999.250 
  1332.500    112.915   -999.250 
  1333.000    112.256   -999.250 
  1333.500    112.479   -999.250 
  1334.000    113.604   -999.250 
  1334.500    113.262   -999.250 
  1335.000    110.096   -999.250 
  1335.500    106.735   -999.250 
  1336.000    107.292   -999.250 
  1336.500    112.101   -999.250 
  1337.000    117.191   -999.250 
  1337.500    119.286   -999.250 
  1338.000    119.128   -999.250 
  1338.500    119.114   -999.250 
  1339.000    119.970   -999.250 
  1339.500    121.023   -999.250 
  1340.000    121.994   -999.250 
  1340.500    123.037   -999.250 
  1341.000    124.092   -999.250 
  1341.500    125.271   -999.250 
  1342.000    127.084   -999.250 
  1342.500    129.471   -999.250 
  1343.000    131.130   -999.250 
  1343.500    130.579   -999.250 
  1344.000    127.785   -999.250 
  1344.500    124.328   -999.250 
  1345.000    122.024   -999.250 
  1345.500    121.614   -999.250 
  1346.000    122.756   -999.250 
  1346.500    124.784   -999.250 
  1347.000    127.120   -999.250 
  1347.500    129.226   -999.250 
  1348.000    130.652   -999.250 
  1348.500    131.077   -999.250 
  1349.000    130.139   -999.250 
  1349.500    127.694   -999.250 
  1350.000    124.378   -999.250 
  1350.500    121.410   -999.250 
  1351.000    119.492   -999.250 
  1351.500    118.350   -999.250 
  1352.000    117.580   -999.250 
  1352.500    117.461   -999.250 
  1353.000    118.562   -999.250 
  1353.500    120.901   -999.250 
  1354.000    123.724   -999.250 
  1354.500    125.798   -999.250 
  1355.000    125.967   -999.250 
  1355.500    124.008   -999.250 
  1356.000    121.081   -999.250 
  1356.500    118.848   -999.250 
  1357.000    118.075   -999.250 
  1357.500    118.321   -999.250 
  1358.000    118.628   -999.250 
  1358.500    118.065   -999.250 
  1359.000    116.133   -999.250 
  1359.500    113.406   -999.250 
  1360.000    111.443   -999.250 
  1360.500    111.243   -999.250 
  1361.000    112.063   -999.250 
  1361.500    112.378   -999.250 
  1362.000    111.667   -999.250 
  1362.500    110.767   -999.250 
  1363.000    110.763   -999.250 
  1363.500    111.968   -999.250 
  1364.000    113.609   -999.250 
  1364.500    114.320   -999.250 
  1365.000    113.438   -999.250 
  1365.500    112.067   -999.250 
  1366.000    111.850   -999.250 
  1366.500    112.232   -999.250 
  1367.000    110.289   -999.250 
  1367.500    104.449   -999.250 
  1368.000     97.424   -999.250 
  1368.500     93.858   -999.250 
  1369.000     95.545   -999.250 
  1369.500    100.533   -999.250 
  1370.000    106.510   -999.250 
  1370.500    112.848   -999.250 
  1371.000    118.964   -999.250 
  1371.500    123.086   -999.250 
  1372.000    124.273   -999.250 
  1372.500    124.258   -999.250 
  1373.000    125.495   -999.250 
  1373.500    128.109   -999.250 
  1374.000    130.307   -999.250 
  1374.500    131.144   -999.250 
  1375.000    131.157   -999.250 
  1375.500    130.621   -999.250 
  1376.000    129.016   -999.250 
  1376.500    126.397   -999.250 
  1377.000    123.818   -999.250 
  1377.500    122.203   -999.250 
  1378.000    121.596   -999.250 
  1378.500    121.578   -999.250 
  1379.000    121.658   -999.250 
  1379.500    121.356   -999.250 
  1380.000    120.500   -999.250 
  1380.500    119.550   -999.250 
  1381.000    119.185   -999.250 
  1381.500    119.583   -999.250 
  1382.000    120.335   -999.250 
  1382.500    120.996   -999.250 
  1383.000    121.440   -999.250 
  1383.500    121.744   -999.250 
  1384.000    122.002   -999.250 
  1384.500    122.237   -999.250 
  1385.000    122.328   -999.250 
  1385.500    122.163   -999.250 
  1386.000    122.012   -999.250 
  1386.500    122.265   -999.250 
  1387.000    122.557   -999.250 
  1387.500    121.697   -999.250 
  1388.000    119.085   -999.250 
  1388.500    115.739   -999.250 
  1389.000    113.370   -999.250 
  1389.500    112.700   -999.250 
  1390.000    113.097   -999.250 
  1390.500    113.610   -999.250 
  1391.000    113.728   -999.250 
  1391.500    112.895   -999.250 
  1392.000    110.324   -999.250 
  1392.500    106.546   -999.250 
  1393.000    104.554   -999.250 
  1393.500    107.246   -999.250 
  1394.000    113.474   -999.250 
  1394.500    118.796   -999.250 
  1395.000    120.625   -999.250 
  1395.500    120.449   -999.250 
  1396.000    120.504   -999.250 
  1396.500    120.774   -999.250 
  1397.000    120.004   -999.250 
  1397.500    117.688   -999.250 
  1398.000    114.269   -999.250 
  1398.500    110.795   -999.250 
  1399.000    108.611   -999.250 
  1399.500    108.271   -999.250 
  1400.000    108.994   -999.250 
  1400.500    109.797   -999.250 
  1401.000    110.422   -999.250 
  1401.500    110.794   -999.250 
  1402.000    110.894   -999.250 
  1402.500    111.531   -999.250 
  1403.000    113.856   -999.250 
  1403.500    117.409   -999.250 
  1404.000    120.171   -999.250 
  1404.500    120.885   -999.250 
  1405.000    120.011   -999.250 
  1405.500    118.041   -999.250 
  1406.000    114.673   -999.250 
  1406.500    110.303   -999.250 
  1407.000    106.642   -999.250 
  1407.500    104.897   -999.250 
  1408.000    104.544   -999.250 
  1408.500    104.524   -999.250 
  1409.000    104.060   -999.250 
  1409.500    102.048   -999.250 
  1410.000     97.714   -999.250 
  1410.500     92.684   -999.250 
  1411.000     90.203   -999.250 
  1411.500     91.176   -999.250 
  1412.000     93.238   -999.250 
  1412.500     94.900   -999.250 
  1413.000     97.418   -999.250 
  1413.500    100.479   -999.250 
  1414.000     99.826   -999.250 
  1414.500     92.855   -999.250 
  1415.000     83.584   -999.250 
  1415.500     77.897   -999.250 
