~Version Information Block
 VERS.                2.00:     CWLS LOG ASCII STANDARD - VERSION 2.000000
 WRAP.                  NO:     One Line Per Depth Step
#
~Well Information Block
#MNEM.UNIT                     Data                         Information
#----------   ------------------------------------------   ----------------
 STRT.FT                                        0.0000:
 STOP.FT                                     9910.0000:
 STEP.FT                                        0.5000:
 NULL.                                       -999.2500:
 COMP.                                                :     COMPANY
 WELL.                                                :     WELL
 FLD .                                                :     FIELD
 CNTY.                                                :     COUNTY
 STAT.                                                :     STATE
 CTRY.                                                :     COUNTRY
 SRVC.                                                :     SERVICE COMPANY
 DATE.                                                :     DATE
 API .                                                :     API NUMBER
 UWI .                                                :     UWI NUMBER
#
~Curve Information Block
#MNEM.UNIT       API CODE      Curve Description
#----------    -------------   -------------------
 DEPT.FT                   :   Depth in Feet
 GR  .GAPI                 :   Gamma Ray
 RHOB.G/C3                 :   Bulk Density
#
~A  DEPTH         GR       RHOB  
# ...
  2596.000    120.807   -999.250 
  2596.500    121.674   -999.250 
  2597.000    123.567   -999.250 
  2597.500    126.245   -999.250 
  2598.000    127.559   -999.250 
  2598.500    125.799   -999.250 
  2599.000    121.884   -999.250 
  2599.500    118.404   -999.250 
  2600.000    116.774   -999.250 
  2600.500    116.257   -999.250 
  2601.000    115.654   -999.250 
  2601.500    114.913   -999.250 
  2602.000    114.712   -999.250 
  2602.500    115.354   -999.250 
  2603.000    116.732   -999.250 
  2603.500    118.851   -999.250 
  2604.000    121.651   -999.250 
  2604.500    124.478   -999.250 
  2605.000    126.414   -999.250 
  2605.500    127.193   -999.250 
  2606.000    127.277   -999.250 
  2606.500    126.890   -999.250 
  2607.000    125.559   -999.250 
  2607.500    123.075   -999.250 
  2608.000    120.388   -999.250 
  2608.500    118.819   -999.250 
  2609.000    118.628   -999.250 
  2609.500    119.036   -999.250 
  2610.000    119.466   -999.250 
  2610.500    119.983   -999.250 
  2611.000    120.625   -999.250 
  2611.500    121.150   -999.250 
  2612.000    121.572   -999.250 
  2612.500    122.314   -999.250 
  2613.000    123.619   -999.250 
  2613.500    125.224   -999.250 
  2614.000    126.717   -999.250 
  2614.500    127.810   -999.250 
  2615.000    128.322   -999.250 
  2615.500    128.140   -999.250 
  2616.000    127.280   -999.250 
  2616.500    126.000   -999.250 
  2617.000    125.072   -999.250 
  2617.500    125.685   -999.250 
  2618.000    128.457   -999.250 
  2618.500    132.478   -999.250 
  2619.000    135.872   -999.250 
  2619.500    137.333   -999.250 
  2620.000    136.797   -999.250 
  2620.500    134.914   -999.250 
  2621.000    132.565   -999.250 
  2621.500    130.724   -999.250 
  2622.000    130.044   -999.250 
  2622.500    130.335   -999.250 
  2623.000    130.779   -999.250 
  2623.500    130.863   -999.250 
  2624.000    130.875   -999.250 
  2624.500    131.287   -999.250 
  2625.000    131.773   -999.250 
  2625.500    131.337   -999.250 
  2626.000    129.696   -999.250 
  2626.500    128.020   -999.250 
  2627.000    127.627   -999.250 
  2627.500    128.245   -999.250 
  2628.000    128.355   -999.250 
  2628.500    127.168   -999.250 
  2629.000    125.493   -999.250 
  2629.500    124.556   -999.250 
  2630.000    124.629   -999.250 
  2630.500    125.110   -999.250 
  2631.000    125.314   -999.250 
  2631.500    124.896   -999.250 
  2632.000    123.791   -999.250 
  2632.500    122.202   -999.250 
  2633.000    120.584   -999.250 
  2633.500    119.428   -999.250 
  2634.000    118.952   -999.250 
  2634.500    118.775   -999.250 
  2635.000    117.753   -999.250 
  2635.500    114.932   -999.250 
  2636.000    111.442   -999.250 
  2636.500    110.478   -999.250 
  2637.000    113.970   -999.250 
  2637.500    119.912   -999.250 
  2638.000    124.467   -999.250 
  2638.500    126.070   -999.250 
  2639.000    125.874   -999.250 
  2639.500    124.982   -999.250 
  2640.000    123.407   -999.250 
  2640.500    121.551   -999.250 
  2641.000    120.723   -999.250 
  2641.500    121.695   -999.250 
  2642.000    123.702   -999.250 
  2642.500    125.071   -999.250 
  2643.000    124.411   -999.250 
  2643.500    121.424   -999.250 
  2644.000    117.050   -999.250 
  2644.500    112.762   -999.250 
  2645.000    109.550   -999.250 
  2645.500    107.539   -999.250 
  2646.000    106.337   -999.250 
  2646.500    105.798   -999.250 
  2647.000    106.353   -999.250 
  2647.500    108.299   -999.250 
  2648.000    110.761   -999.250 
  2648.500    112.151   -999.250 
  2649.000    112.091   -999.250 
  2649.500    112.102   -999.250 
  2650.000    113.625   -999.250 
  2650.500    116.090   -999.250 
  2651.000    118.060   -999.250 
  2651.500    119.685   -999.250 
  2652.000    122.547   -999.250 
  2652.500    127.009   -999.250 
  2653.000    131.177   -999.250 
  2653.500    133.032   -999.250 
  2654.000    132.638   -999.250 
  2654.500    131.554   -999.250 
  2655.000    130.853   -999.250 
  2655.500    130.511   -999.250 
  2656.000    130.202   -999.250 
  2656.500    129.763   -999.250 
  2657.000    129.109   -999.250 
  2657.500    128.575   -999.250 
  2658.000    129.054   -999.250 
  2658.500    130.667   -999.250 
  2659.000    131.685   -999.250 
  2659.500    130.196   -999.250 
  2660.000    126.876   -999.250 
  2660.500    124.562   -999.250 
  2661.000    124.803   -999.250 
  2661.500    126.319   -999.250 
  2662.000    127.247   -999.250 
  2662.500    127.270   -999.250 
  2663.000    126.993   -999.250 
  2663.500    126.589   -999.250 
  2664.000    125.898   -999.250 
  2664.500    125.021   -999.250 
  2665.000    124.222   -999.250 
  2665.500    123.677   -999.250 
  2666.000    123.456   -999.250 
  2666.500    123.339   -999.250 
  2667.000    122.891   -999.250 
  2667.500    122.159   -999.250 
  2668.000    122.025   -999.250 
  2668.500    123.178   -999.250 
  2669.000    124.990   -999.250 
  2669.500    126.068   -999.250 
  2670.000    125.925   -999.250 
  2670.500    125.345   -999.250 
  2671.000    125.035   -999.250 
  2671.500    124.631   -999.250 
  2672.000    123.439   -999.250 
  2672.500    121.649   -999.250 
  2673.000    120.217   -999.250 
  2673.500    119.702   -999.250 
  2674.000    119.727   -999.250 
  2674.500    119.599   -999.250 
  2675.000    119.101   -999.250 
  2675.500    118.531   -999.250 
  2676.000    118.189   -999.250 
  2676.500    118.010   -999.250 
  2677.000    117.793   -999.250 
  2677.500    117.632   -999.250 
  2678.000    117.876   -999.250 
  2678.500    118.692   -999.250 
  2679.000    119.954   -999.250 
  2679.500    121.462   -999.250 
  2680.000    122.855   -999.250 
  2680.500    123.450   -999.250 
  2681.000    122.879   -999.250 
  2681.500    121.910   -999.250 
  2682.000    121.863   -999.250 
  2682.500    123.056   -999.250 
  2683.000    124.518   -999.250 
  2683.500    125.337   -999.250 
  2684.000    125.503   -999.250 
  2684.500    125.257   -999.250 
  2685.000    124.408   -999.250 
  2685.500    122.675   -999.250 
  2686.000    120.298   -999.250 
  2686.500    117.985   -999.250 
  2687.000    116.458   -999.250 
  2687.500    116.036   -999.250 
  2688.000    116.397   -999.250 
  2688.500    116.653   -999.250 
  2689.000    116.060   -999.250 
  2689.500    114.915   -999.250 
  2690.000    114.402   -999.250 
  2690.500    115.194   -999.250 
  2691.000    116.531   -999.250 
  2691.500    117.180   -999.250 
  2692.000    117.108   -999.250 
  2692.500    117.518   -999.250 
  2693.000    119.180   -999.250 
  2693.500    121.349   -999.250 
  2694.000    122.587   -999.250 
  2694.500    122.414   -999.250 
  2695.000    121.970   -999.250 
  2695.500    122.891   -999.250 
  2696.000    125.348   -999.250 
  2696.500    127.374   -999.250 
  2697.000    126.794   -999.250 
  2697.500    123.718   -999.250 
  2698.000    120.355   -999.250 
  2698.500    118.408   -999.250 
  2699.000    117.581   -999.250 
  2699.500    116.736   -999.250 
  2700.000    115.448   -999.250 
  2700.500    114.112   -999.250 
  2701.000    113.440   -999.250 
  2701.500    114.164   -999.250 
  2702.000    116.455   -999.250 
  2702.500    119.307   -999.250 
  2703.000    121.130   -999.250 
  2703.500    121.328   -999.250 
  2704.000    120.824   -999.250 
  2704.500    120.931   -999.250 
  2705.000    122.076   -999.250 
  2705.500    123.727   -999.250 
  2706.000    125.066   -999.250 
  2706.500    125.459   -999.250 
  2707.000    124.810   -999.250 
  2707.500    123.915   -999.250 
  2708.000    123.800   -999.250 
  2708.500    124.010   -999.250 
  2709.000    122.354   -999.250 
  2709.500    117.644   -999.250 
  2710.000    112.078   -999.250 
  2710.500    109.328   -999.250 
  2711.000    110.472   -999.250 
  2711.500    113.314   -999.250 
  2712.000    115.576   -999.250 
  2712.500    116.957   -999.250 
  2713.000    117.929   -999.250 
  2713.500    118.382   -999.250 
