~Version Information Block
 VERS.                2.00:     CWLS LOG ASCII STANDARD - VERSION 2.000000
 WRAP.                  NO:     One Line Per Depth Step
#
~Well Information Block
#MNEM.UNIT                     Data                         Information
#----------   ------------------------------------------   ----------------
 STRT.FT                                        0.0000:
 STOP.FT                                     9910.0000:
 STEP.FT                                        0.5000:
 NULL.                                       -999.2500:
 COMP.                                                :     COMPANY
 WELL.                                                :     WELL
 FLD .                                                :     FIELD
 CNTY.                                                :     COUNTY
 STAT.                                                :     STATE
 CTRY.                                                :     COUNTRY
 SRVC.                                                :     SERVICE COMPANY
 DATE.                                                :     DATE
 API .                                                :     API NUMBER
 UWI .                                                :     UWI NUMBER
#
~Curve Information Block
#MNEM.UNIT       API CODE      Curve Description
#----------    -------------   -------------------
 DEPT.FT                   :   Depth in Feet
 GR  .GAPI                 :   Gamma Ray
 RHOB.G/C3                 :   Bulk Density
#
~A  DEPTH         GR       RHOB  
# ...
  5192.000     44.013      2.834 
  5192.500     44.891      2.827 
  5193.000     46.421      2.823 
  5193.500     48.724      2.826 
  5194.000     51.043      2.832 
  5194.500     52.740      2.836 
  5195.000     53.483      2.836 
  5195.500     53.168      2.837 
  5196.000     52.301      2.838 
  5196.500     51.542      2.838 
  5197.000     50.301      2.834 
  5197.500     46.763      2.827 
  5198.000     40.557      2.823 
  5198.500     34.196      2.824 
  5199.000     30.721      2.826 
  5199.500     30.450      2.827 
  5200.000     31.235      2.825 
  5200.500     31.477      2.822 
  5201.000     31.520      2.819 
  5201.500     32.123      2.817 
  5202.000     33.032      2.817 
  5202.500     33.804      2.819 
  5203.000     35.024      2.822 
  5203.500     37.492      2.825 
  5204.000     40.579      2.827 
  5204.500     42.506      2.831 
  5205.000     42.349      2.836 
  5205.500     40.985      2.842 
  5206.000     39.782      2.846 
  5206.500     38.988      2.848 
  5207.000     37.833      2.849 
  5207.500     36.022      2.852 
  5208.000     34.464      2.856 
  5208.500     34.276      2.857 
  5209.000     35.410      2.854 
  5209.500     36.760      2.847 
  5210.000     37.453      2.839 
  5210.500     37.588      2.830 
  5211.000     37.721      2.823 
  5211.500     38.063      2.818 
  5212.000     38.459      2.816 
  5212.500     38.804      2.815 
  5213.000     39.252      2.813 
  5213.500     39.909      2.812 
  5214.000     40.592      2.813 
  5214.500     41.044      2.813 
  5215.000     41.162      2.813 
  5215.500     40.889      2.815 
  5216.000     40.260      2.821 
  5216.500     39.392      2.829 
  5217.000     37.879      2.833 
  5217.500     34.681      2.832 
  5218.000     29.622      2.828 
  5218.500     24.516      2.825 
  5219.000     21.493      2.820 
  5219.500     20.470      2.809 
  5220.000     19.583      2.795 
  5220.500     17.851      2.787 
  5221.000     16.133      2.790 
  5221.500     15.548      2.800 
  5222.000     16.099      2.809 
  5222.500     17.096      2.812 
  5223.000     18.126      2.812 
  5223.500     19.235      2.812 
  5224.000     20.576      2.813 
  5224.500     22.259      2.818 
  5225.000     24.295      2.824 
  5225.500     26.359      2.830 
  5226.000     27.846      2.834 
  5226.500     28.527      2.837 
  5227.000     28.733      2.839 
  5227.500     28.432      2.840 
  5228.000     26.913      2.838 
  5228.500     24.088      2.835 
  5229.000     21.305      2.834 
  5229.500     19.870      2.835 
  5230.000     19.462      2.832 
  5230.500     18.958      2.825 
  5231.000     18.190      2.818 
  5231.500     17.876      2.812 
  5232.000     18.391      2.807 
  5232.500     19.455      2.803 
  5233.000     20.718      2.807 
  5233.500     22.008      2.819 
  5234.000     23.221      2.833 
  5234.500     24.292      2.841 
  5235.000     25.132      2.846 
  5235.500     25.460      2.850 
  5236.000     24.994      2.850 
  5236.500     23.856      2.842 
  5237.000     22.560      2.828 
  5237.500     21.476      2.816 
  5238.000     20.540      2.810 
  5238.500     19.685      2.810 
  5239.000     19.334      2.812 
  5239.500     19.991      2.813 
  5240.000     21.322      2.813 
  5240.500     22.249      2.813 
  5241.000     22.117      2.815 
  5241.500     21.308      2.821 
  5242.000     20.666      2.828 
  5242.500     20.859      2.834 
  5243.000     22.222      2.838 
  5243.500     24.524      2.836 
  5244.000     26.809      2.827 
  5244.500     28.069      2.815 
  5245.000     28.086      2.807 
  5245.500     27.242      2.804 
  5246.000     25.790      2.802 
  5246.500     23.822      2.795 
  5247.000     21.740      2.786 
  5247.500     20.207      2.781 
  5248.000     19.626      2.786 
  5248.500     19.825      2.794 
  5249.000     20.319      2.798 
  5249.500     20.922      2.799 
  5250.000     22.058      2.803 
  5250.500     24.184      2.814 
  5251.000     26.986      2.829 
  5251.500     29.497      2.843 
  5252.000     31.028      2.854 
  5252.500     31.601      2.858 
  5253.000     31.579      2.855 
  5253.500     31.354      2.850 
  5254.000     31.009      2.844 
  5254.500     30.140      2.839 
  5255.000     28.427      2.833 
  5255.500     26.516      2.826 
  5256.000     25.167      2.820 
  5256.500     23.597      2.815 
  5257.000     20.742      2.812 
  5257.500     18.070      2.811 
  5258.000     18.097      2.809 
  5258.500     20.144      2.805 
  5259.000     21.370      2.800 
  5259.500     22.251      2.800 
  5260.000     26.307      2.808 
  5260.500     33.670      2.823 
  5261.000     39.808      2.837 
  5261.500     41.946      2.843 
  5262.000     42.403      2.840 
  5262.500     44.209      2.833 
  5263.000     47.287      2.827 
  5263.500     49.939      2.822 
  5264.000     51.295      2.816 
  5264.500     51.235      2.813 
  5265.000     49.639      2.813 
  5265.500     46.161      2.817 
  5266.000     40.362      2.819 
  5266.500     33.266      2.817 
  5267.000     28.278      2.812 
  5267.500     28.572      2.806 
  5268.000     34.403      2.803 
  5268.500     44.369      2.801 
  5269.000     57.344      2.798 
  5269.500     70.388      2.791 
  5270.000     80.127      2.783 
  5270.500     79.930      2.780 
  5271.000     75.414      2.785 
  5271.500     72.949      2.793 
  5272.000     68.627      2.803 
  5272.500     58.490      2.812 
  5273.000     46.747      2.815 
  5273.500     38.262      2.812 
  5274.000     36.291      2.804 
  5274.500     44.262      2.798 
  5275.000     57.536      2.797 
  5275.500     64.707      2.799 
  5276.000     63.949      2.800 
  5276.500     63.091      2.799 
  5277.000     64.656      2.798 
  5277.500     66.362      2.795 
  5278.000     68.956      2.789 
  5278.500     71.601      2.783 
  5279.000     75.153      2.778 
  5279.500     78.814      2.775 
  5280.000     80.295      2.771 
  5280.500     78.942      2.766 
  5281.000     77.191      2.763 
  5281.500     77.324      2.759 
  5282.000     77.638      2.758 
  5282.500     74.851      2.762 
  5283.000     69.567      2.772 
  5283.500     65.599      2.786 
  5284.000     64.396      2.798 
  5284.500     63.515      2.808 
  5285.000     61.207      2.815 
  5285.500     59.315      2.819 
  5286.000     60.629      2.818 
  5286.500     65.208      2.813 
  5287.000     70.189      2.808 
  5287.500     72.707      2.804 
  5288.000     72.613      2.799 
  5288.500     71.833      2.793 
  5289.000     71.262      2.789 
  5289.500     69.898      2.790 
  5290.000     67.555      2.793 
  5290.500     66.243      2.796 
  5291.000     67.622      2.796 
  5291.500     70.949      2.794 
  5292.000     74.593      2.790 
  5292.500     77.956      2.786 
  5293.000     80.684      2.784 
  5293.500     81.513      2.785 
  5294.000     79.278      2.790 
  5294.500     74.509      2.798 
  5295.000     69.136      2.804 
  5295.500     64.746      2.807 
  5296.000     61.698      2.806 
  5296.500     59.785      2.802 
  5297.000     59.109      2.799 
  5297.500     59.989      2.796 
  5298.000     62.262      2.792 
  5298.500     64.902      2.789 
  5299.000     66.369      2.788 
  5299.500     65.513      2.792 
  5300.000     62.619      2.799 
  5300.500     59.311      2.805 
  5301.000     56.944      2.811 
  5301.500     55.358      2.816 
  5302.000     53.568      2.822 
  5302.500     51.245      2.826 
  5303.000     48.938      2.828 
  5303.500     47.056      2.829 
  5304.000     45.298      2.831 
  5304.500     43.338      2.834 
  5305.000     41.846      2.835 
  5305.500     42.161      2.834 
  5306.000     44.601      2.830 
  5306.500     47.681      2.827 
  5307.000     49.639      2.826 
  5307.500     50.190      2.824 
  5308.000     50.208      2.819 
  5308.500     50.472      2.813 
  5309.000     51.331      2.809 
  5309.500     52.676      2.808 
