~Version Information Block
 VERS.                2.00:     CWLS LOG ASCII STANDARD - VERSION 2.000000
 WRAP.                  NO:     One Line Per Depth Step
#
~Well Information Block
#MNEM.UNIT                     Data                         Information
#----------   ------------------------------------------   ----------------
 STRT.FT                                        0.0000:
 STOP.FT                                     9910.0000:
 STEP.FT                                        0.5000:
 NULL.                                       -999.2500:
 COMP.                                                :     COMPANY
 WELL.                                                :     WELL
 FLD .                                                :     FIELD
 CNTY.                                                :     COUNTY
 STAT.                                                :     STATE
 CTRY.                                                :     COUNTRY
 SRVC.                                                :     SERVICE COMPANY
 DATE.                                                :     DATE
 API .                                                :     API NUMBER
 UWI .                                                :     UWI NUMBER
#
~Curve Information Block
#MNEM.UNIT       API CODE      Curve Description
#----------    -------------   -------------------
 DEPT.FT                   :   Depth in Feet
 GR  .GAPI                 :   Gamma Ray
 RHOB.G/C3                 :   Bulk Density
#
~A  DEPTH         GR       RHOB  
# ...
  3894.000    132.730   -999.250 
  3894.500    132.066   -999.250 
  3895.000    130.534   -999.250 
  3895.500    129.165   -999.250 
  3896.000    128.787   -999.250 
  3896.500    129.047   -999.250 
  3897.000    128.785   -999.250 
  3897.500    127.112   -999.250 
  3898.000    124.334   -999.250 
  3898.500    121.582   -999.250 
  3899.000    119.205   -999.250 
  3899.500    116.535   -999.250 
  3900.000    114.072   -999.250 
  3900.500    114.248   -999.250 
  3901.000    118.526   -999.250 
  3901.500    125.044   -999.250 
  3902.000    130.550   -999.250 
  3902.500    133.571   -999.250 
  3903.000    134.546   -999.250 
  3903.500    134.107   -999.250 
  3904.000    132.439   -999.250 
  3904.500    129.597   -999.250 
  3905.000    125.734   -999.250 
  3905.500    121.438   -999.250 
  3906.000    117.869   -999.250 
  3906.500    115.838   -999.250 
  3907.000    114.938   -999.250 
  3907.500    114.308   -999.250 
  3908.000    113.870   -999.250 
  3908.500    113.909   -999.250 
  3909.000    113.731   -999.250 
  3909.500    111.979   -999.250 
  3910.000    108.521   -999.250 
  3910.500    105.069   -999.250 
  3911.000    103.348   -999.250 
  3911.500    103.387   -999.250 
  3912.000    104.228   -999.250 
  3912.500    105.480   -999.250 
  3913.000    107.211   -999.250 
  3913.500    108.777   -999.250 
  3914.000    108.981   -999.250 
  3914.500    107.454   -999.250 
  3915.000    105.151   -999.250 
  3915.500    103.387   -999.250 
  3916.000    102.911   -999.250 
  3916.500    103.875   -999.250 
  3917.000    105.920   -999.250 
  3917.500    108.124   -999.250 
  3918.000    109.572   -999.250 
  3918.500    110.332   -999.250 
  3919.000    111.200   -999.250 
  3919.500    112.213   -999.250 
  3920.000    112.248   -999.250 
  3920.500    110.560   -999.250 
  3921.000    108.085   -999.250 
  3921.500    106.677   -999.250 
  3922.000    107.458   -999.250 
  3922.500    110.283   -999.250 
  3923.000    114.381   -999.250 
  3923.500    118.966   -999.250 
  3924.000    123.322   -999.250 
  3924.500    126.723   -999.250 
  3925.000    128.598   -999.250 
  3925.500    128.993   -999.250 
  3926.000    128.795   -999.250 
  3926.500    129.089   -999.250 
  3927.000    129.999   -999.250 
  3927.500    130.429   -999.250 
  3928.000    129.221   -999.250 
  3928.500    126.422   -999.250 
  3929.000    123.164   -999.250 
  3929.500    120.523   -999.250 
  3930.000    118.848   -999.250 
  3930.500    118.082   -999.250 
  3931.000    118.220   -999.250 
  3931.500    119.309   -999.250 
  3932.000    121.221   -999.250 
  3932.500    123.505   -999.250 
  3933.000    125.347   -999.250 
  3933.500    125.872   -999.250 
  3934.000    124.740   -999.250 
  3934.500    122.362   -999.250 
  3935.000    119.375   -999.250 
  3935.500    116.224   -999.250 
  3936.000    113.438   -999.250 
  3936.500    111.833   -999.250 
  3937.000    111.904   -999.250 
  3937.500    113.126   -999.250 
  3938.000    114.228   -999.250 
  3938.500    114.274   -999.250 
  3939.000    113.401   -999.250 
  3939.500    112.505   -999.250 
  3940.000    112.280   -999.250 
  3940.500    112.731   -999.250 
  3941.000    113.636   -999.250 
  3941.500    115.105   -999.250 
  3942.000    117.204   -999.250 
  3942.500    119.318   -999.250 
  3943.000    120.547   -999.250 
  3943.500    120.680   -999.250 
  3944.000    120.105   -999.250 
  3944.500    118.920   -999.250 
  3945.000    116.841   -999.250 
  3945.500    114.169   -999.250 
  3946.000    112.126   -999.250 
  3946.500    111.775   -999.250 
  3947.000    112.991   -999.250 
  3947.500    114.860   -999.250 
  3948.000    116.736   -999.250 
  3948.500    118.457   -999.250 
  3949.000    119.914   -999.250 
  3949.500    121.158   -999.250 
  3950.000    122.859   -999.250 
  3950.500    125.823   -999.250 
  3951.000    129.733   -999.250 
  3951.500    132.938   -999.250 
  3952.000    133.900   -999.250 
  3952.500    132.644   -999.250 
  3953.000    130.553   -999.250 
  3953.500    128.945   -999.250 
  3954.000    128.040   -999.250 
  3954.500    127.159   -999.250 
  3955.000    125.738   -999.250 
  3955.500    124.020   -999.250 
  3956.000    122.754   -999.250 
  3956.500    122.280   -999.250 
  3957.000    122.167   -999.250 
  3957.500    121.820   -999.250 
  3958.000    121.248   -999.250 
  3958.500    121.054   -999.250 
  3959.000    121.760   -999.250 
  3959.500    123.338   -999.250 
  3960.000    125.238   -999.250 
  3960.500    126.793   -999.250 
  3961.000    127.660   -999.250 
  3961.500    128.004   -999.250 
  3962.000    128.132   -999.250 
  3962.500    128.035   -999.250 
  3963.000    127.550   -999.250 
  3963.500    126.897   -999.250 
  3964.000    126.570   -999.250 
  3964.500    126.582   -999.250 
  3965.000    126.252   -999.250 
  3965.500    124.973   -999.250 
  3966.000    122.849   -999.250 
  3966.500    120.396   -999.250 
  3967.000    117.994   -999.250 
  3967.500    115.952   -999.250 
  3968.000    114.735   -999.250 
  3968.500    114.597   -999.250 
  3969.000    115.181   -999.250 
  3969.500    116.020   -999.250 
  3970.000    117.176   -999.250 
  3970.500    118.691   -999.250 
  3971.000    119.671   -999.250 
  3971.500    118.942   -999.250 
  3972.000    116.794   -999.250 
  3972.500    115.090   -999.250 
  3973.000    115.233   -999.250 
  3973.500    116.754   -999.250 
  3974.000    118.281   -999.250 
  3974.500    119.072   -999.250 
  3975.000    118.975   -999.250 
  3975.500    117.663   -999.250 
  3976.000    114.872   -999.250 
  3976.500    111.184   -999.250 
  3977.000    107.836   -999.250 
  3977.500    105.652   -999.250 
  3978.000    104.484   -999.250 
  3978.500    103.656   -999.250 
  3979.000    102.751   -999.250 
  3979.500    101.955   -999.250 
  3980.000    101.740   -999.250 
  3980.500    102.262   -999.250 
  3981.000    103.135   -999.250 
  3981.500    103.815   -999.250 
  3982.000    104.054   -999.250 
  3982.500    103.951   -999.250 
  3983.000    103.769   -999.250 
  3983.500    103.808   -999.250 
  3984.000    104.294   -999.250 
  3984.500    105.272   -999.250 
  3985.000    106.623   -999.250 
  3985.500    108.139   -999.250 
  3986.000    109.622   -999.250 
  3986.500    110.983   -999.250 
  3987.000    112.174   -999.250 
  3987.500    112.872   -999.250 
  3988.000    112.535   -999.250 
  3988.500    111.117   -999.250 
  3989.000    109.464   -999.250 
  3989.500    108.555   -999.250 
  3990.000    108.511   -999.250 
  3990.500    108.803   -999.250 
  3991.000    109.161   -999.250 
  3991.500    109.728   -999.250 
  3992.000    110.465   -999.250 
  3992.500    110.983   -999.250 
  3993.000    111.004   -999.250 
  3993.500    110.587   -999.250 
  3994.000    109.915   -999.250 
  3994.500    109.127   -999.250 
  3995.000    108.418   -999.250 
  3995.500    108.081   -999.250 
  3996.000    108.433   -999.250 
  3996.500    109.699   -999.250 
  3997.000    111.876   -999.250 
  3997.500    114.618   -999.250 
  3998.000    117.259   -999.250 
  3998.500    119.141   -999.250 
  3999.000    120.178   -999.250 
  3999.500    120.990   -999.250 
  4000.000    122.133   -999.250 
  4000.500    123.233   -999.250 
  4001.000    123.451   -999.250 
  4001.500    122.751   -999.250 
  4002.000    121.996   -999.250 
  4002.500    121.684   -999.250 
  4003.000    121.436   -999.250 
  4003.500    120.869   -999.250 
  4004.000    120.129   -999.250 
  4004.500    119.341   -999.250 
  4005.000    118.384   -999.250 
  4005.500    117.461   -999.250 
  4006.000    117.077   -999.250 
  4006.500    117.192   -999.250 
  4007.000    117.070   -999.250 
  4007.500    116.136   -999.250 
  4008.000    114.555   -999.250 
  4008.500    112.934   -999.250 
  4009.000    111.904   -999.250 
  4009.500    111.788   -999.250 
  4010.000    112.255   -999.250 
  4010.500    112.606   -999.250 
  4011.000    112.800   -999.250 
  4011.500    113.443   -999.250 
