~Version Information Block
 VERS.                2.00:     CWLS LOG ASCII STANDARD - VERSION 2.000000
 WRAP.                  NO:     One Line Per Depth Step
#
~Well Information Block
#MNEM.UNIT                     Data                         Information
#----------   ------------------------------------------   ----------------
 STRT.FT                                        0.0000:
 STOP.FT                                     9910.0000:
 STEP.FT                                        0.5000:
 NULL.                                       -999.2500:
 COMP.                                                :     COMPANY
 WELL.                                                :     WELL
 FLD .                                                :     FIELD
 CNTY.                                                :     COUNTY
 STAT.                                                :     STATE
 CTRY.                                                :     COUNTRY
 SRVC.                                                :     SERVICE COMPANY
 DATE.                                                :     DATE
 API .                                                :     API NUMBER
 UWI .                                                :     UWI NUMBER
#
~Curve Information Block
#MNEM.UNIT       API CODE      Curve Description
#----------    -------------   -------------------
 DEPT.FT                   :   Depth in Feet
 GR  .GAPI                 :   Gamma Ray
 RHOB.G/C3                 :   Bulk Density
#
~A  DEPTH         GR       RHOB  
# ...
  3186.000    118.906   -999.250 
  3186.500    118.973   -999.250 
  3187.000    117.939   -999.250 
  3187.500    116.006   -999.250 
  3188.000    113.727   -999.250 
  3188.500    111.814   -999.250 
  3189.000    110.855   -999.250 
  3189.500    110.809   -999.250 
  3190.000    111.092   -999.250 
  3190.500    111.501   -999.250 
  3191.000    112.570   -999.250 
  3191.500    114.291   -999.250 
  3192.000    115.029   -999.250 
  3192.500    113.070   -999.250 
  3193.000    109.443   -999.250 
  3193.500    107.543   -999.250 
  3194.000    109.412   -999.250 
  3194.500    113.718   -999.250 
  3195.000    118.025   -999.250 
  3195.500    121.492   -999.250 
  3196.000    124.342   -999.250 
  3196.500    126.406   -999.250 
  3197.000    127.290   -999.250 
  3197.500    126.728   -999.250 
  3198.000    124.399   -999.250 
  3198.500    121.023   -999.250 
  3199.000    119.489   -999.250 
  3199.500    122.576   -999.250 
  3200.000    129.047   -999.250 
  3200.500    133.947   -999.250 
  3201.000    133.489   -999.250 
  3201.500    128.361   -999.250 
  3202.000    122.010   -999.250 
  3202.500    117.256   -999.250 
  3203.000    115.003   -999.250 
  3203.500    114.943   -999.250 
  3204.000    116.234   -999.250 
  3204.500    117.728   -999.250 
  3205.000    118.416   -999.250 
  3205.500    118.142   -999.250 
  3206.000    117.664   -999.250 
  3206.500    117.686   -999.250 
  3207.000    117.957   -999.250 
  3207.500    117.857   -999.250 
  3208.000    117.572   -999.250 
  3208.500    117.852   -999.250 
  3209.000    118.898   -999.250 
  3209.500    120.243   -999.250 
  3210.000    121.686   -999.250 
  3210.500    123.368   -999.250 
  3211.000    124.837   -999.250 
  3211.500    125.189   -999.250 
  3212.000    124.472   -999.250 
  3212.500    123.887   -999.250 
  3213.000    124.059   -999.250 
  3213.500    123.991   -999.250 
  3214.000    122.299   -999.250 
  3214.500    118.971   -999.250 
  3215.000    115.648   -999.250 
  3215.500    114.445   -999.250 
  3216.000    116.355   -999.250 
  3216.500    120.408   -999.250 
  3217.000    124.472   -999.250 
  3217.500    126.993   -999.250 
  3218.000    127.794   -999.250 
  3218.500    127.567   -999.250 
  3219.000    127.126   -999.250 
  3219.500    127.046   -999.250 
  3220.000    127.491   -999.250 
  3220.500    128.266   -999.250 
  3221.000    129.017   -999.250 
  3221.500    129.103   -999.250 
  3222.000    127.644   -999.250 
  3222.500    124.550   -999.250 
  3223.000    121.422   -999.250 
  3223.500    120.423   -999.250 
  3224.000    121.980   -999.250 
  3224.500    124.350   -999.250 
  3225.000    125.559   -999.250 
  3225.500    125.187   -999.250 
  3226.000    124.219   -999.250 
  3226.500    123.867   -999.250 
  3227.000    124.676   -999.250 
  3227.500    126.230   -999.250 
  3228.000    127.509   -999.250 
  3228.500    127.899   -999.250 
  3229.000    127.889   -999.250 
  3229.500    128.272   -999.250 
  3230.000    128.684   -999.250 
  3230.500    127.753   -999.250 
  3231.000    124.950   -999.250 
  3231.500    121.565   -999.250 
  3232.000    119.360   -999.250 
  3232.500    118.860   -999.250 
  3233.000    119.373   -999.250 
  3233.500    120.238   -999.250 
  3234.000    121.388   -999.250 
  3234.500    122.948   -999.250 
  3235.000    124.836   -999.250 
  3235.500    126.739   -999.250 
  3236.000    127.939   -999.250 
  3236.500    127.300   -999.250 
  3237.000    124.328   -999.250 
  3237.500    120.408   -999.250 
  3238.000    118.055   -999.250 
  3238.500    118.466   -999.250 
  3239.000    120.576   -999.250 
  3239.500    122.807   -999.250 
  3240.000    124.738   -999.250 
  3240.500    126.448   -999.250 
  3241.000    127.380   -999.250 
  3241.500    126.907   -999.250 
  3242.000    125.486   -999.250 
  3242.500    124.316   -999.250 
  3243.000    124.074   -999.250 
  3243.500    124.552   -999.250 
  3244.000    125.235   -999.250 
  3244.500    125.604   -999.250 
  3245.000    125.159   -999.250 
  3245.500    123.846   -999.250 
  3246.000    122.400   -999.250 
  3246.500    121.704   -999.250 
  3247.000    122.012   -999.250 
  3247.500    123.188   -999.250 
  3248.000    125.020   -999.250 
  3248.500    126.772   -999.250 
  3249.000    127.466   -999.250 
  3249.500    127.486   -999.250 
  3250.000    128.448   -999.250 
  3250.500    130.551   -999.250 
  3251.000    131.774   -999.250 
  3251.500    130.969   -999.250 
  3252.000    130.008   -999.250 
  3252.500    131.107   -999.250 
  3253.000    133.295   -999.250 
  3253.500    133.316   -999.250 
  3254.000    129.615   -999.250 
  3254.500    124.162   -999.250 
  3255.000    120.288   -999.250 
  3255.500    119.495   -999.250 
  3256.000    120.861   -999.250 
  3256.500    122.997   -999.250 
  3257.000    125.329   -999.250 
  3257.500    127.246   -999.250 
  3258.000    127.571   -999.250 
  3258.500    126.028   -999.250 
  3259.000    124.152   -999.250 
  3259.500    123.594   -999.250 
  3260.000    124.321   -999.250 
  3260.500    125.353   -999.250 
  3261.000    126.359   -999.250 
  3261.500    127.383   -999.250 
  3262.000    127.826   -999.250 
  3262.500    126.992   -999.250 
  3263.000    125.368   -999.250 
  3263.500    124.244   -999.250 
  3264.000    124.024   -999.250 
  3264.500    123.764   -999.250 
  3265.000    122.576   -999.250 
  3265.500    120.829   -999.250 
  3266.000    119.396   -999.250 
  3266.500    118.193   -999.250 
  3267.000    116.521   -999.250 
  3267.500    115.001   -999.250 
  3268.000    115.820   -999.250 
  3268.500    119.858   -999.250 
  3269.000    124.742   -999.250 
  3269.500    127.337   -999.250 
  3270.000    127.261   -999.250 
  3270.500    126.158   -999.250 
  3271.000    124.673   -999.250 
  3271.500    122.504   -999.250 
  3272.000    120.491   -999.250 
  3272.500    119.909   -999.250 
  3273.000    120.255   -999.250 
  3273.500    120.230   -999.250 
  3274.000    120.263   -999.250 
  3274.500    121.568   -999.250 
  3275.000    123.426   -999.250 
  3275.500    124.135   -999.250 
  3276.000    124.088   -999.250 
  3276.500    125.163   -999.250 
  3277.000    127.394   -999.250 
  3277.500    128.922   -999.250 
  3278.000    129.184   -999.250 
  3278.500    129.536   -999.250 
  3279.000    130.492   -999.250 
  3279.500    130.712   -999.250 
  3280.000    129.218   -999.250 
  3280.500    126.742   -999.250 
  3281.000    124.422   -999.250 
  3281.500    122.615   -999.250 
  3282.000    121.252   -999.250 
  3282.500    120.245   -999.250 
  3283.000    119.471   -999.250 
  3283.500    119.120   -999.250 
  3284.000    119.901   -999.250 
  3284.500    122.126   -999.250 
  3285.000    124.845   -999.250 
  3285.500    126.537   -999.250 
  3286.000    126.620   -999.250 
  3286.500    125.935   -999.250 
  3287.000    125.733   -999.250 
  3287.500    126.168   -999.250 
  3288.000    126.031   -999.250 
  3288.500    124.378   -999.250 
  3289.000    122.161   -999.250 
  3289.500    121.476   -999.250 
  3290.000    123.115   -999.250 
  3290.500    125.739   -999.250 
  3291.000    127.593   -999.250 
  3291.500    128.232   -999.250 
  3292.000    128.284   -999.250 
  3292.500    128.064   -999.250 
  3293.000    127.158   -999.250 
  3293.500    125.374   -999.250 
  3294.000    123.486   -999.250 
  3294.500    122.324   -999.250 
  3295.000    121.632   -999.250 
  3295.500    120.832   -999.250 
  3296.000    120.666   -999.250 
  3296.500    122.530   -999.250 
  3297.000    125.951   -999.250 
  3297.500    128.274   -999.250 
  3298.000    127.484   -999.250 
  3298.500    124.335   -999.250 
  3299.000    121.342   -999.250 
  3299.500    120.607   -999.250 
  3300.000    122.696   -999.250 
  3300.500    126.508   -999.250 
  3301.000    129.918   -999.250 
  3301.500    131.347   -999.250 
  3302.000    131.020   -999.250 
  3302.500    130.251   -999.250 
  3303.000    129.721   -999.250 
  3303.500    129.046   -999.250 
