~Version Information Block
 VERS.                2.00:     CWLS LOG ASCII STANDARD - VERSION 2.000000
 WRAP.                  NO:     One Line Per Depth Step
#
~Well Information Block
#MNEM.UNIT                     Data                         Information
#----------   ------------------------------------------   ----------------
 STRT.FT                                        0.0000:
 STOP.FT                                     9910.0000:
 STEP.FT                                        0.5000:
 NULL.                                       -999.2500:
 COMP.                                                :     COMPANY
 WELL.                                                :     WELL
 FLD .                                                :     FIELD
 CNTY.                                                :     COUNTY
 STAT.                                                :     STATE
 CTRY.                                                :     COUNTRY
 SRVC.                                                :     SERVICE COMPANY
 DATE.                                                :     DATE
 API .                                                :     API NUMBER
 UWI .                                                :     UWI NUMBER
#
~Curve Information Block
#MNEM.UNIT       API CODE      Curve Description
#----------    -------------   -------------------
 DEPT.FT                   :   Depth in Feet
 GR  .GAPI                 :   Gamma Ray
 RHOB.G/C3                 :   Bulk Density
#
~A  DEPTH         GR       RHOB  
# ...
  7080.000    114.233      2.844 
  7080.500    112.807      2.853 
  7081.000    110.498      2.865 
  7081.500    106.049      2.878 
  7082.000     95.041      2.879 
  7082.500     78.619      2.863 
  7083.000     63.977      2.834 
  7083.500     59.632      2.800 
  7084.000     57.254      2.765 
  7084.500     55.274      2.736 
  7085.000     56.403      2.719 
  7085.500     59.171      2.716 
  7086.000     61.245      2.719 
  7086.500     62.162      2.721 
  7087.000     60.920      2.719 
  7087.500     57.026      2.718 
  7088.000     52.127      2.719 
  7088.500     48.729      2.723 
  7089.000     46.607      2.727 
  7089.500     42.553      2.727 
  7090.000     39.083      2.722 
  7090.500     44.391      2.718 
  7091.000     54.307      2.721 
  7091.500     60.328      2.731 
  7092.000     64.934      2.742 
  7092.500     72.203      2.747 
  7093.000     79.576      2.749 
  7093.500     80.609      2.752 
  7094.000     75.252      2.757 
  7094.500     69.850      2.760 
  7095.000     68.128      2.761 
  7095.500     68.191      2.756 
  7096.000     67.474      2.746 
  7096.500     65.852      2.733 
  7097.000     64.279      2.723 
  7097.500     63.249      2.723 
  7098.000     62.217      2.733 
  7098.500     59.877      2.746 
  7099.000     56.928      2.756 
  7099.500     57.744      2.758 
  7100.000     66.191      2.757 
  7100.500     79.598      2.754 
  7101.000     90.301      2.752 
  7101.500     93.873      2.750 
  7102.000     92.653      2.747 
  7102.500     91.058      2.741 
  7103.000     90.594      2.734 
  7103.500     90.173      2.726 
  7104.000     88.294      2.717 
  7104.500     83.776      2.705 
  7105.000     76.538      2.689 
  7105.500     68.514      2.676 
  7106.000     62.409      2.670 
  7106.500     59.687      2.673 
  7107.000     60.658      2.683 
  7107.500     65.075      2.691 
  7108.000     70.926      2.693 
  7108.500     74.131      2.689 
  7109.000     72.139      2.681 
  7109.500     66.867      2.668 
  7110.000     62.302      2.656 
  7110.500     60.110      2.651 
  7111.000     59.370      2.657 
  7111.500     59.370      2.671 
  7112.000     60.084      2.684 
  7112.500     60.834      2.694 
  7113.000     61.595      2.702 
  7113.500     64.681      2.705 
  7114.000     70.802      2.701 
  7114.500     73.961      2.688 
  7115.000     66.245      2.675 
  7115.500     48.725      2.665 
  7116.000     32.267      2.660 
  7116.500     25.445      2.657 
  7117.000     26.535      2.654 
  7117.500     29.116      2.652 
  7118.000     30.198      2.649 
  7118.500     30.276      2.645 
  7119.000     29.878      2.639 
  7119.500     29.488      2.629 
  7120.000     30.172      2.618 
  7120.500     32.067      2.613 
  7121.000     33.848      2.618 
  7121.500     35.042      2.630 
  7122.000     37.287      2.644 
  7122.500     41.896      2.657 
  7123.000     48.433      2.672 
  7123.500     54.268      2.690 
  7124.000     58.582      2.712 
  7124.500     62.526      2.732 
  7125.000     67.289      2.749 
  7125.500     74.152      2.758 
  7126.000     82.481      2.760 
  7126.500     88.598      2.758 
  7127.000     89.579      2.758 
  7127.500     85.125      2.764 
  7128.000     78.750      2.779 
  7128.500     79.893      2.797 
  7129.000     93.909      2.811 
  7129.500    111.393      2.817 
  7130.000    115.529      2.818 
  7130.500    111.479      2.812 
  7131.000    106.944      2.802 
  7131.500     98.971      2.787 
  7132.000     92.757      2.775 
  7132.500     94.462      2.771 
  7133.000     97.765      2.775 
  7133.500    100.653      2.782 
  7134.000    109.525      2.785 
  7134.500    118.415      2.784 
  7135.000    118.175      2.778 
  7135.500    111.574      2.761 
  7136.000     99.717      2.732 
  7136.500     88.853      2.701 
  7137.000     86.893      2.677 
  7137.500     75.158      2.652 
  7138.000     53.215      2.621 
  7138.500     37.920      2.599 
  7139.000     34.974      2.605 
  7139.500     33.968      2.636 
  7140.000     31.842      2.666 
  7140.500     33.302      2.676 
  7141.000     35.791      2.668 
  7141.500     34.940      2.655 
  7142.000     33.640      2.646 
  7142.500     35.078      2.645 
  7143.000     37.699      2.646 
  7143.500     39.670      2.645 
  7144.000     40.557      2.645 
  7144.500     39.420      2.647 
  7145.000     36.080      2.652 
  7145.500     32.841      2.657 
  7146.000     31.554      2.661 
  7146.500     31.451      2.667 
  7147.000     31.566      2.672 
  7147.500     32.472      2.674 
  7148.000     34.198      2.676 
  7148.500     35.593      2.679 
  7149.000     35.457      2.681 
  7149.500     32.977      2.672 
  7150.000     28.911      2.652 
  7150.500     25.556      2.629 
  7151.000     23.230      2.613 
  7151.500     19.863      2.600 
  7152.000     15.668      2.579 
  7152.500     13.372      2.548 
  7153.000     13.045      2.521 
  7153.500     13.952      2.498 
  7154.000     15.263      2.467 
  7154.500     16.743      2.435 
  7155.000     18.448      2.433 
  7155.500     20.347      2.498 
  7156.000     22.387      2.592 
  7156.500     24.409      2.642 
  7157.000     25.918      2.649 
  7157.500     26.177      2.656 
  7158.000     24.762      2.663 
  7158.500     22.107      2.659 
  7159.000     19.348      2.657 
  7159.500     17.337      2.656 
  7160.000     15.943      2.643 
  7160.500     14.683      2.621 
  7161.000     13.644      2.609 
  7161.500     13.243      2.606 
  7162.000     13.478      2.606 
  7162.500     14.096      2.607 
  7163.000     15.178      2.613 
  7163.500     16.863      2.621 
  7164.000     18.694      2.629 
  7164.500     19.905      2.635 
  7165.000     20.283      2.641 
  7165.500     20.286      2.650 
  7166.000     20.252      2.655 
  7166.500     19.897      2.651 
  7167.000     18.827      2.640 
  7167.500     17.285      2.630 
  7168.000     15.993      2.627 
  7168.500     15.339      2.630 
  7169.000     15.085      2.635 
  7169.500     14.954      2.640 
  7170.000     15.044      2.647 
  7170.500     15.497      2.650 
  7171.000     16.076      2.646 
  7171.500     16.356      2.639 
  7172.000     16.103      2.632 
  7172.500     15.347      2.628 
  7173.000     14.383      2.624 
  7173.500     13.658      2.618 
  7174.000     13.408      2.614 
  7174.500     13.394      2.610 
  7175.000     13.350      2.605 
  7175.500     13.501      2.598 
  7176.000     14.175      2.594 
  7176.500     15.154      2.600 
  7177.000     15.947      2.615 
  7177.500     16.557      2.630 
  7178.000     17.434      2.637 
  7178.500     18.759      2.638 
  7179.000     20.245      2.640 
  7179.500     21.495      2.646 
  7180.000     22.162      2.652 
  7180.500     21.962      2.654 
  7181.000     20.914      2.648 
  7181.500     19.469      2.636 
  7182.000     18.117      2.625 
  7182.500     16.977      2.621 
  7183.000     15.988      2.623 
  7183.500     15.326      2.622 
  7184.000     15.310      2.609 
  7184.500     15.904      2.588 
  7185.000     16.631      2.573 
  7185.500     17.079      2.568 
  7186.000     17.244      2.567 
  7186.500     17.261      2.565 
  7187.000     17.138      2.560 
  7187.500     17.033      2.559 
  7188.000     17.402      2.565 
  7188.500     18.407      2.577 
  7189.000     19.562      2.595 
  7189.500     20.330      2.612 
  7190.000     20.822      2.622 
  7190.500     21.416      2.622 
  7191.000     22.025      2.618 
  7191.500     22.127      2.616 
  7192.000     21.270      2.616 
  7192.500     19.419      2.612 
  7193.000     17.127      2.605 
  7193.500     15.415      2.601 
  7194.000     14.858      2.605 
  7194.500     15.117      2.613 
  7195.000     15.660      2.618 
  7195.500     16.569      2.621 
  7196.000     18.108      2.627 
  7196.500     20.360      2.639 
  7197.000     23.640      2.651 
  7197.500     27.905      2.659 
