~Version Information Block
 VERS.                2.00:     CWLS LOG ASCII STANDARD - VERSION 2.000000
 WRAP.                  NO:     One Line Per Depth Step
#
~Well Information Block
#MNEM.UNIT                     Data                         Information
#----------   ------------------------------------------   ----------------
 STRT.FT                                        0.0000:
 STOP.FT                                     9910.0000:
 STEP.FT                                        0.5000:
 NULL.                                       -999.2500:
 COMP.                                                :     COMPANY
 WELL.                                                :     WELL
 FLD .                                                :     FIELD
 CNTY.                                                :     COUNTY
 STAT.                                                :     STATE
 CTRY.                                                :     COUNTRY
 SRVC.                                                :     SERVICE COMPANY
 DATE.                                                :     DATE
 API .                                                :     API NUMBER
 UWI .                                                :     UWI NUMBER
#
~Curve Information Block
#MNEM.UNIT       API CODE      Curve Description
#----------    -------------   -------------------
 DEPT.FT                   :   Depth in Feet
 GR  .GAPI                 :   Gamma Ray
 RHOB.G/C3                 :   Bulk Density
#
~A  DEPTH         GR       RHOB  
# ...
  8396.500     86.211      2.774
  8397.000     87.286      2.791
  8397.500     88.939      2.793
  8398.000     90.922      2.793
  8398.500     92.991      2.790
  8399.000     94.218      2.791
  8399.500     94.631      2.788
  8400.000     95.348      2.798
  8400.500     96.903      2.803
  8401.000     98.858      2.800
  8401.500    100.745      2.800
  8402.000    102.255      2.801
  8402.500    102.455      2.800
  8403.000    100.501      2.801
  8403.500     97.045      2.799
  8404.000     94.010      2.801
  8404.500     93.426      2.801
  8405.000     97.320      2.799
  8405.500    107.141      2.796
  8406.000    121.430      2.791
  8406.500    135.230      2.792
  8407.000    143.541      2.796
  8407.500    144.513      2.799
  8408.000    138.940      2.800
  8408.500    129.174      2.802
  8409.000    119.573      2.807
  8409.500    114.859      2.807
  8410.000    115.941      2.809
  8410.500    119.413      2.809
  8411.000    122.223      2.803
  8411.500    124.321      2.800
  8412.000    125.640      2.795
  8412.500    124.292      2.795
  8413.000    118.321      2.797
  8413.500    110.057      2.797
  8414.000    102.413      2.795
  8414.500     96.096      2.791
  8415.000     90.439      2.787
  8415.500     88.057      2.784
  8416.000     93.157      2.781
  8416.500    103.692      2.775
  8417.000    113.862      2.776
  8417.500    122.012      2.780
  8418.000    125.295      2.782
  8418.500    117.341      2.779
  8419.000    101.606      2.781
  8419.500     92.114      2.781
  8420.000     94.420      2.783
  8420.500     97.955      2.792
  8421.000     93.306      2.797
  8421.500     89.499      2.800
  8422.000    101.628      2.798
  8422.500    124.260      2.793
  8423.000    138.907      2.788
  8423.500    141.648      2.783
  8424.000    138.385      2.777
  8424.500    130.544      2.770
  8425.000    122.607      2.767
  8425.500    117.407      2.766
  8426.000    105.723      2.765
  8426.500     86.151      2.769
  8427.000     73.969      2.771
  8427.500     74.307      2.780
  8428.000     72.129      2.788
  8428.500     71.222      2.798
  8429.000     72.614      2.804
  8429.500     76.912      2.814
  8430.000     84.711      2.817
  8430.500     80.132      2.818
  8431.000     82.579      2.817
  8431.500    121.900      2.816
  8432.000    160.911      2.816
  8432.500    164.948      2.815
  8433.000    161.020      2.814
  8433.500    164.105      2.814
  8434.000    162.846      2.816
  8434.500    160.935      2.816
  8435.000    161.418      2.818
  8435.500    160.378      2.824
  8436.000    157.380      2.831
  8436.500    149.410      2.835
  8437.000    138.537      2.839
  8437.500    130.296      2.836
  8438.000    126.394      2.829
  8438.500    124.528      2.825
  8439.000    123.199      2.822
  8439.500    122.865      2.816
  8440.000    123.256      2.816
  8440.500    122.890      2.817
  8441.000    121.370      2.817
  8441.500    119.954      2.817
  8442.000    119.674      2.816
  8442.500    120.307      2.813
  8443.000    121.472      2.813
  8443.500    123.265      2.812
  8444.000    125.280      2.818
  8444.500    126.353      2.823
  8445.000    125.959      2.826
  8445.500    124.962      2.827
  8446.000    124.478      2.828
  8446.500    124.688      2.824
  8447.000    125.335      2.810
  8447.500    126.030      2.788
  8448.000    126.066      2.766
  8448.500    124.903      2.731
  8449.000    123.118      2.686
  8449.500    121.613      2.627
  8450.000    120.054      2.594
  8450.500    118.041      2.554
  8451.000    117.382      2.496
  8451.500    120.335      2.502
  8452.000    125.939      2.498
  8452.500    131.738      2.740
  8453.000    138.568      2.789
  8453.500    149.319      2.783
  8454.000    162.727      2.772
  8454.500    173.190      2.758
  8455.000    177.379      2.753
  8455.500    177.227      2.747
  8456.000    175.815      2.746
  8456.500    173.838      2.750
  8457.000    170.593      2.751
  8457.500    165.932      2.756
  8458.000    160.418      2.758
  8458.500    154.362      2.757
  8459.000    146.866      2.753
  8459.500    138.524      2.748
  8460.000    126.011      2.749
  8460.500    113.955      2.758
  8461.000    103.806      2.763
  8461.500     91.483      2.756
  8462.000     79.168      2.745
  8462.500     73.138      2.728
  8463.000     71.936      2.713
  8463.500     70.261      2.704
  8464.000     68.135      2.696
  8464.500     67.255      2.693
  8465.000     66.659      2.692
  8465.500     65.985      2.699
  8466.000     66.745      2.713
  8466.500     69.863      2.726
  8467.000     74.998      2.738
  8467.500     81.308      2.736
  8468.000     87.630      2.731
  8468.500     92.921      2.724
  8469.000     96.355      2.713
  8469.500     97.037      2.706
  8470.000     95.166      2.710
  8470.500     92.281      2.734
  8471.000     86.955      2.756
  8471.500     76.807      2.769
  8472.000     68.593      2.779
  8472.500     72.489      2.795
  8473.000     84.712      2.806
  8473.500     94.474      2.814
  8474.000    103.174      2.818
  8474.500    116.680      2.822
  8475.000    130.993      2.822
  8475.500    140.675      2.820
  8476.000    146.387      2.809
  8476.500    148.287      2.802
  8477.000    146.174      2.782
  8477.500    143.351      2.763
  8478.000    141.373      2.721
  8478.500    138.121      2.692
  8479.000    133.552      2.664
  8479.500    128.986      2.647
  8480.000    121.625      2.651
  8480.500    106.901      2.715
  8481.000     87.221      2.748
  8481.500     72.634      2.754
  8482.000     69.006      2.751
  8482.500     70.580      2.733
  8483.000     70.372      2.718
  8483.500     69.839      2.708
  8484.000     70.330      2.706
  8484.500     67.830      2.714
  8485.000     64.652      2.731
  8485.500     70.604      2.768
  8486.000     87.755      2.779
  8486.500    109.699      2.768
  8487.000    132.903      2.752
  8487.500    154.390      2.719
  8488.000    167.280      2.716
  8488.500    169.125      2.715
  8489.000    165.135      2.733
  8489.500    159.751      2.779
  8490.000    152.115      2.790
  8490.500    141.887      2.804
  8491.000    128.167      2.807
  8491.500    116.470      2.809
  8492.000    115.563      2.815
  8492.500    121.436      2.823
  8493.000    126.085      2.826
  8493.500    132.902      2.832
  8494.000    142.921      2.835
  8494.500    150.165      2.834
  8495.000    153.802      2.821
  8495.500    154.838      2.814
  8496.000    153.636      2.799
  8496.500    153.287      2.778
  8497.000    153.496      2.772
  8497.500    151.794      2.769
  8498.000    148.949      2.773
  8498.500    142.615      2.773
  8499.000    133.017      2.772
  8499.500    121.178      2.772
  8500.000    109.884      2.777
  8500.500    102.311      2.782
  8501.000     99.310      2.787
  8501.500     98.731      2.787
  8502.000     98.122      2.784
  8502.500     96.805      2.780
  8503.000     95.052      2.775
  8503.500     93.275      2.772
  8504.000     92.590      2.766
  8504.500     93.511      2.759
  8505.000     93.584      2.756
  8505.500     89.948      2.761
  8506.000     84.207      2.768
  8506.500     80.784      2.773
  8507.000     80.545      2.775
  8507.500     80.668      2.781
  8508.000     80.769      2.787
  8508.500     83.574      2.792
  8509.000     89.385      2.793
  8509.500     94.091      2.791
  8510.000     94.148      2.790
  8510.500     91.621      2.787
  8511.000     93.277      2.785
  8511.500    103.169      2.774
  8512.000    115.963      2.768
  8512.500    122.026      2.755
  8513.000    121.064      2.742
  8513.500    123.999      2.729
  8514.000    136.353      2.727
  8514.500    148.476      2.731
  8515.000    149.274      2.745
  8515.500    141.793      2.776
  8516.000    136.458      2.778
  8516.500    136.143      2.773
  8517.000    137.973      2.766
  8517.500    142.892      2.768
