~Version Information Block
 VERS.                2.00:     CWLS LOG ASCII STANDARD - VERSION 2.000000
 WRAP.                  NO:     One Line Per Depth Step
#
~Well Information Block
#MNEM.UNIT                     Data                         Information
#----------   ------------------------------------------   ----------------
 STRT.FT                                        0.0000:
 STOP.FT                                     9910.0000:
 STEP.FT                                        0.5000:
 NULL.                                       -999.2500:
 COMP.                                                :     COMPANY
 WELL.                                                :     WELL
 FLD .                                                :     FIELD
 CNTY.                                                :     COUNTY
 STAT.                                                :     STATE
 CTRY.                                                :     COUNTRY
 SRVC.                                                :     SERVICE COMPANY
 DATE.                                                :     DATE
 API .                                                :     API NUMBER
 UWI .                                                :     UWI NUMBER
#
~Curve Information Block
#MNEM.UNIT       API CODE      Curve Description
#----------    -------------   -------------------
 DEPT.FT                   :   Depth in Feet
 GR  .GAPI                 :   Gamma Ray
 RHOB.G/C3                 :   Bulk Density
#
~A  DEPTH         GR       RHOB  
# ...
  9125.500    138.661      2.785
  9126.000    140.115      2.783
  9126.500    139.733      2.779
  9127.000    139.210      2.777
  9127.500    138.230      2.772
  9128.000    135.513      2.770
  9128.500    131.016      2.765
  9129.000    125.339      2.764
  9129.500    118.268      2.753
  9130.000    109.522      2.749
  9130.500     99.420      2.750
  9131.000     88.166      2.753
  9131.500     76.641      2.762
  9132.000     68.087      2.765
  9132.500     66.234      2.778
  9133.000     72.344      2.780
  9133.500     85.993      2.781
  9134.000    105.305      2.780
  9134.500    123.666      2.781
  9135.000    135.506      2.781
  9135.500    139.928      2.783
  9136.000    140.494      2.783
  9136.500    141.092      2.779
  9137.000    143.037      2.778
  9137.500    145.802      2.777
  9138.000    148.767      2.780
  9138.500    151.463      2.772
  9139.000    153.082      2.769
  9139.500    152.789      2.760
  9140.000    150.767      2.758
  9140.500    148.390      2.759
  9141.000    146.622      2.760
  9141.500    144.490      2.769
  9142.000    140.326      2.775
  9142.500    134.848      2.783
  9143.000    131.447      2.784
  9143.500    132.451      2.784
  9144.000    135.758      2.782
  9144.500    136.308      2.783
  9145.000    130.839      2.788
  9145.500    120.863      2.790
  9146.000    111.597      2.786
  9146.500    107.909      2.779
  9147.000    110.436      2.775
  9147.500    115.053      2.767
  9148.000    116.414      2.769
  9148.500    112.811      2.778
  9149.000    107.553      2.782
  9149.500    105.544      2.783
  9150.000    108.417      2.781
  9150.500    112.773      2.779
  9151.000    114.402      2.777
  9151.500    114.038      2.778
  9152.000    116.387      2.788
  9152.500    123.237      2.797
  9153.000    131.277      2.798
  9153.500    138.145      2.792
  9154.000    146.116      2.786
  9154.500    156.724      2.785
  9155.000    165.559      2.786
  9155.500    166.430      2.789
  9156.000    159.205      2.790
  9156.500    150.336      2.788
  9157.000    145.847      2.781
  9157.500    145.861      2.776
  9158.000    146.189      2.772
  9158.500    144.045      2.770
  9159.000    140.486      2.770
  9159.500    137.813      2.771
  9160.000    136.895      2.773
  9160.500    137.337      2.770
  9161.000    137.799      2.768
  9161.500    136.158      2.765
  9162.000    131.808      2.768
  9162.500    126.615      2.769
  9163.000    121.517      2.768
  9163.500    115.051      2.768
  9164.000    107.177      2.767
  9164.500    101.501      2.767
  9165.000    100.619      2.767
  9165.500    102.147      2.762
  9166.000    101.951      2.760
  9166.500     98.812      2.762
  9167.000     94.682      2.762
  9167.500     92.137      2.768
  9168.000     91.612      2.772
  9168.500     90.809      2.778
  9169.000     88.646      2.778
  9169.500     88.944      2.781
  9170.000     95.745      2.782
  9170.500    105.925      2.787
  9171.000    112.593      2.791
  9171.500    114.877      2.789
  9172.000    117.755      2.785
  9172.500    122.941      2.783
  9173.000    126.949      2.785
  9173.500    128.338      2.785
  9174.000    130.273      2.785
  9174.500    135.073      2.785
  9175.000    141.199      2.784
  9175.500    146.264      2.780
  9176.000    149.529      2.779
  9176.500    151.077      2.772
  9177.000    150.932      2.767
  9177.500    149.204      2.764
  9178.000    145.848      2.759
  9178.500    140.902      2.755
  9179.000    135.453      2.755
  9179.500    132.018      2.760
  9180.000    132.797      2.766
  9180.500    137.664      2.768
  9181.000    143.482      2.772
  9181.500    145.842      2.771
  9182.000    142.764      2.771
  9182.500    137.402      2.774
  9183.000    134.907      2.776
  9183.500    136.105      2.773
  9184.000    136.542      2.769
  9184.500    132.966      2.766
  9185.000    127.064      2.762
  9185.500    121.762      2.763
  9186.000    117.912      2.767
  9186.500    115.977      2.768
  9187.000    116.709      2.771
  9187.500    119.835      2.769
  9188.000    124.526      2.780
  9188.500    129.321      2.781
  9189.000    129.175      2.767
  9189.500    117.923      2.758
  9190.000     99.041      2.756
  9190.500     86.891      2.758
  9191.000     89.224      2.770
  9191.500     95.392      2.779
  9192.000     92.994      2.794
  9192.500     89.533      2.801
  9193.000    102.633      2.801
  9193.500    131.151      2.800
  9194.000    151.920      2.798
  9194.500    148.578      2.794
  9195.000    130.449      2.794
  9195.500    116.919      2.797
  9196.000    113.829      2.796
  9196.500    114.206      2.791
  9197.000    114.428      2.784
  9197.500    118.434      2.771
  9198.000    127.886      2.761
  9198.500    137.676      2.754
  9199.000    142.423      2.747
  9199.500    142.475      2.744
  9200.000    141.390      2.747
  9200.500    140.934      2.757
  9201.000    140.550      2.765
  9201.500    139.877      2.768
  9202.000    139.232      2.771
  9202.500    138.669      2.774
  9203.000    137.966      2.776
  9203.500    137.436      2.778
  9204.000    137.288      2.782
  9204.500    136.584      2.786
  9205.000    134.314      2.790
  9205.500    131.227      2.795
  9206.000    129.148      2.798
  9206.500    128.555      2.792
  9207.000    128.254      2.791
  9207.500    127.312      2.789
  9208.000    126.034      2.791
  9208.500    125.103      2.787
  9209.000    124.730      2.780
  9209.500    124.451      2.776
  9210.000    123.226      2.780
  9210.500    120.250      2.787
  9211.000    115.966      2.786
  9211.500    111.720      2.780
  9212.000    108.659      2.776
  9212.500    107.637      2.780
  9213.000    109.327      2.783
  9213.500    113.181      2.783
  9214.000    117.012      2.781
  9214.500    118.678      2.780
  9215.000    117.574      2.785
  9215.500    114.155      2.792
  9216.000    109.497      2.801
  9216.500    105.788      2.811
  9217.000    105.294      2.814
  9217.500    108.216      2.812
  9218.000    113.324      2.807
  9218.500    120.577      2.805
  9219.000    130.451      2.800
  9219.500    140.642      2.797
  9220.000    146.829      2.794
  9220.500    147.872      2.788
  9221.000    147.056      2.785
  9221.500    146.993      2.788
  9222.000    146.413      2.790
  9222.500    143.515      2.792
  9223.000    139.441      2.793
  9223.500    136.572      2.794
  9224.000    135.831      2.797
  9224.500    136.995      2.791
  9225.000    139.211      2.792
  9225.500    140.304      2.796
  9226.000    137.928      2.802
  9226.500    132.753      2.810
  9227.000    128.750      2.818
  9227.500    129.398      2.821
  9228.000    134.593      2.816
  9228.500    141.246      2.807
  9229.000    145.981      2.800
  9229.500    147.613      2.794
  9230.000    147.562      2.788
  9230.500    147.163      2.785
  9231.000    145.238      2.787
  9231.500    140.302      2.798
  9232.000    134.259      2.798
  9232.500    130.781      2.800
  9233.000    130.365      2.797
  9233.500    130.546      2.790
  9234.000    130.866      2.787
  9234.500    133.547      2.785
  9235.000    138.852      2.785
  9235.500    143.724      2.782
  9236.000    145.805      2.785
  9236.500    145.171      2.789
  9237.000    141.577      2.792
  9237.500    133.787      2.793
  9238.000    122.859      2.790
  9238.500    112.987      2.785
  9239.000    107.658      2.782
  9239.500    106.897      2.780
  9240.000    109.340      2.775
  9240.500    115.000      2.771
  9241.000    124.257      2.768
  9241.500    135.434      2.768
  9242.000    144.919      2.773
  9242.500    149.430      2.780
  9243.000    147.516      2.785
  9243.500    139.790      2.789
  9244.000    129.014      2.795
  9244.500    119.550      2.797
  9245.000    115.294      2.799
  9245.500    117.396      2.798
  9246.000    124.018      2.797
  9246.500    132.077      2.791
